[{"country":"AE","name":"\u0627\u0644\u0641\u062c\u064a\u0631\u0629","lat":"25.116412","lng":"56.341408"},{"country":"AE","name":"Al Fujayrah","lat":"25.116412","lng":"56.341408"},{"country":"AE","name":"Dubai","lat":"25.258172","lng":"55.304717"},{"country":"AE","name":"\u062f\u0628\u064a","lat":"25.258172","lng":"55.304717"},{"country":"AE","name":"Dubayy","lat":"25.258172","lng":"55.304717"},{"country":"AE","name":"Ra\u2019s al Khaymah","lat":"25.789527","lng":"55.943196"},{"country":"AE","name":"\u0631\u0623\u0633 \u0627\u0644\u062e\u064a\u0645\u0629","lat":"25.789527","lng":"55.943196"},{"country":"AE","name":"\u0639\u062c\u0645\u0627\u0646","lat":"25.405578","lng":"55.461833"},{"country":"AE","name":"\u2018Ajm\u0101n","lat":"25.405578","lng":"55.461833"},{"country":"AE","name":"Abu Dhabi","lat":"24.466667","lng":"54.366667"},{"country":"AE","name":"\u0623\u0628\u0648\u0638\u0628\u064a","lat":"24.466667","lng":"54.366667"},{"country":"AE","name":"Ab\u016b Z\u0327aby","lat":"24.466667","lng":"54.366667"},{"country":"AE","name":"Sharjah","lat":"25.337374","lng":"55.412056"},{"country":"AE","name":"\u0627\u0644\u0634\u0627\u0631\u0642\u0629","lat":"25.337374","lng":"55.412056"},{"country":"AE","name":"Ash Sh\u0101riqah","lat":"25.337374","lng":"55.412056"},{"country":"AE","name":"\u0623\u0645 \u0627\u0644\u0642\u064a\u0648\u064a\u0646","lat":"25.56473","lng":"55.555166"},{"country":"AE","name":"Umm al Qaywayn","lat":"25.56473","lng":"55.555166"}]