[{"country":"AM","name":"Gyumri","lat":"40.794199","lng":"43.84528"},{"country":"AM","name":"Yeghegnadzor","lat":"39.763892","lng":"45.332391"},{"country":"AM","name":"Gavarr","lat":"40.353984","lng":"45.123863"},{"country":"AM","name":"Artashat","lat":"39.961439","lng":"44.544466"},{"country":"AM","name":"Yerevan","lat":"40.181111","lng":"44.513611"},{"country":"AM","name":"Ashtarak","lat":"40.299101","lng":"44.362039"},{"country":"AM","name":"Armavir","lat":"40.08658","lng":"44.053632"},{"country":"AM","name":"Armavir","lat":"40.15446","lng":"44.038154"},{"country":"AM","name":"Armavir","lat":"40.116667","lng":"44"},{"country":"AM","name":"Aragatsotn","lat":"40.416667","lng":"44.166667"},{"country":"AM","name":"Ararat","lat":"39.916667","lng":"44.833333"},{"country":"AM","name":"Geghark\u2019unik\u2019","lat":"40.25","lng":"45.416667"},{"country":"AM","name":"Yerevan","lat":"40.183333","lng":"44.5"},{"country":"AM","name":"Kotayk\u2019","lat":"40.416667","lng":"44.75"},{"country":"AM","name":"Lorri","lat":"41","lng":"44.5"},{"country":"AM","name":"Shirak","lat":"40.75","lng":"43.833333"},{"country":"AM","name":"Syunik\u2019","lat":"39.333333","lng":"46.25"},{"country":"AM","name":"Tavush","lat":"40.916667","lng":"45.166667"},{"country":"AM","name":"Vayots\u2019 Dzor","lat":"39.75","lng":"45.416667"},{"country":"AM","name":"Kapan","lat":"39.207545","lng":"46.405758"},{"country":"AM","name":"Ijevan","lat":"40.878773","lng":"45.148511"}]