[{"country":"BE","name":"Lincent","lat":"50.713291","lng":"5.033473"},{"country":"BE","name":"Hannut","lat":"50.671415","lng":"5.078981"},{"country":"BE","name":"Arlon","lat":"49.683333","lng":"5.816667"},{"country":"BE","name":"Antwerpen","lat":"51.213886","lng":"4.401514"},{"country":"BE","name":"Antwerp","lat":"51.213886","lng":"4.401514"},{"country":"BE","name":"Brugge","lat":"51.210933","lng":"3.225971"},{"country":"BE","name":"Wavre","lat":"50.713908","lng":"4.629657"},{"country":"BE","name":"Li\u00e8ge","lat":"50.638674","lng":"5.570228"},{"country":"BE","name":"Hasselt","lat":"50.933333","lng":"5.333333"},{"country":"BE","name":"Leuven","lat":"50.879336","lng":"4.699048"},{"country":"BE","name":"Mons","lat":"50.45527","lng":"3.951623"},{"country":"BE","name":"Gent","lat":"51.05","lng":"3.716667"},{"country":"BE","name":"Namur","lat":"50.469923","lng":"4.82577"},{"country":"BE","name":"Berchem-Sainte-Agathe","lat":"50.864567","lng":"4.293871"},{"country":"BE","name":"Sint-Agatha-Berchem","lat":"50.864567","lng":"4.293871"},{"country":"BE","name":"Antwerpen","lat":"51.165578","lng":"4.834024"},{"country":"BE","name":"Ixelles","lat":"50.821571","lng":"4.373886"},{"country":"BE","name":"Elsene","lat":"50.821571","lng":"4.373886"},{"country":"BE","name":"Uccle","lat":"50.791023","lng":"4.360156"},{"country":"BE","name":"Ukkel","lat":"50.791023","lng":"4.360156"},{"country":"BE","name":"Etterbeek","lat":"50.832747","lng":"4.394961"},{"country":"BE","name":"Etterbeek","lat":"50.832747","lng":"4.394961"},{"country":"BE","name":"Evere","lat":"50.869469","lng":"4.408266"},{"country":"BE","name":"Evere","lat":"50.869469","lng":"4.408266"},{"country":"BE","name":"Forest","lat":"50.814997","lng":"4.325217"},{"country":"BE","name":"Vorst","lat":"50.814997","lng":"4.325217"},{"country":"BE","name":"Jette","lat":"50.884577","lng":"4.322077"},{"country":"BE","name":"Jette","lat":"50.884577","lng":"4.322077"},{"country":"BE","name":"Saint-Gilles","lat":"50.828703","lng":"4.34419"},{"country":"BE","name":"Sint-Gilles","lat":"50.828703","lng":"4.34419"},{"country":"BE","name":"Ganshoren","lat":"50.874891","lng":"4.309943"},{"country":"BE","name":"Ganshoren","lat":"50.874891","lng":"4.309943"},{"country":"BE","name":"Anderlecht","lat":"50.826918","lng":"4.293498"},{"country":"BE","name":"Anderlecht","lat":"50.826918","lng":"4.293498"},{"country":"BE","name":"Koekelberg","lat":"50.864034","lng":"4.323035"},{"country":"BE","name":"Koekelberg","lat":"50.864034","lng":"4.323035"},{"country":"BE","name":"Schaerbeek","lat":"50.861805","lng":"4.386233"},{"country":"BE","name":"Schaarbeek","lat":"50.861805","lng":"4.386233"},{"country":"BE","name":"Watermael-Boitsfort","lat":"50.795174","lng":"4.422955"},{"country":"BE","name":"Watermaal-Bosvoorde","lat":"50.795174","lng":"4.422955"},{"country":"BE","name":"Auderghem","lat":"50.812524","lng":"4.435089"},{"country":"BE","name":"Oudergem","lat":"50.812524","lng":"4.435089"},{"country":"BE","name":"Molenbeek-Saint-Jean","lat":"50.855306","lng":"4.317607"},{"country":"BE","name":"Sint-Jans-Molenbeek","lat":"50.855306","lng":"4.317607"},{"country":"BE","name":"Saint-Josse-ten-Noode","lat":"50.854461","lng":"4.369203"},{"country":"BE","name":"Sint-Joost-ten-Node","lat":"50.854461","lng":"4.369203"},{"country":"BE","name":"Woluwe-Saint-Lambert","lat":"50.848926","lng":"4.430938"},{"country":"BE","name":"Sint-Lambrechts-Woluwe","lat":"50.848926","lng":"4.430938"},{"country":"BE","name":"Woluwe-Saint-Pierre","lat":"50.829341","lng":"4.44105"},{"country":"BE","name":"Sint-Pieters-Woluwe","lat":"50.829341","lng":"4.44105"},{"country":"BE","name":"Nivelles","lat":"50.666261","lng":"4.566125"},{"country":"BE","name":"Namur","lat":"50.466667","lng":"4.85"},{"country":"BE","name":"Huy","lat":"50.493145","lng":"5.355923"},{"country":"BE","name":"Br\u00fcssel","lat":"50.833333","lng":"4.333333"},{"country":"BE","name":"Brussels","lat":"50.833333","lng":"4.333333"},{"country":"BE","name":"Bruxelles","lat":"50.833333","lng":"4.333333"},{"country":"BE","name":"Brussel","lat":"50.833333","lng":"4.333333"},{"country":"BE","name":"Bruxelles-Capitale","lat":"50.833333","lng":"4.333333"},{"country":"BE","name":"Brabant Wallon","lat":"50.75","lng":"4.583333"},{"country":"BE","name":"Hainaut","lat":"50.5","lng":"3.833333"},{"country":"BE","name":"Li\u00e8ge","lat":"50.5","lng":"5.5"},{"country":"BE","name":"Limburg","lat":"51","lng":"5.5"},{"country":"BE","name":"Luxembourg","lat":"50","lng":"5.5"},{"country":"BE","name":"Namur","lat":"50.333333","lng":"4.833333"},{"country":"BE","name":"Oost-Vlaanderen","lat":"51","lng":"3.75"},{"country":"BE","name":"Vaulx","lat":"50.594058","lng":"3.429537"},{"country":"BE","name":"Vlaams-Brabant","lat":"50.916667","lng":"4.583333"},{"country":"BE","name":"West-Vlaanderen","lat":"51","lng":"3"},{"country":"BE","name":"Philippeville","lat":"50.143437","lng":"4.557782"},{"country":"BE","name":"Roeselare","lat":"50.937401","lng":"3.131176"},{"country":"BE","name":"Oostende","lat":"51.183921","lng":"2.949584"},{"country":"BE","name":"Brugge","lat":"51.2","lng":"3.216667"},{"country":"BE","name":"Tielt","lat":"51","lng":"3.316667"},{"country":"BE","name":"Kortrijk","lat":"50.820979","lng":"3.309932"},{"country":"BE","name":"Mouscron","lat":"50.724661","lng":"3.247247"},{"country":"BE","name":"Tournai","lat":"50.62463","lng":"3.448146"},{"country":"BE","name":"B\u00fctgenbach","lat":"50.459402","lng":"6.213145"},{"country":"BE","name":"Amel","lat":"50.34615","lng":"6.182491"},{"country":"BE","name":"Raeren","lat":"50.66036","lng":"6.127993"},{"country":"BE","name":"Kelmis","lat":"50.719115","lng":"6.024534"},{"country":"BE","name":"Charleroi","lat":"50.463339","lng":"4.402913"},{"country":"BE","name":"Soignies","lat":"50.628508","lng":"4.004011"},{"country":"BE","name":"Aalst","lat":"50.868749","lng":"3.955353"},{"country":"BE","name":"Oudenaarde","lat":"50.832632","lng":"3.653348"},{"country":"BE","name":"Gent","lat":"51.049091","lng":"3.688404"},{"country":"BE","name":"Eeklo","lat":"51.231063","lng":"3.609516"},{"country":"BE","name":"Diksmuide","lat":"51.02497","lng":"2.889732"},{"country":"BE","name":"Ieper","lat":"50.85","lng":"2.866667"},{"country":"BE","name":"Ath","lat":"50.638893","lng":"3.748165"},{"country":"BE","name":"Mons","lat":"50.448184","lng":"3.863412"},{"country":"BE","name":"Sint-Niklaas","lat":"51.199585","lng":"4.134468"},{"country":"BE","name":"Thuin","lat":"50.235489","lng":"4.260177"},{"country":"BE","name":"Neufch\u00e2teau","lat":"49.840738","lng":"5.435347"},{"country":"BE","name":"Tongeren","lat":"50.783333","lng":"5.466667"},{"country":"BE","name":"Virton","lat":"49.56824","lng":"5.532588"},{"country":"BE","name":"Waremme","lat":"50.695287","lng":"5.254554"},{"country":"BE","name":"Bastogne","lat":"50.003472","lng":"5.71844"},{"country":"BE","name":"Huy","lat":"50.523582","lng":"5.241276"},{"country":"BE","name":"Maaseik","lat":"51.09552","lng":"5.790609"},{"country":"BE","name":"Marche-en-Famenne","lat":"50.2","lng":"5.333333"},{"country":"BE","name":"Philippeville","lat":"50.196124","lng":"4.543744"},{"country":"BE","name":"Ath","lat":"50.629569","lng":"3.778033"},{"country":"BE","name":"Charleroi","lat":"50.409473","lng":"4.452483"},{"country":"BE","name":"Dinant","lat":"50.264655","lng":"4.923573"},{"country":"BE","name":"Mechelen","lat":"51.028298","lng":"4.479327"},{"country":"BE","name":"Nivelles","lat":"50.598477","lng":"4.326529"},{"country":"BE","name":"Soignies","lat":"50.579416","lng":"4.070123"},{"country":"BE","name":"Thuin","lat":"50.341464","lng":"4.289944"},{"country":"BE","name":"Tournai","lat":"50.60715","lng":"3.389321"},{"country":"BE","name":"Turnhout","lat":"51.322536","lng":"4.944711"},{"country":"BE","name":"Vilvoorde","lat":"50.920893","lng":"4.407117"},{"country":"BE","name":"Roeselare","lat":"50.946319","lng":"3.122785"},{"country":"BE","name":"Tielt","lat":"50.999307","lng":"3.327067"},{"country":"BE","name":"Aalst","lat":"50.936041","lng":"4.035499"},{"country":"BE","name":"Dendermonde","lat":"51.028691","lng":"4.101059"},{"country":"BE","name":"Diksmuide","lat":"51.032483","lng":"2.863836"},{"country":"BE","name":"Eeklo","lat":"51.187027","lng":"3.556538"},{"country":"BE","name":"Ieper","lat":"50.851142","lng":"2.885688"},{"country":"BE","name":"Kortrijk","lat":"50.824053","lng":"3.267595"},{"country":"BE","name":"Mouscron","lat":"50.744968","lng":"3.206388"},{"country":"BE","name":"Oudenaarde","lat":"50.851684","lng":"3.608914"},{"country":"BE","name":"Sint-Niklaas","lat":"51.165092","lng":"4.143703"},{"country":"BE","name":"Veurne","lat":"51.072307","lng":"2.662384"},{"country":"BE","name":"Oostende","lat":"51.223392","lng":"2.911854"},{"country":"BE","name":"Verviers","lat":"50.585558","lng":"5.87697"},{"country":"BE","name":"Flanders","lat":"51","lng":"4.5"},{"country":"BE","name":"Vlaanderen","lat":"51","lng":"4.5"},{"country":"BE","name":"Wallonia","lat":"50.5","lng":"4.75"},{"country":"BE","name":"Wallonie","lat":"50.5","lng":"4.75"},{"country":"BE","name":"Burg-Reuland","lat":"50.203947","lng":"6.096062"},{"country":"BE","name":"Sankt Vith","lat":"50.283138","lng":"6.139063"},{"country":"BE","name":"Sint-Pieters","lat":"51.223068","lng":"3.20807"},{"country":"BE","name":"Enghien","lat":"50.689555","lng":"4.031336"},{"country":"BE","name":"Bruxelles","lat":"50.880113","lng":"4.368671"},{"country":"BE","name":"Brussel","lat":"50.880113","lng":"4.368671"},{"country":"BE","name":"Veurne","lat":"51.05558","lng":"2.670602"},{"country":"BE","name":"Leuven","lat":"50.889503","lng":"4.832651"},{"country":"BE","name":"Saint-Georges","lat":"50.595415","lng":"5.361859"},{"country":"BE","name":"Li\u00e8ge","lat":"50.598127","lng":"5.608992"},{"country":"BE","name":"Verviers","lat":"50.466667","lng":"6"},{"country":"BE","name":"Bastogne","lat":"50.072522","lng":"5.748041"},{"country":"BE","name":"Marche-en-Famenne","lat":"50.221304","lng":"5.493581"},{"country":"BE","name":"Dinant","lat":"50.175418","lng":"5.030549"},{"country":"BE","name":"Neufch\u00e2teau","lat":"49.916787","lng":"5.333675"},{"country":"BE","name":"Virton","lat":"49.653985","lng":"5.48941"},{"country":"BE","name":"Arlon","lat":"49.691528","lng":"5.782803"},{"country":"BE","name":"Antwerpen","lat":"51.267831","lng":"4.512527"},{"country":"BE","name":"Mechelen","lat":"51.062499","lng":"4.482886"},{"country":"BE","name":"Halle-Vilvoorde","lat":"50.843155","lng":"4.2339"},{"country":"BE","name":"Turnhout","lat":"51.265562","lng":"4.967281"},{"country":"BE","name":"Maaseik","lat":"51.129294","lng":"5.535296"},{"country":"BE","name":"Hasselt","lat":"50.933333","lng":"5.333333"},{"country":"BE","name":"Tongeren","lat":"50.838682","lng":"5.583268"},{"country":"BE","name":"Waremme","lat":"50.666261","lng":"5.216874"}]