[{"country":"BF","name":"Gaoua","lat":"10.299167","lng":"-3.250833"},{"country":"BF","name":"Bati\u00e9","lat":"9.883333","lng":"-2.916667"},{"country":"BF","name":"Hound\u00e9","lat":"11.5","lng":"-3.516667"},{"country":"BF","name":"Bobo-Dioulasso","lat":"11.177154","lng":"-4.297901"},{"country":"BF","name":"Manga","lat":"11.663611","lng":"-1.073056"},{"country":"BF","name":"Ouahigouya","lat":"13.582782","lng":"-2.421582"},{"country":"BF","name":"Tenkodogo","lat":"11.78","lng":"-.369722"},{"country":"BF","name":"Sebba","lat":"13.436412","lng":".530443"},{"country":"BF","name":"Tougan","lat":"13.0725","lng":"-3.0694"},{"country":"BF","name":"Kaya","lat":"13.091667","lng":"-1.084444"},{"country":"BF","name":"Gourcy","lat":"13.207756","lng":"-2.358932"},{"country":"BF","name":"P\u00f4","lat":"11.169722","lng":"-1.145"},{"country":"BF","name":"Sapouy","lat":"11.554444","lng":"-1.773611"},{"country":"BF","name":"Diapaga","lat":"12.073053","lng":"1.788385"},{"country":"BF","name":"Ouagadougou","lat":"12.370278","lng":"-1.524722"},{"country":"BF","name":"Koubri","lat":"12.198611","lng":"-1.406111"},{"country":"BF","name":"Kongoussi","lat":"13.325833","lng":"-1.534722"},{"country":"BF","name":"Pama","lat":"11.249722","lng":".7075"},{"country":"BF","name":"Fada Ngourma","lat":"12.061567","lng":".358433"},{"country":"BF","name":"Ziniar\u00e9","lat":"12.581862","lng":"-1.297104"},{"country":"BF","name":"Gay\u00e9ri","lat":"12.648238","lng":".493139"},{"country":"BF","name":"Dano","lat":"11.146402","lng":"-3.057837"},{"country":"BF","name":"Di\u00e9bougou","lat":"10.962089","lng":"-3.249673"},{"country":"BF","name":"Boromo","lat":"11.745422","lng":"-2.930063"},{"country":"BF","name":"L\u00e9o","lat":"11.100327","lng":"-2.106541"},{"country":"BF","name":"Cascades","lat":"10.3334","lng":"-4.5833"},{"country":"BF","name":"Boucle du Mouhoun","lat":"12.5","lng":"-3.5"},{"country":"BF","name":"Centre","lat":"12.33334","lng":"-1.5"},{"country":"BF","name":"Centre-Est","lat":"11.5833","lng":"-.1666"},{"country":"BF","name":"Centre-Nord","lat":"13.25","lng":"-1"},{"country":"BF","name":"Centre-Ouest","lat":"11.75","lng":"-2.25"},{"country":"BF","name":"Centre-Sud","lat":"11.5833","lng":"-1.0833"},{"country":"BF","name":"Est","lat":"12.25","lng":".9167"},{"country":"BF","name":"Hauts-Bassins","lat":"11.3334","lng":"-4.3334"},{"country":"BF","name":"Nord","lat":"13.5","lng":"-2.25"},{"country":"BF","name":"Plateau-Central","lat":"12.5","lng":"-1.08334"},{"country":"BF","name":"Sahel","lat":"14.25","lng":"-.5"},{"country":"BF","name":"Sud-Ouest","lat":"10.5","lng":"-3.25"},{"country":"BF","name":"D\u00e9dougou","lat":"12.463378","lng":"-3.460746"},{"country":"BF","name":"Nouna","lat":"12.729385","lng":"-3.863049"},{"country":"BF","name":"Kombissiri","lat":"12.06095","lng":"-1.333553"},{"country":"BF","name":"Tanvi","lat":"12.23881","lng":"-1.333552"},{"country":"BF","name":"Bouss\u00e9","lat":"12.657595","lng":"-1.89288"},{"country":"BF","name":"Koudougou","lat":"12.252632","lng":"-2.36272"},{"country":"BF","name":"R\u00e9o","lat":"12.319627","lng":"-2.470943"},{"country":"BF","name":"Toma","lat":"12.758444","lng":"-2.898793"},{"country":"BF","name":"Yako","lat":"12.959101","lng":"-2.260746"},{"country":"BF","name":"Salanso","lat":"12.174233","lng":"-4.084773"},{"country":"BF","name":"Djibo","lat":"14.099396","lng":"-1.62554"},{"country":"BF","name":"D\u00e9ou","lat":"14.600844","lng":"-.719009"},{"country":"BF","name":"Oursi","lat":"14.675526","lng":"-.460335"},{"country":"BF","name":"Tin-Akoff","lat":"14.965491","lng":"-.163347"},{"country":"BF","name":"Aribinda","lat":"14.229291","lng":"-.863809"},{"country":"BF","name":"Titao","lat":"13.766667","lng":"-2.066667"},{"country":"BF","name":"Ouargaye","lat":"11.502025","lng":".058857"},{"country":"BF","name":"Dori","lat":"14.034099","lng":"-.032615"},{"country":"BF","name":"Gorom-Gorom","lat":"14.442905","lng":"-.234677"},{"country":"BF","name":"Zorgo","lat":"12.249222","lng":"-.61527"},{"country":"BF","name":"Boulsa","lat":"12.666641","lng":"-.574685"},{"country":"BF","name":"Koup\u00e9la","lat":"12.178644","lng":"-.351031"},{"country":"BF","name":"Banfora","lat":"10.633333","lng":"-4.766667"},{"country":"BF","name":"Sindou","lat":"10.666667","lng":"-5.166667"},{"country":"BF","name":"Zondoma","lat":"13.183333","lng":"-2.366667"},{"country":"BF","name":"Ziro","lat":"11.583333","lng":"-1.916667"},{"country":"BF","name":"Yagha","lat":"13.416667","lng":".583333"},{"country":"BF","name":"Tuy","lat":"11.416667","lng":"-3.416667"},{"country":"BF","name":"Noumbiel","lat":"9.833333","lng":"-2.933333"},{"country":"BF","name":"Nayala","lat":"12.666667","lng":"-3"},{"country":"BF","name":"Loroum","lat":"13.916667","lng":"-2.166667"},{"country":"BF","name":"L\u00e9raba","lat":"10.666667","lng":"-5.2"},{"country":"BF","name":"Kourw\u00e9ogo","lat":"12.583333","lng":"-1.766667"},{"country":"BF","name":"Koulp\u00e9logo","lat":"11.416667","lng":".166667"},{"country":"BF","name":"Kompienga","lat":"11.416667","lng":".916667"},{"country":"BF","name":"Komondjari","lat":"12.75","lng":".75"},{"country":"BF","name":"Ioba","lat":"11.083333","lng":"-3.083333"},{"country":"BF","name":"Banwa","lat":"12.166667","lng":"-4.166667"},{"country":"BF","name":"Bal\u00e9","lat":"11.716667","lng":"-3.05"},{"country":"BF","name":"Bam","lat":"13.466667","lng":"-1.583333"},{"country":"BF","name":"Baz\u00e8ga","lat":"11.916667","lng":"-1.5"},{"country":"BF","name":"Bougouriba","lat":"10.833333","lng":"-3.416667"},{"country":"BF","name":"Boulgou","lat":"11.5","lng":"-.416667"},{"country":"BF","name":"Boulkiemd\u00e9","lat":"12.333333","lng":"-2.166667"},{"country":"BF","name":"Ganzourgou","lat":"12.266667","lng":"-.766667"},{"country":"BF","name":"Gnagna","lat":"12.916667","lng":"0"},{"country":"BF","name":"Gourma","lat":"12.083333","lng":".5"},{"country":"BF","name":"Houet","lat":"11.333333","lng":"-4.25"},{"country":"BF","name":"Kadiogo","lat":"12.333333","lng":"-1.5"},{"country":"BF","name":"K\u00e9n\u00e9dougou","lat":"11.416667","lng":"-5"},{"country":"BF","name":"Como\u00e9","lat":"10.333333","lng":"-4.416667"},{"country":"BF","name":"Kossi","lat":"12.916667","lng":"-3.833333"},{"country":"BF","name":"Kouritenga","lat":"12.2","lng":"-.3"},{"country":"BF","name":"Mouhoun","lat":"12.25","lng":"-3.416667"},{"country":"BF","name":"Namentenga","lat":"13.25","lng":"-.5"},{"country":"BF","name":"Nahouri","lat":"11.25","lng":"-1.25"},{"country":"BF","name":"Oubritenga","lat":"12.666667","lng":"-1.333333"},{"country":"BF","name":"Oudalan","lat":"14.666667","lng":"-.333333"},{"country":"BF","name":"Passore","lat":"12.916667","lng":"-2.166667"},{"country":"BF","name":"Poni","lat":"10.25","lng":"-3.416667"},{"country":"BF","name":"Sangui\u00e9","lat":"12.166667","lng":"-2.666667"},{"country":"BF","name":"Sissili","lat":"11.333333","lng":"-2.25"},{"country":"BF","name":"Soum","lat":"14.333333","lng":"-1.25"},{"country":"BF","name":"Sourou","lat":"13.25","lng":"-3"},{"country":"BF","name":"Tapoa","lat":"12","lng":"1.75"},{"country":"BF","name":"Yatenga","lat":"13.583333","lng":"-2.416667"},{"country":"BF","name":"Zoundw\u00e9ogo","lat":"11.583333","lng":"-1"},{"country":"BF","name":"Orodara","lat":"10.949167","lng":"-4.934167"},{"country":"BF","name":"Bogand\u00e9","lat":"12.970402","lng":"-.149532"}]