[{"country":"BM","name":"Devonshire","lat":"32.302778","lng":"-64.755833"},{"country":"BM","name":"Brackish Pond","lat":"32.302778","lng":"-64.755833"},{"country":"BM","name":"Hamilton","lat":"32.342222","lng":"-64.728333"},{"country":"BM","name":"Bailey\u2019s Bay","lat":"32.342222","lng":"-64.728333"},{"country":"BM","name":"Paget","lat":"32.278333","lng":"-64.781667"},{"country":"BM","name":"Crow Lane","lat":"32.278333","lng":"-64.781667"},{"country":"BM","name":"Pembroke","lat":"32.299444","lng":"-64.792778"},{"country":"BM","name":"Spanish Point","lat":"32.299444","lng":"-64.792778"},{"country":"BM","name":"Saint George\u2019s","lat":"32.363611","lng":"-64.679444"},{"country":"BM","name":"Sandys","lat":"32.291944","lng":"-64.872222"},{"country":"BM","name":"Somerset","lat":"32.291944","lng":"-64.872222"},{"country":"BM","name":"Smith\u2019s","lat":"32.315278","lng":"-64.735278"},{"country":"BM","name":"Harris Bay","lat":"32.315278","lng":"-64.735278"},{"country":"BM","name":"Southampton","lat":"32.250833","lng":"-64.856389"},{"country":"BM","name":"Port Royal","lat":"32.250833","lng":"-64.856389"},{"country":"BM","name":"Warwick","lat":"32.265833","lng":"-64.807222"},{"country":"BM","name":"Heron Bay","lat":"32.265833","lng":"-64.807222"},{"country":"BM","name":"Hamilton","lat":"32.294167","lng":"-64.783889"},{"country":"BM","name":"The Flatts Village","lat":"32.321111","lng":"-64.736944"},{"country":"BM","name":"Saint George\u2019s Town","lat":"32.381667","lng":"-64.678056"},{"country":"BM","name":"Saint Georges","lat":"32.381667","lng":"-64.678056"}]