[{"country":"BO","name":"Yacuma","lat":"-13.5","lng":"-66"},{"country":"BO","name":"Warnes","lat":"-17.333333","lng":"-63"},{"country":"BO","name":"Yampar\u00e1ez","lat":"-19.166667","lng":"-64.916667"},{"country":"BO","name":"Murillo","lat":"-16.333333","lng":"-68"},{"country":"BO","name":"Payacota","lat":"-20.4","lng":"-65.3"},{"country":"BO","name":"Santa Cruz","lat":"-17.8","lng":"-63.166667"},{"country":"BO","name":"Salinas","lat":"-19.433333","lng":"-66.15"},{"country":"BO","name":"Iturralde","lat":"-13","lng":"-68"},{"country":"BO","name":"Velasco","lat":"-15.5","lng":"-61"},{"country":"BO","name":"Gualberto Villarroel","lat":"-17.583333","lng":"-68"},{"country":"BO","name":"Manco Kapac","lat":"-16","lng":"-69.166667"},{"country":"BO","name":"Pacajes","lat":"-17.5","lng":"-69"},{"country":"BO","name":"Los Andes","lat":"-16.333333","lng":"-68.5"},{"country":"BO","name":"La Paz","lat":"-16.5","lng":"-68.15"},{"country":"BO","name":"Marb\u00e1n","lat":"-15.666667","lng":"-64.333333"},{"country":"BO","name":"Ichilo","lat":"-17","lng":"-64"},{"country":"BO","name":"Zud\u00e1\u00f1ez","lat":"-18.916667","lng":"-64.833333"},{"country":"BO","name":"Naranjal","lat":"-22.4","lng":"-64.55"},{"country":"BO","name":"Ladislao Cabrera","lat":"-19.5","lng":"-67.666667"},{"country":"BO","name":"Pantale\u00f3n Dalence","lat":"-18.333333","lng":"-66.916667"},{"country":"BO","name":"Sud L\u00edpez","lat":"-22","lng":"-67.5"},{"country":"BO","name":"Sud Cinti","lat":"-20.916667","lng":"-64.916667"},{"country":"BO","name":"Sud Chichas","lat":"-21.5","lng":"-66"},{"country":"BO","name":"Mu\u00f1ecas","lat":"-15.333333","lng":"-68.666667"},{"country":"BO","name":"M\u00e9ndez","lat":"-21.166667","lng":"-64.916667"},{"country":"BO","name":"Sajama","lat":"-18.2","lng":"-68.55"},{"country":"BO","name":"Quillacollo","lat":"-17.5","lng":"-66.5"},{"country":"BO","name":"Quijarro","lat":"-20","lng":"-66.333333"},{"country":"BO","name":"Nicol\u00e1s Su\u00e1rez","lat":"-11.333333","lng":"-68.5"},{"country":"BO","name":"Andr\u00e9s Ib\u00e1\u00f1ez","lat":"-17.75","lng":"-63.25"},{"country":"BO","name":"Nor Yungas","lat":"-16","lng":"-67.5"},{"country":"BO","name":"Nor L\u00edpez","lat":"-20.5","lng":"-67.833333"},{"country":"BO","name":"\u00d1uflo de Ch\u00e1vez","lat":"-15.916667","lng":"-62.5"},{"country":"BO","name":"Saavedra","lat":"-19.25","lng":"-65.5"},{"country":"BO","name":"Oropeza","lat":"-18.666667","lng":"-65.166667"},{"country":"BO","name":"Belisario Boeto","lat":"-18.916667","lng":"-64.333333"},{"country":"BO","name":"Franz Tamayo","lat":"-14.5","lng":"-68.333333"},{"country":"BO","name":"Mizque","lat":"-17.916667","lng":"-65.5"},{"country":"BO","name":"Inquisivi","lat":"-17","lng":"-67.083333"},{"country":"BO","name":"General Bilbao","lat":"-18.083333","lng":"-66"},{"country":"BO","name":"Arani","lat":"-17.5","lng":"-65.5"},{"country":"BO","name":"General Jos\u00e9 Ballivi\u00e1n","lat":"-14","lng":"-67.083333"},{"country":"BO","name":"San Jos\u00e9","lat":"-14.216667","lng":"-68.083333"},{"country":"BO","name":"San Jos\u00e9","lat":"-14.8","lng":"-64.333333"},{"country":"BO","name":"San Jos\u00e9","lat":"-17.85","lng":"-60.75"},{"country":"BO","name":"Florida","lat":"-18","lng":"-63.916667"},{"country":"BO","name":"Oruro","lat":"-17.983333","lng":"-67.15"},{"country":"BO","name":"Larecaja","lat":"-15.5","lng":"-68.333333"},{"country":"BO","name":"Esteban Arce","lat":"-17.666667","lng":"-66"},{"country":"BO","name":"Alonzo de Ib\u00e1\u00f1ez","lat":"-18.5","lng":"-66.333333"},{"country":"BO","name":"Charcas","lat":"-18.333333","lng":"-65.833333"},{"country":"BO","name":"Molino","lat":"-21.866667","lng":"-65.183333"},{"country":"BO","name":"Omasuyos","lat":"-15.916667","lng":"-68.833333"},{"country":"BO","name":"Cordillera","lat":"-19","lng":"-61.5"},{"country":"BO","name":"Punata","lat":"-17.5","lng":"-65.916667"},{"country":"BO","name":"Cercado","lat":"-17.333333","lng":"-66.166667"},{"country":"BO","name":"Avilez","lat":"-21.666667","lng":"-65"},{"country":"BO","name":"Carangas","lat":"-18.333333","lng":"-67.75"},{"country":"BO","name":"Carrasco","lat":"-17.5","lng":"-65"},{"country":"BO","name":"Abun\u00e1","lat":"-10.5","lng":"-66.5"},{"country":"BO","name":"Atahuallpa","lat":"-19","lng":"-68.583333"},{"country":"BO","name":"Avaroa","lat":"-19","lng":"-66.666667"},{"country":"BO","name":"Sud Yungas","lat":"-16.5","lng":"-67.5"},{"country":"BO","name":"Nor Cinti","lat":"-20.333333","lng":"-65"},{"country":"BO","name":"Potrerito","lat":"-18.883333","lng":"-58.416667"},{"country":"BO","name":"General Federico Rom\u00e1n","lat":"-10.333333","lng":"-65.883333"},{"country":"BO","name":"Chiquitos","lat":"-18","lng":"-60"},{"country":"BO","name":"Capinota","lat":"-17.833333","lng":"-66.166667"},{"country":"BO","name":"Vaca Diez","lat":"-11.666667","lng":"-66"},{"country":"BO","name":"Cobija","lat":"-11.018556","lng":"-68.757015"},{"country":"BO","name":"San Antonio","lat":"-21.94906","lng":"-66.517007"},{"country":"BO","name":"Yoay","lat":"-20.29359","lng":"-63.083116"},{"country":"BO","name":"Tarija","lat":"-21.525701","lng":"-64.728052"},{"country":"BO","name":"Tapacar\u00ed","lat":"-17.511458","lng":"-66.619655"},{"country":"BO","name":"San Juan","lat":"-17.955616","lng":"-64.289571"},{"country":"BO","name":"Arque","lat":"-17.75","lng":"-66.666667"},{"country":"BO","name":"Aroma","lat":"-17.5","lng":"-68"},{"country":"BO","name":"Trinidad","lat":"-14.833333","lng":"-64.9"},{"country":"BO","name":"Madre de Dios","lat":"-11.583333","lng":"-67"},{"country":"BO","name":"Potos\u00ed","lat":"-19.583611","lng":"-65.753056"},{"country":"BO","name":"Litoral","lat":"-18.5","lng":"-68.25"},{"country":"BO","name":"O\u2019Connor","lat":"-21.583333","lng":"-64.166667"},{"country":"BO","name":"Loayza","lat":"-17","lng":"-67.666667"},{"country":"BO","name":"Chapar\u00e9","lat":"-16.5","lng":"-65.5"},{"country":"BO","name":"Cercado","lat":"-14.5","lng":"-64.333333"},{"country":"BO","name":"Hernando Siles","lat":"-20.166667","lng":"-64.25"},{"country":"BO","name":"Ingavi","lat":"-16.833333","lng":"-68.666667"},{"country":"BO","name":"Nor Chichas","lat":"-20.666667","lng":"-66"},{"country":"BO","name":"Mamor\u00e9","lat":"-13","lng":"-64.916667"},{"country":"BO","name":"Bautista Saavedra","lat":"-15","lng":"-68.916667"},{"country":"BO","name":"Sara","lat":"-16.833333","lng":"-63.916667"},{"country":"BO","name":"Tom\u00e1s Fr\u00edas","lat":"-19.333333","lng":"-66"},{"country":"BO","name":"Gran Chaco","lat":"-21.666667","lng":"-63"},{"country":"BO","name":"Daniel Campos","lat":"-20.25","lng":"-68.25"},{"country":"BO","name":"Cercado","lat":"-21.583333","lng":"-64.583333"},{"country":"BO","name":"Linares","lat":"-19.833333","lng":"-65.5"},{"country":"BO","name":"Azurduy","lat":"-20","lng":"-64.5"},{"country":"BO","name":"San Pedro de Totora","lat":"-17.833333","lng":"-68.2"},{"country":"BO","name":"Manuripi","lat":"-11.333333","lng":"-67.5"},{"country":"BO","name":"Manuel Mar\u00eda Caballero","lat":"-17.833333","lng":"-64.416667"},{"country":"BO","name":"Campero","lat":"-18.333333","lng":"-65"},{"country":"BO","name":"Sur Carangas","lat":"-18.833333","lng":"-67.5"},{"country":"BO","name":"\u00c1ngel Sandoval","lat":"-17.5","lng":"-58.5"},{"country":"BO","name":"Santiesteban","lat":"-16.5","lng":"-63.5"},{"country":"BO","name":"Ayopaya","lat":"-16.5","lng":"-66.583333"},{"country":"BO","name":"Rafael Bustillos","lat":"-18.333333","lng":"-66.5"},{"country":"BO","name":"Tomina","lat":"-19.5","lng":"-64.166667"},{"country":"BO","name":"Moxos","lat":"-15.166667","lng":"-65.5"},{"country":"BO","name":"Poop\u00f3","lat":"-18.5","lng":"-66.916667"},{"country":"BO","name":"Arce","lat":"-22.166667","lng":"-64.333333"},{"country":"BO","name":"Germ\u00e1n Jord\u00e1n","lat":"-17.583333","lng":"-65.916667"},{"country":"BO","name":"It\u00e9nez","lat":"-13.416667","lng":"-63.5"},{"country":"BO","name":"Cochabamba","lat":"-17.389498","lng":"-66.156797"},{"country":"BO","name":"Sucre","lat":"-19.047646","lng":"-65.259058"},{"country":"BO","name":"Chuquisaca","lat":"-20","lng":"-64.333333"},{"country":"BO","name":"Cochabamba","lat":"-17.5","lng":"-65.666667"},{"country":"BO","name":"La Paz","lat":"-15.5","lng":"-68"},{"country":"BO","name":"Oruro","lat":"-18.666667","lng":"-67.5"},{"country":"BO","name":"Pando","lat":"-11.333333","lng":"-67.666667"},{"country":"BO","name":"Potos\u00ed","lat":"-20.666667","lng":"-67"},{"country":"BO","name":"Santa Cruz","lat":"-17.5","lng":"-61.5"},{"country":"BO","name":"Tarija","lat":"-21.5","lng":"-64"},{"country":"BO","name":"El Beni","lat":"-14","lng":"-65.5"},{"country":"BO","name":"Modesto Omiste","lat":"-21.916667","lng":"-65.583333"},{"country":"BO","name":"Vallegrande","lat":"-18.5","lng":"-64.166667"},{"country":"BO","name":"Tom\u00e1s Barron","lat":"-17.833333","lng":"-68.25"},{"country":"BO","name":"Cercado","lat":"-17.916667","lng":"-67.083333"},{"country":"BO","name":"Luis Calvo","lat":"-20.666667","lng":"-63.5"},{"country":"BO","name":"Saucari","lat":"-18.25","lng":"-67.416667"},{"country":"BO","name":"Chayanta","lat":"-18.916667","lng":"-66"},{"country":"BO","name":"Camacho","lat":"-15.5","lng":"-69"},{"country":"BO","name":"San Pedro","lat":"-18.271014","lng":"-65.980889"}]