[{"country":"CO","name":"Medell\u00edn","lat":"6.25","lng":"-75.583333"},{"country":"CO","name":"San Andr\u00e9s","lat":"12.584722","lng":"-81.700556"},{"country":"CO","name":"R\u00edohacha","lat":"11.544444","lng":"-72.907222"},{"country":"CO","name":"Mocoa","lat":"1.149327","lng":"-76.64661"},{"country":"CO","name":"San Jos\u00e9 del Guaviare","lat":"2.572858","lng":"-72.645914"},{"country":"CO","name":"San Jacinto","lat":"8.249757","lng":"-74.720792"},{"country":"CO","name":"Valledupar","lat":"10.46314","lng":"-73.253224"},{"country":"CO","name":"Bucaramanga","lat":"7.125393","lng":"-73.119804"},{"country":"CO","name":"San Jos\u00e9","lat":"6.159004","lng":"-73.447582"},{"country":"CO","name":"Retiro","lat":"8.856082","lng":"-75.815311"},{"country":"CO","name":"Monter\u00eda","lat":"8.747984","lng":"-75.881428"},{"country":"CO","name":"C\u00facuta","lat":"7.893907","lng":"-72.507821"},{"country":"CO","name":"San Juan","lat":"2.540512","lng":"-77.211062"},{"country":"CO","name":"Bogot\u00e1","lat":"4.649178","lng":"-74.062827"},{"country":"CO","name":"Bogot\u00e1","lat":"4.25","lng":"-74.183333"},{"country":"CO","name":"Sincelejo","lat":"9.304722","lng":"-75.397778"},{"country":"CO","name":"San Rafael","lat":"6.3","lng":"-75"},{"country":"CO","name":"Quibd\u00f3","lat":"5.694722","lng":"-76.661111"},{"country":"CO","name":"Leticia","lat":"-4.215278","lng":"-69.940556"},{"country":"CO","name":"Pasto","lat":"1.213611","lng":"-77.281111"},{"country":"CO","name":"In\u00edrida","lat":"3.865278","lng":"-67.923889"},{"country":"CO","name":"Saman\u00e1","lat":"6.166667","lng":"-74.85"},{"country":"CO","name":"Ibagu\u00e9","lat":"4.438889","lng":"-75.232222"},{"country":"CO","name":"Mit\u00fa","lat":"1.198333","lng":"-70.173333"},{"country":"CO","name":"Cali","lat":"3.437222","lng":"-76.5225"},{"country":"CO","name":"Barranquilla","lat":"10.963889","lng":"-74.796389"},{"country":"CO","name":"Bel\u00e9n","lat":"1.416667","lng":"-75.916667"},{"country":"CO","name":"Minip\u00ed","lat":"5.416667","lng":"-74.416667"},{"country":"CO","name":"Guamo","lat":"7.966667","lng":"-74.8"},{"country":"CO","name":"Pereira","lat":"4.813333","lng":"-75.696111"},{"country":"CO","name":"Puerto Carre\u00f1o","lat":"6.189031","lng":"-67.485879"},{"country":"CO","name":"Medell\u00edn","lat":"6.25184","lng":"-75.563591"},{"country":"CO","name":"Piletas","lat":"9.270446","lng":"-75.31477"},{"country":"CO","name":"San Andr\u00e9s","lat":"9.113702","lng":"-75.003228"},{"country":"CO","name":"Flecha","lat":"9.026991","lng":"-75.525633"},{"country":"CO","name":"San Antonio","lat":"9.040333","lng":"-74.765578"},{"country":"CO","name":"Santa Marta","lat":"11.240791","lng":"-74.19904"},{"country":"CO","name":"Manizales","lat":"5.06889","lng":"-75.517383"},{"country":"CO","name":"Florencia","lat":"1.614382","lng":"-75.606229"},{"country":"CO","name":"Sucre","lat":"9","lng":"-75"},{"country":"CO","name":"Tolima","lat":"3.75","lng":"-75.25"},{"country":"CO","name":"Cauca","lat":"2.5","lng":"-76.833333"},{"country":"CO","name":"Valle del Cauca","lat":"3.75","lng":"-76.5"},{"country":"CO","name":"Quind\u00edo","lat":"4.5","lng":"-75.666667"},{"country":"CO","name":"Santander","lat":"7","lng":"-73.25"},{"country":"CO","name":"Vaup\u00e9s","lat":".25","lng":"-70.75"},{"country":"CO","name":"Vichada","lat":"5","lng":"-69.5"},{"country":"CO","name":"Amazonas","lat":"-1.019722","lng":"-71.938333"},{"country":"CO","name":"Antioquia","lat":"7","lng":"-75.5"},{"country":"CO","name":"Arauca","lat":"6.666667","lng":"-71"},{"country":"CO","name":"Magdalena","lat":"10","lng":"-74.5"},{"country":"CO","name":"Meta","lat":"3.5","lng":"-73"},{"country":"CO","name":"Nari\u00f1o","lat":"1.5","lng":"-78"},{"country":"CO","name":"Norte de Santander","lat":"8","lng":"-73"},{"country":"CO","name":"Atl\u00e1ntico","lat":"10.75","lng":"-75"},{"country":"CO","name":"Bol\u00edvar","lat":"9","lng":"-74.333333"},{"country":"CO","name":"Boyac\u00e1","lat":"5.5","lng":"-72.5"},{"country":"CO","name":"Caldas","lat":"5.25","lng":"-75.5"},{"country":"CO","name":"Caquet\u00e1","lat":"1","lng":"-74"},{"country":"CO","name":"Putumayo","lat":".5","lng":"-76"},{"country":"CO","name":"Casanare","lat":"5.5","lng":"-71.5"},{"country":"CO","name":"Cesar","lat":"9.333333","lng":"-73.5"},{"country":"CO","name":"Choc\u00f3","lat":"6","lng":"-77"},{"country":"CO","name":"C\u00f3rdoba","lat":"8.333333","lng":"-75.666667"},{"country":"CO","name":"Cundinamarca","lat":"5","lng":"-74.166667"},{"country":"CO","name":"Guain\u00eda","lat":"2.5","lng":"-69"},{"country":"CO","name":"Guaviare","lat":"1.689444","lng":"-72.820278"},{"country":"CO","name":"Huila","lat":"2.5","lng":"-75.75"},{"country":"CO","name":"La Guajira","lat":"11.5","lng":"-72.5"},{"country":"CO","name":"Risaralda","lat":"5","lng":"-76"},{"country":"CO","name":"San Jos\u00e9","lat":"6.494444","lng":"-74.840278"},{"country":"CO","name":"Valle","lat":"6.5","lng":"-73.066667"},{"country":"CO","name":"Popay\u00e1n","lat":"3.2775","lng":"-75.621389"},{"country":"CO","name":"Mata","lat":"5.35","lng":"-70.866667"},{"country":"CO","name":"Armenia","lat":"4.533889","lng":"-75.681111"},{"country":"CO","name":"Santa Catalina","lat":"10.583333","lng":"-75.25"},{"country":"CO","name":"Cartagena","lat":"10.399722","lng":"-75.514444"},{"country":"CO","name":"Mahates","lat":"10.166667","lng":"-75.166667"},{"country":"CO","name":"Tunja","lat":"5.535278","lng":"-73.367778"},{"country":"CO","name":"Buenavista","lat":"5.5","lng":"-73.966667"},{"country":"CO","name":"Fundaci\u00f3n","lat":"10.416667","lng":"-73.916667"},{"country":"CO","name":"Ci\u00e9naga","lat":"10.833333","lng":"-74.083333"},{"country":"CO","name":"Santa Ana","lat":"9.316667","lng":"-74.583333"},{"country":"CO","name":"La Uni\u00f3n","lat":"1.281398","lng":"-75.208484"},{"country":"CO","name":"Arauca","lat":"7.084512","lng":"-70.755366"},{"country":"CO","name":"Neiva","lat":"2.927299","lng":"-75.281885"},{"country":"CO","name":"Purgatorio","lat":"9.722104","lng":"-74.799768"},{"country":"CO","name":"Play\u00f3n","lat":"9.881954","lng":"-75.327955"},{"country":"CO","name":"Santa Rosa","lat":"2.702345","lng":"-77.469625"},{"country":"CO","name":"Santa Rosa","lat":"10.402054","lng":"-74.108511"},{"country":"CO","name":"Villavicencio","lat":"4.142002","lng":"-73.626645"},{"country":"CO","name":"Barranco","lat":"9.143398","lng":"-73.98949"},{"country":"CO","name":"Yopal","lat":"5.337752","lng":"-72.395859"},{"country":"CO","name":"San Jos\u00e9","lat":"12.318105","lng":"-71.789231"}]