[{"country":"FR","name":"Couthures","lat":"44.513604","lng":".078135"},{"country":"FR","name":"Fargues","lat":"44.536658","lng":"-.296908"},{"country":"FR","name":"Fourques","lat":"44.447978","lng":".157033"},{"country":"FR","name":"Valence","lat":"43.882697","lng":".381112"},{"country":"FR","name":"Villeneuve","lat":"44.4071","lng":".705603"},{"country":"FR","name":"Plou\u00e9gat","lat":"48.566667","lng":"-3.616667"},{"country":"FR","name":"Saint-Laurent","lat":"44.883333","lng":"-.133333"},{"country":"FR","name":"Albi","lat":"43.916667","lng":"2"},{"country":"FR","name":"Saint-Nicolas","lat":"49.066667","lng":"-1.45"},{"country":"FR","name":"Salles","lat":"45.45","lng":"-.133333"},{"country":"FR","name":"Largenti\u00e8re","lat":"44.583333","lng":"4.166667"},{"country":"FR","name":"Riom","lat":"45.916667","lng":"2.916667"},{"country":"FR","name":"Saint-Martin","lat":"45.05","lng":".333333"},{"country":"FR","name":"Sarlat","lat":"44.916667","lng":"1.083333"},{"country":"FR","name":"Saint-\u00c9tienne","lat":"45.833333","lng":"2.583333"},{"country":"FR","name":"La Neuville","lat":"49.866667","lng":"4.333333"},{"country":"FR","name":"Squivit","lat":"48.35","lng":"-4.266667"},{"country":"FR","name":"Bourges","lat":"47.25","lng":"2.416667"},{"country":"FR","name":"Ajaccio","lat":"42","lng":"8.916667"},{"country":"FR","name":"Avernes","lat":"48.8","lng":".216667"},{"country":"FR","name":"Bordeaux","lat":"44.833333","lng":"-.833333"},{"country":"FR","name":"Neuville","lat":"49.016667","lng":"2.066667"},{"country":"FR","name":"Saint-Maurice","lat":"46.066667","lng":"2.6"},{"country":"FR","name":"Saint-Nazaire","lat":"47.333333","lng":"-2.166667"},{"country":"FR","name":"La Chapelle","lat":"44.987235","lng":"1.726244"},{"country":"FR","name":"Queyssac","lat":"44.967171","lng":"1.769411"},{"country":"FR","name":"Orliac","lat":"45.361086","lng":"1.801407"},{"country":"FR","name":"Neuilly","lat":"46.798751","lng":"2.780817"},{"country":"FR","name":"Saint-Yrieix","lat":"46.100651","lng":"1.938751"},{"country":"FR","name":"Saint-Yrieix","lat":"45.456985","lng":"1.970609"},{"country":"FR","name":"Saint-Sulpice","lat":"45.608409","lng":"2.144327"},{"country":"FR","name":"Badm\u00e9nil","lat":"48.302379","lng":"6.519378"},{"country":"FR","name":"Saint-Sulpice","lat":"46.200974","lng":"1.828256"},{"country":"FR","name":"Moulins","lat":"47.083404","lng":"2.517666"},{"country":"FR","name":"M\u00e9n\u00e9tr\u00e9ol","lat":"47.317904","lng":"2.855912"},{"country":"FR","name":"Menetou","lat":"47.351523","lng":"2.754854"},{"country":"FR","name":"Saint-Priest","lat":"45.30127","lng":"1.868269"},{"country":"FR","name":"Saint-Pardoux","lat":"46.082739","lng":"2.119713"},{"country":"FR","name":"Moutier","lat":"46.091699","lng":"2.05529"},{"country":"FR","name":"Moustier","lat":"45.395761","lng":"2.104755"},{"country":"FR","name":"Chanac","lat":"45.264968","lng":"1.820645"},{"country":"FR","name":"Champagnac","lat":"45.186512","lng":"1.952193"},{"country":"FR","name":"Champagnac","lat":"45.307305","lng":"2.016795"},{"country":"FR","name":"Lugny","lat":"47.186199","lng":"2.820855"},{"country":"FR","name":"Lugny","lat":"46.931691","lng":"2.704925"},{"country":"FR","name":"Les Aix","lat":"47.19652","lng":"2.565061"},{"country":"FR","name":"Feins","lat":"47.748953","lng":"2.840292"},{"country":"FR","name":"Farges","lat":"47.07371","lng":"2.650286"},{"country":"FR","name":"Cernoy","lat":"47.540471","lng":"2.660671"},{"country":"FR","name":"Saint-Pardoux","lat":"45.245704","lng":"1.982243"},{"country":"FR","name":"Saint-Michel","lat":"44.975786","lng":"1.687945"},{"country":"FR","name":"Saint-Merd","lat":"45.633263","lng":"2.040652"},{"country":"FR","name":"Vallon","lat":"46.536759","lng":"2.608281"},{"country":"FR","name":"\u00c9pineuil","lat":"46.558756","lng":"2.583143"},{"country":"FR","name":"Dun","lat":"46.884903","lng":"2.573448"},{"country":"FR","name":"Dampierre","lat":"47.460385","lng":"2.583523"},{"country":"FR","name":"Dampierre","lat":"47.761432","lng":"2.519618"},{"country":"FR","name":"Dammarie","lat":"47.626385","lng":"2.872473"},{"country":"FR","name":"Bonny","lat":"47.561718","lng":"2.839329"},{"country":"FR","name":"Bessais","lat":"46.745931","lng":"2.763331"},{"country":"FR","name":"Saint-Merd","lat":"45.256792","lng":"2.083397"},{"country":"FR","name":"Saint-Martial","lat":"45.267155","lng":"1.873148"},{"country":"FR","name":"Saint-L\u00e9ger","lat":"46.151305","lng":"1.813767"},{"country":"FR","name":"Bassignac","lat":"45.211628","lng":"2.071706"},{"country":"FR","name":"Sury","lat":"47.484665","lng":"2.867428"},{"country":"FR","name":"Sury","lat":"47.464573","lng":"2.703902"},{"country":"FR","name":"Sury","lat":"47.368","lng":"2.804188"},{"country":"FR","name":"La Ville","lat":"46.751071","lng":"2.744057"},{"country":"FR","name":"Jussy","lat":"46.985903","lng":"2.642719"},{"country":"FR","name":"Cosne","lat":"46.475423","lng":"2.83162"},{"country":"FR","name":"Bengy","lat":"47.001142","lng":"2.746478"},{"country":"FR","name":"Beaulieu","lat":"47.543232","lng":"2.816191"},{"country":"FR","name":"Saint-Hilaire","lat":"45.611094","lng":"1.831935"},{"country":"FR","name":"Saint-Hilaire","lat":"46.12565","lng":"1.976391"},{"country":"FR","name":"Meyrignac","lat":"45.4","lng":"1.851853"},{"country":"FR","name":"Savigny","lat":"47.044041","lng":"2.559922"},{"country":"FR","name":"Savigny","lat":"47.441423","lng":"2.809529"},{"country":"FR","name":"Chaumoux","lat":"47.124852","lng":"2.777717"},{"country":"FR","name":"Ch\u00e2tillon","lat":"47.591138","lng":"2.752094"},{"country":"FR","name":"Charenton","lat":"46.730067","lng":"2.644379"},{"country":"FR","name":"Autry","lat":"47.598858","lng":"2.601999"},{"country":"FR","name":"Augy","lat":"46.784511","lng":"2.844646"},{"country":"FR","name":"Saint-Hilaire","lat":"45.331167","lng":"2.125678"},{"country":"FR","name":"Marcillac","lat":"45.272304","lng":"2.030512"},{"country":"FR","name":"Saligny","lat":"47.045527","lng":"2.766762"},{"country":"FR","name":"Saligny","lat":"46.982857","lng":"2.754473"},{"country":"FR","name":"Saint-Pierre","lat":"46.734297","lng":"2.622877"},{"country":"FR","name":"Saint-Pierre","lat":"46.402516","lng":"2.264204"},{"country":"FR","name":"Saint-Martin","lat":"47.659423","lng":"2.658101"},{"country":"FR","name":"Saint-Firmin","lat":"47.625614","lng":"2.732667"},{"country":"FR","name":"Ainay","lat":"46.71142","lng":"2.692451"},{"country":"FR","name":"Vitrac","lat":"45.376701","lng":"1.936582"},{"country":"FR","name":"Saint-Denis","lat":"44.945505","lng":"1.665835"},{"country":"FR","name":"Saint-Brisson","lat":"47.646859","lng":"2.682286"},{"country":"FR","name":"Saint-Aignan","lat":"46.765329","lng":"2.816239"},{"country":"FR","name":"Saint-Bonnet","lat":"45.25714","lng":"1.83564"},{"country":"FR","name":"P\u00e9rols","lat":"45.586451","lng":"1.981375"},{"country":"FR","name":"P\u00e9ret","lat":"45.478923","lng":"2.040157"},{"country":"FR","name":"Les Angles","lat":"45.306974","lng":"1.800775"},{"country":"FR","name":"Poilly","lat":"47.677242","lng":"2.59743"},{"country":"FR","name":"Pierrefitte","lat":"47.507424","lng":"2.716381"},{"country":"FR","name":"L\u2019\u00c9glise","lat":"45.64769","lng":"1.802904"},{"country":"FR","name":"Ouzouer","lat":"47.672663","lng":"2.807995"},{"country":"FR","name":"Ousson","lat":"47.590186","lng":"2.78733"},{"country":"FR","name":"Ourouer","lat":"46.929302","lng":"2.792397"},{"country":"FR","name":"Nohant","lat":"47.098953","lng":"2.570284"},{"country":"FR","name":"Neuilly","lat":"47.303046","lng":"2.68714"},{"country":"FR","name":"Rosiers","lat":"45.377177","lng":"2.007149"},{"country":"FR","name":"Lagarde","lat":"45.187018","lng":"1.807997"},{"country":"FR","name":"Lafage","lat":"45.296024","lng":"2.071983"},{"country":"FR","name":"Ladignac","lat":"45.233251","lng":"1.837246"},{"country":"FR","name":"La Chapelle","lat":"46.100781","lng":"1.83967"},{"country":"FR","name":"Soulages","lat":"44.675964","lng":"2.796247"},{"country":"FR","name":"Teissi\u00e8res","lat":"44.822281","lng":"2.543052"},{"country":"FR","name":"Le Pian","lat":"44.585563","lng":"-.212948"},{"country":"FR","name":"Le Mas","lat":"44.41033","lng":".21869"},{"country":"FR","name":"Vins","lat":"43.43312","lng":"6.142719"},{"country":"FR","name":"Tailly","lat":"49.929665","lng":"1.948533"},{"country":"FR","name":"Sorel","lat":"50.010554","lng":"1.907864"},{"country":"FR","name":"Neuville","lat":"49.84731","lng":"1.754035"},{"country":"FR","name":"Neuville","lat":"49.972291","lng":"1.78908"},{"country":"FR","name":"Neuilly","lat":"50.169235","lng":"1.878809"},{"country":"FR","name":"Neuilly","lat":"50.223881","lng":"2.042297"},{"country":"FR","name":"Nesle","lat":"49.90713","lng":"1.668134"},{"country":"FR","name":"Nesle","lat":"49.905869","lng":"1.690952"},{"country":"FR","name":"Nempont","lat":"50.355518","lng":"1.733195"},{"country":"FR","name":"Nampont","lat":"50.348896","lng":"1.74531"},{"country":"FR","name":"Inval","lat":"49.884433","lng":"1.750825"},{"country":"FR","name":"Criquetot","lat":"49.776456","lng":"1.07398"},{"country":"FR","name":"Criel","lat":"50.015078","lng":"1.314588"},{"country":"FR","name":"Cr\u00e9cy","lat":"50.251931","lng":"1.88085"},{"country":"FR","name":"Arques","lat":"49.881224","lng":"1.128748"},{"country":"FR","name":"Anneville","lat":"49.829115","lng":"1.086451"},{"country":"FR","name":"Siant-Michel","lat":"50.376119","lng":"2.356641"},{"country":"FR","name":"Moyencourt","lat":"49.802529","lng":"2.033944"},{"country":"FR","name":"Morvillers","lat":"49.780674","lng":"1.824897"},{"country":"FR","name":"Monts","lat":"50.321313","lng":"2.386267"},{"country":"FR","name":"Montreuil","lat":"50.463874","lng":"1.762839"},{"country":"FR","name":"Montigny","lat":"50.180643","lng":"2.134556"},{"country":"FR","name":"Huby","lat":"50.381988","lng":"2.037575"},{"country":"FR","name":"Hodeng","lat":"49.862632","lng":"1.708597"},{"country":"FR","name":"Heucourt","lat":"49.930643","lng":"1.882523"},{"country":"FR","name":"Courcelles","lat":"49.812143","lng":"2.045109"},{"country":"FR","name":"Conteville","lat":"50.744336","lng":"1.732247"},{"country":"FR","name":"Aix","lat":"50.476194","lng":"1.858277"},{"country":"FR","name":"Aix","lat":"50.58385","lng":"1.999586"},{"country":"FR","name":"Saint-Vast","lat":"49.970335","lng":"2.204126"},{"country":"FR","name":"Saint-Val\u00e9ry","lat":"50.185778","lng":"1.626242"},{"country":"FR","name":"Saint-Sulpice","lat":"49.993398","lng":"1.355785"},{"country":"FR","name":"Saint-Riquier","lat":"49.890914","lng":"1.559576"},{"country":"FR","name":"Saint-R\u00e9my","lat":"50.008597","lng":"1.395476"},{"country":"FR","name":"Saint-R\u00e9my","lat":"50.366529","lng":"1.874254"},{"country":"FR","name":"Saint-Quentin","lat":"50.07492","lng":"1.457978"},{"country":"FR","name":"Saint-Quentin","lat":"50.282781","lng":"1.596438"},{"country":"FR","name":"Montagne","lat":"49.916017","lng":"1.981254"},{"country":"FR","name":"Monchy","lat":"49.994987","lng":"1.454199"},{"country":"FR","name":"Monchel","lat":"50.30269","lng":"2.206152"},{"country":"FR","name":"Molliens","lat":"49.988285","lng":"2.386726"},{"country":"FR","name":"Millencourt","lat":"50.151223","lng":"1.902201"},{"country":"FR","name":"Hesdin","lat":"50.666357","lng":"1.68085"},{"country":"FR","name":"Hesdigneul","lat":"50.66107","lng":"1.661598"},{"country":"FR","name":"Herlin","lat":"50.355257","lng":"2.329665"},{"country":"FR","name":"Conchy","lat":"50.302445","lng":"2.200489"},{"country":"FR","name":"Conchil","lat":"50.369012","lng":"1.664046"},{"country":"FR","name":"Colmesnil","lat":"49.842206","lng":"1.037643"},{"country":"FR","name":"Clairy","lat":"49.855869","lng":"2.179383"},{"country":"FR","name":"Aire","lat":"50.638713","lng":"2.398759"},{"country":"FR","name":"Ailly","lat":"49.928863","lng":"2.196149"},{"country":"FR","name":"Ailly","lat":"50.079298","lng":"1.994376"},{"country":"FR","name":"Acheux","lat":"50.0652","lng":"1.676119"},{"country":"FR","name":"Yaucourt","lat":"50.104279","lng":"1.976815"},{"country":"FR","name":"Saint-Quentin","lat":"49.938101","lng":"1.321351"},{"country":"FR","name":"Saint-Pol","lat":"50.381132","lng":"2.334067"},{"country":"FR","name":"Saint-Pol","lat":"51.03116","lng":"2.339835"},{"country":"FR","name":"Saint-Pierre","lat":"50.02168","lng":"1.447066"},{"country":"FR","name":"Saint-Pierre","lat":"49.851345","lng":"1.452079"},{"country":"FR","name":"Saint-Ouen","lat":"49.90538","lng":"1.297677"},{"country":"FR","name":"Saint-Ouen","lat":"49.759698","lng":".962632"},{"country":"FR","name":"Saint-Nicolas","lat":"49.878565","lng":"1.224859"},{"country":"FR","name":"Saint-Michel","lat":"50.513632","lng":"1.932367"},{"country":"FR","name":"Mesnil-Val","lat":"50.042664","lng":"1.3337"},{"country":"FR","name":"Mesnil","lat":"50.136145","lng":"2.070495"},{"country":"FR","name":"Mesni\u00e8res","lat":"49.761715","lng":"1.381866"},{"country":"FR","name":"Mers","lat":"50.065383","lng":"1.388101"},{"country":"FR","name":"M\u00e9ricourt","lat":"49.897066","lng":"1.949144"},{"country":"FR","name":"Merck","lat":"50.624737","lng":"2.116046"},{"country":"FR","name":"Hem","lat":"50.162999","lng":"2.30055"},{"country":"FR","name":"Hautvillers","lat":"50.173514","lng":"1.813121"},{"country":"FR","name":"Hautot","lat":"49.897891","lng":"1.02884"},{"country":"FR","name":"Hardelot","lat":"50.633333","lng":"1.579195"},{"country":"FR","name":"Cayeux","lat":"50.181774","lng":"1.495896"},{"country":"FR","name":"Cavron","lat":"50.414184","lng":"1.995344"},{"country":"FR","name":"Saint-Martin","lat":"49.977953","lng":"1.370457"},{"country":"FR","name":"Saint-Martin","lat":"49.95648","lng":"1.222329"},{"country":"FR","name":"Saint-Martin","lat":"50.601862","lng":"2.094206"},{"country":"FR","name":"Saint-Martin","lat":"50.678047","lng":"1.888506"},{"country":"FR","name":"Saint-Martin","lat":"50.726909","lng":"1.618642"},{"country":"FR","name":"Saint-Martin","lat":"50.751793","lng":"2.240506"},{"country":"FR","name":"Saint-Martin","lat":"49.830643","lng":"1.661165"},{"country":"FR","name":"Saint-L\u00e9ger","lat":"49.868256","lng":"1.720946"},{"country":"FR","name":"Saint-L\u00e9ger","lat":"50.052079","lng":"2.140669"},{"country":"FR","name":"Saint-L\u00e9ger","lat":"49.832844","lng":"1.610676"},{"country":"FR","name":"Saint-Jacques","lat":"49.848533","lng":"1.257956"},{"country":"FR","name":"Saint-Hilaire","lat":"50.570495","lng":"2.412839"},{"country":"FR","name":"Saint-Germain","lat":"49.764711","lng":"1.506763"},{"country":"FR","name":"Saint-Germain","lat":"49.829787","lng":"1.731988"},{"country":"FR","name":"Martin","lat":"49.901742","lng":"1.141197"},{"country":"FR","name":"Marles","lat":"50.45869","lng":"1.831367"},{"country":"FR","name":"Mareuil","lat":"50.068226","lng":"1.830582"},{"country":"FR","name":"Hangest","lat":"49.980857","lng":"2.064466"},{"country":"FR","name":"Hames","lat":"50.881781","lng":"1.843379"},{"country":"FR","name":"Guyencourt","lat":"49.780154","lng":"2.371313"},{"country":"FR","name":"Cappelle","lat":"50.999793","lng":"2.358484"},{"country":"FR","name":"Capelle","lat":"50.341334","lng":"1.997379"},{"country":"FR","name":"Camps","lat":"49.879994","lng":"1.969601"},{"country":"FR","name":"Campagne","lat":"50.71915","lng":"2.333643"},{"country":"FR","name":"Saint-Germain","lat":"49.837735","lng":"1.181316"},{"country":"FR","name":"Saint-Georges","lat":"50.96946","lng":"2.164598"},{"country":"FR","name":"Saint-\u00c9tienne","lat":"50.677944","lng":"1.630841"},{"country":"FR","name":"Sainte-Beuve","lat":"49.76361","lng":"1.528442"},{"country":"FR","name":"Sainte-Beuve","lat":"49.769724","lng":"1.606519"},{"country":"FR","name":"Sainte-Agathe","lat":"49.826975","lng":"1.331461"},{"country":"FR","name":"Saint-Denis","lat":"49.865108","lng":".957336"},{"country":"FR","name":"Saint-Aubin","lat":"49.871619","lng":"1.068226"},{"country":"FR","name":"Saint-Aubin","lat":"49.871558","lng":"1.775875"},{"country":"FR","name":"Saint-Aubin","lat":"49.846699","lng":"1.995712"},{"country":"FR","name":"Maninghen","lat":"50.767805","lng":"1.669564"},{"country":"FR","name":"Maison","lat":"50.127549","lng":"2.021802"},{"country":"FR","name":"Maison","lat":"50.206969","lng":"2.043031"},{"country":"FR","name":"Maisnil","lat":"50.452621","lng":"2.232092"},{"country":"FR","name":"Grouches","lat":"50.182324","lng":"2.376639"},{"country":"FR","name":"Campagne","lat":"50.397241","lng":"1.874944"},{"country":"FR","name":"Campagne","lat":"50.842023","lng":"1.901379"},{"country":"FR","name":"Campagne","lat":"50.613046","lng":"1.99492"},{"country":"FR","name":"Bussy","lat":"49.819968","lng":"2.018684"},{"country":"FR","name":"Bussus","lat":"50.110882","lng":"1.999144"},{"country":"FR","name":"Bures","lat":"49.77829","lng":"1.334525"},{"country":"FR","name":"Saint-Aubin","lat":"49.867401","lng":"1.184922"},{"country":"FR","name":"Sains","lat":"50.477126","lng":"2.355587"},{"country":"FR","name":"Sains","lat":"50.466357","lng":"2.043586"},{"country":"FR","name":"Sains","lat":"49.817156","lng":"2.318623"},{"country":"FR","name":"Sailly","lat":"50.184189","lng":"1.771802"},{"country":"FR","name":"Magnicourt","lat":"50.303913","lng":"2.40872"},{"country":"FR","name":"Longueville","lat":"49.79138","lng":"1.110087"},{"country":"FR","name":"Gouy","lat":"50.375082","lng":"1.898759"},{"country":"FR","name":"Gouy","lat":"49.845346","lng":"1.957061"},{"country":"FR","name":"Gouy","lat":"50.319968","lng":"2.41141"},{"country":"FR","name":"Gauchin","lat":"50.395926","lng":"2.311899"},{"country":"FR","name":"Buire","lat":"50.384299","lng":"1.832505"},{"country":"FR","name":"Buire","lat":"50.262425","lng":"2.151138"},{"country":"FR","name":"Buigny","lat":"50.155257","lng":"1.813488"},{"country":"FR","name":"Buigny","lat":"50.024003","lng":"1.566912"},{"country":"FR","name":"Buigny","lat":"50.098494","lng":"1.936512"},{"country":"FR","name":"Briquemesnil","lat":"49.884548","lng":"2.087001"},{"country":"FR","name":"Rouxmesnil","lat":"49.906327","lng":"1.079757"},{"country":"FR","name":"Longpr\u00e9","lat":"50.012388","lng":"1.99287"},{"country":"FR","name":"Longpr\u00e9","lat":"49.923453","lng":"2.26293"},{"country":"FR","name":"Loison","lat":"50.439851","lng":"1.921633"},{"country":"FR","name":"Lintot","lat":"49.8","lng":"1.073269"},{"country":"FR","name":"Lincheux","lat":"49.858842","lng":"1.95603"},{"country":"FR","name":"Ligny","lat":"50.285167","lng":"2.256969"},{"country":"FR","name":"Ligny","lat":"50.557139","lng":"2.349069"},{"country":"FR","name":"Ligni\u00e8res","lat":"49.91092","lng":"1.738101"},{"country":"FR","name":"Fresnoy","lat":"49.888346","lng":"1.428198"},{"country":"FR","name":"Fresnoy","lat":"49.81251","lng":"1.489569"},{"country":"FR","name":"Fresnoy","lat":"49.835167","lng":"2.056358"},{"country":"FR","name":"Bray","lat":"50.053668","lng":"1.853118"},{"country":"FR","name":"Bouvaincourt","lat":"50.030154","lng":"1.491808"},{"country":"FR","name":"Wierre","lat":"50.64193","lng":"1.761805"},{"country":"FR","name":"Ricarville","lat":"49.809606","lng":"1.275355"},{"country":"FR","name":"Ligni\u00e8res","lat":"49.774553","lng":"1.862449"},{"country":"FR","name":"Le Touquet","lat":"50.524323","lng":"1.585713"},{"country":"FR","name":"Fresnoy","lat":"49.911165","lng":"1.793887"},{"country":"FR","name":"Foucaucourt","lat":"49.917278","lng":"1.724897"},{"country":"FR","name":"Fort-Mahon","lat":"50.339551","lng":"1.559839"},{"country":"FR","name":"Boulogne","lat":"50.720702","lng":"1.604562"},{"country":"FR","name":"Bouillancourt","lat":"49.96141","lng":"1.629176"},{"country":"FR","name":"Boubers","lat":"50.29018","lng":"2.236267"},{"country":"FR","name":"Boubers","lat":"50.472771","lng":"1.952483"},{"country":"FR","name":"Bonningues","lat":"50.890472","lng":"1.774022"},{"country":"FR","name":"Bonningues","lat":"50.792713","lng":"2.015012"},{"country":"FR","name":"Recques","lat":"50.521736","lng":"1.784885"},{"country":"FR","name":"Rebreuve","lat":"50.264099","lng":"2.340585"},{"country":"FR","name":"Raye","lat":"50.297517","lng":"1.94931"},{"country":"FR","name":"Les Landes","lat":"49.787368","lng":"1.628931"},{"country":"FR","name":"Fortel","lat":"50.257703","lng":"2.229298"},{"country":"FR","name":"Forest","lat":"50.202934","lng":"1.823514"},{"country":"FR","name":"Forceville","lat":"49.964588","lng":"1.797677"},{"country":"FR","name":"Fontaine","lat":"50.029054","lng":"1.939569"},{"country":"FR","name":"Fontaine","lat":"50.236092","lng":"1.929333"},{"country":"FR","name":"Fontaine","lat":"50.304863","lng":"2.06346"},{"country":"FR","name":"Fontaine","lat":"50.525677","lng":"2.349069"},{"country":"FR","name":"Fontaine","lat":"49.944131","lng":"1.807336"},{"country":"FR","name":"Fontaine","lat":"50.496","lng":"2.275219"},{"country":"FR","name":"Blangy","lat":"50.421495","lng":"2.168736"},{"country":"FR","name":"Wavrans","lat":"50.413218","lng":"2.300024"},{"country":"FR","name":"Wavrans","lat":"50.682919","lng":"2.137782"},{"country":"FR","name":"Wanchy","lat":"49.858559","lng":"1.358842"},{"country":"FR","name":"Quesnoy","lat":"49.955257","lng":"1.990547"},{"country":"FR","name":"Quesnoy","lat":"50.110554","lng":"1.689324"},{"country":"FR","name":"Les Essarts","lat":"49.817523","lng":"1.524737"},{"country":"FR","name":"Le Quesnoy","lat":"50.333126","lng":"2.048759"},{"country":"FR","name":"Feuqui\u00e8res","lat":"50.05982","lng":"1.604646"},{"country":"FR","name":"Blangy","lat":"49.93211","lng":"1.625141"},{"country":"FR","name":"Blangy","lat":"49.767217","lng":"2.001192"},{"country":"FR","name":"Biville","lat":"49.98101","lng":"1.253707"},{"country":"FR","name":"Bettencourt","lat":"50.025929","lng":"2.113182"},{"country":"FR","name":"Bettencourt","lat":"49.999228","lng":"1.980116"},{"country":"FR","name":"Wailly","lat":"50.410666","lng":"1.726194"},{"country":"FR","name":"Vraignes","lat":"49.828473","lng":"1.912082"},{"country":"FR","name":"Vitz","lat":"50.253104","lng":"2.066977"},{"country":"FR","name":"Pourville","lat":"49.91669","lng":"1.031912"},{"country":"FR","name":"Port","lat":"50.151223","lng":"1.748533"},{"country":"FR","name":"Ponts","lat":"50.045965","lng":"1.445965"},{"country":"FR","name":"Ponches","lat":"50.309494","lng":"1.894206"},{"country":"FR","name":"Plachy","lat":"49.814588","lng":"2.21789"},{"country":"FR","name":"Estr\u00e9e","lat":"50.271351","lng":"2.401712"},{"country":"FR","name":"Estr\u00e9es","lat":"49.786267","lng":"2.330521"},{"country":"FR","name":"Estr\u00e9es","lat":"50.253862","lng":"1.927565"},{"country":"FR","name":"Erny","lat":"50.585713","lng":"2.255794"},{"country":"FR","name":"B\u00e9thencourt","lat":"50.077556","lng":"1.503485"},{"country":"FR","name":"Bertreville","lat":"49.80917","lng":"1.056847"},{"country":"FR","name":"Berteaucourt","lat":"50.046974","lng":"2.157497"},{"country":"FR","name":"Berneval","lat":"49.953279","lng":"1.187551"},{"country":"FR","name":"Bernay","lat":"50.269564","lng":"1.742689"},{"country":"FR","name":"Berck","lat":"50.408139","lng":"1.577515"},{"country":"FR","name":"Belleville","lat":"49.949266","lng":"1.162632"},{"country":"FR","name":"Villy","lat":"49.943359","lng":"1.45"},{"country":"FR","name":"Villers","lat":"50.064741","lng":"1.806236"},{"country":"FR","name":"Villers","lat":"50.315288","lng":"1.692551"},{"country":"FR","name":"Villers","lat":"49.839691","lng":"1.563977"},{"country":"FR","name":"Villers","lat":"50.061287","lng":"2.016667"},{"country":"FR","name":"Villers","lat":"50.227709","lng":"2.211287"},{"country":"FR","name":"Villers","lat":"49.998097","lng":"2.316827"},{"country":"FR","name":"Villeroy","lat":"50.254552","lng":"2.048759"},{"country":"FR","name":"Ville","lat":"50.022627","lng":"2.072512"},{"country":"FR","name":"Vieux-Rouen","lat":"49.833822","lng":"1.719846"},{"country":"FR","name":"Vers","lat":"49.841769","lng":"2.230888"},{"country":"FR","name":"Pernes","lat":"50.751319","lng":"1.703104"},{"country":"FR","name":"Le Caule","lat":"49.768012","lng":"1.590791"},{"country":"FR","name":"\u00c9quihen","lat":"50.675574","lng":"1.572254"},{"country":"FR","name":"\u00c9pagne","lat":"50.071802","lng":"1.873269"},{"country":"FR","name":"Enquin","lat":"50.571736","lng":"1.836747"},{"country":"FR","name":"Enquin","lat":"50.587471","lng":"2.282816"},{"country":"FR","name":"Beauvoir","lat":"50.214305","lng":"2.177671"},{"country":"FR","name":"Beaumetz","lat":"50.54023","lng":"2.228505"},{"country":"FR","name":"Beaumerie","lat":"50.454966","lng":"1.799483"},{"country":"FR","name":"Vaux","lat":"49.985778","lng":"1.788101"},{"country":"FR","name":"Vaux","lat":"49.961624","lng":"2.249266"},{"country":"FR","name":"Vaulx","lat":"50.268012","lng":"2.09731"},{"country":"FR","name":"Vauchelles","lat":"50.104157","lng":"1.889691"},{"country":"FR","name":"Vauchelles","lat":"50.056236","lng":"2.054646"},{"country":"FR","name":"Varengeville","lat":"49.904746","lng":".994795"},{"country":"FR","name":"Oye","lat":"50.977126","lng":"2.042758"},{"country":"FR","name":"Ouville","lat":"49.873728","lng":".959698"},{"country":"FR","name":"Osmoy","lat":"49.795782","lng":"1.32382"},{"country":"FR","name":"Eaucourt","lat":"50.064588","lng":"1.885167"},{"country":"FR","name":"Beaucamps","lat":"49.846416","lng":"1.782722"},{"country":"FR","name":"Beaucamps","lat":"49.816178","lng":"1.77278"},{"country":"FR","name":"Bayenghem","lat":"50.70031","lng":"2.076815"},{"country":"FR","name":"Bayenghem","lat":"50.808139","lng":"2.120805"},{"country":"FR","name":"Bailly","lat":"49.911899","lng":"1.336795"},{"country":"FR","name":"Vacquerie","lat":"50.269479","lng":"2.21899"},{"country":"FR","name":"Tourville","lat":"49.859262","lng":"1.102384"},{"country":"FR","name":"Tourville","lat":"49.944865","lng":"1.261165"},{"country":"FR","name":"Tours","lat":"50.035167","lng":"1.683944"},{"country":"FR","name":"Touffreville","lat":"50.001345","lng":"1.324614"},{"country":"FR","name":"Noyelles","lat":"50.185534","lng":"1.707375"},{"country":"FR","name":"Noyelles","lat":"50.207336","lng":"1.981621"},{"country":"FR","name":"Noyelle","lat":"50.375226","lng":"2.176731"},{"country":"FR","name":"Nouvion","lat":"50.213816","lng":"1.777709"},{"country":"FR","name":"Notre-Dame","lat":"49.851559","lng":"1.295071"},{"country":"FR","name":"Landrethun","lat":"50.825495","lng":"1.96046"},{"country":"FR","name":"Landrethun","lat":"50.847207","lng":"1.783747"},{"country":"FR","name":"Lamotte","lat":"49.885717","lng":"2.389202"},{"country":"FR","name":"La Madelaine","lat":"50.468135","lng":"1.750766"},{"country":"FR","name":"Dreuil","lat":"49.900642","lng":"2.038468"},{"country":"FR","name":"Dreuil","lat":"49.914833","lng":"2.228931"},{"country":"FR","name":"Dompierre","lat":"50.303724","lng":"1.916943"},{"country":"FR","name":"Domart","lat":"50.07437","lng":"2.125959"},{"country":"FR","name":"Bailleul","lat":"49.807336","lng":"1.423147"},{"country":"FR","name":"Bailleul","lat":"50.509735","lng":"2.387575"},{"country":"FR","name":"Bacqueville","lat":"49.787612","lng":".999266"},{"country":"FR","name":"Bacouel","lat":"49.830032","lng":"2.225019"},{"country":"FR","name":"Avesnes","lat":"49.919724","lng":"1.398655"},{"country":"FR","name":"Avesnes","lat":"49.900856","lng":"1.873636"},{"country":"FR","name":"Auxi","lat":"50.23101","lng":"2.115933"},{"country":"FR","name":"Tocqueville","lat":"50.002445","lng":"1.283211"},{"country":"FR","name":"Tilloy","lat":"49.987612","lng":"1.610309"},{"country":"FR","name":"Thil","lat":"49.841036","lng":".993114"},{"country":"FR","name":"Noeux","lat":"50.235534","lng":"2.174041"},{"country":"FR","name":"Nielles","lat":"50.674219","lng":"2.031358"},{"country":"FR","name":"Nielles","lat":"50.842575","lng":"2.016667"},{"country":"FR","name":"Neuville","lat":"50.474737","lng":"1.776702"},{"country":"FR","name":"Neuville","lat":"49.791647","lng":"2.183822"},{"country":"FR","name":"Neuville","lat":"49.926571","lng":"1.101467"},{"country":"FR","name":"Lachapelle","lat":"49.764558","lng":"1.958253"},{"country":"FR","name":"La Chapelle","lat":"49.821527","lng":"1.149175"},{"country":"FR","name":"La Capelle","lat":"50.733023","lng":"1.701474"},{"country":"FR","name":"Laboissi\u00e8re","lat":"49.837918","lng":"1.811715"},{"country":"FR","name":"Dampierre","lat":"49.859209","lng":"1.2011"},{"country":"FR","name":"Crosville","lat":"49.824645","lng":"1.090761"},{"country":"FR","name":"Croix","lat":"50.384067","lng":"2.27942"},{"country":"FR","name":"Auchy","lat":"50.401138","lng":"2.101448"},{"country":"FR","name":"Auchy","lat":"50.554035","lng":"2.371736"},{"country":"FR","name":"Aubin","lat":"50.395034","lng":"1.972884"},{"country":"FR","name":"Aubermesnil","lat":"49.843764","lng":"1.116759"},{"country":"FR","name":"Xonrupt","lat":"48.082235","lng":"6.929438"},{"country":"FR","name":"Sainte-Genevi\u00e8ve","lat":"44.802219","lng":"2.759538"},{"country":"FR","name":"Saint-Amans","lat":"44.68679","lng":"2.662023"},{"country":"FR","name":"Vezels","lat":"44.809308","lng":"2.585738"},{"country":"FR","name":"Saint-Symphorien","lat":"44.739165","lng":"2.730178"},{"country":"FR","name":"Saint-Sauveur","lat":"44.821599","lng":"4.577086"},{"country":"FR","name":"Duni\u00e8res","lat":"44.823094","lng":"4.658326"},{"country":"FR","name":"Albon","lat":"44.82111","lng":"4.426658"},{"country":"FR","name":"Villette","lat":"45.589085","lng":"4.913983"},{"country":"FR","name":"Aub\u00e9rives","lat":"45.424649","lng":"4.817574"},{"country":"FR","name":"Ville","lat":"45.37194","lng":"4.851056"},{"country":"FR","name":"Saint-Pierre","lat":"45.645578","lng":"5.011281"},{"country":"FR","name":"Saint-Pierre","lat":"45.38192","lng":"4.748291"},{"country":"FR","name":"Saint-Michel","lat":"45.445102","lng":"4.743475"},{"country":"FR","name":"Soucieu","lat":"45.680168","lng":"4.703336"},{"country":"FR","name":"S\u00e9r\u00e9zin","lat":"45.629015","lng":"4.824673"},{"country":"FR","name":"S\u00e9r\u00e9zin","lat":"45.557199","lng":"5.343134"},{"country":"FR","name":"Saint-Symphorien","lat":"45.633151","lng":"4.854589"},{"country":"FR","name":"Saint-Romain","lat":"45.566822","lng":"4.712867"},{"country":"FR","name":"Saint-Romain","lat":"45.531592","lng":"4.860743"},{"country":"FR","name":"Saint-Romain","lat":"45.385264","lng":"4.882712"},{"country":"FR","name":"Saint-Cyr","lat":"45.515372","lng":"4.850017"},{"country":"FR","name":"Saint-Clair","lat":"45.43909","lng":"4.771778"},{"country":"FR","name":"Saint-Maurice","lat":"45.402736","lng":"4.769059"},{"country":"FR","name":"Saint-Martin","lat":"45.586691","lng":"4.716439"},{"country":"FR","name":"Saint-Marcel","lat":"45.647915","lng":"5.236576"},{"country":"FR","name":"Saint-Laurent","lat":"45.688699","lng":"5.046561"},{"country":"FR","name":"Saint-Laurent","lat":"45.641461","lng":"4.685832"},{"country":"FR","name":"Saint-Hilaire","lat":"45.673586","lng":"5.288634"},{"country":"FR","name":"Saint-Bonnet","lat":"45.699579","lng":"5.020259"},{"country":"FR","name":"Saint-And\u00e9ol","lat":"45.587029","lng":"4.694952"},{"country":"FR","name":"Saint-Alban","lat":"45.426684","lng":"4.754133"},{"country":"FR","name":"Les Roches","lat":"45.45107","lng":"4.767375"},{"country":"FR","name":"Le P\u00e9age","lat":"45.371795","lng":"4.797909"},{"country":"FR","name":"La Chapelle","lat":"45.3909","lng":"4.908257"},{"country":"FR","name":"Saint-Georges","lat":"45.55435","lng":"5.078456"},{"country":"FR","name":"Saint-Genis","lat":"45.695582","lng":"4.793397"},{"country":"FR","name":"Saint-Alban","lat":"45.595256","lng":"5.223039"},{"country":"FR","name":"Saint-Agnin","lat":"45.540162","lng":"5.243171"},{"country":"FR","name":"Clonas","lat":"45.413264","lng":"4.789964"},{"country":"FR","name":"Moissieu","lat":"45.385889","lng":"4.986957"},{"country":"FR","name":"Chonas","lat":"45.461599","lng":"4.812919"},{"country":"FR","name":"Chasse","lat":"45.58339","lng":"4.798227"},{"country":"FR","name":"Villeneuve","lat":"45.475797","lng":"5.102152"},{"country":"FR","name":"Vernosc","lat":"45.216764","lng":"4.712517"},{"country":"FR","name":"Saint-Laurent","lat":"45.182679","lng":"5.101676"},{"country":"FR","name":"Saint-Julien","lat":"45.433581","lng":"5.095714"},{"country":"FR","name":"Saint-Jean","lat":"45.501345","lng":"5.139628"},{"country":"FR","name":"Saint-Hilaire","lat":"45.390979","lng":"5.322872"},{"country":"FR","name":"Saint-\u00c9tienne","lat":"45.247377","lng":"4.782486"},{"country":"FR","name":"Saint-\u00c9tienne","lat":"45.339311","lng":"5.344898"},{"country":"FR","name":"Sainte-Anne","lat":"45.500552","lng":"5.232906"},{"country":"FR","name":"Saint-Didier","lat":"45.467184","lng":"5.350702"},{"country":"FR","name":"Saint-Clair","lat":"45.260677","lng":"5.143473"},{"country":"FR","name":"Saint-Bonnet","lat":"45.195521","lng":"5.143443"},{"country":"FR","name":"Saint-Bonnet","lat":"45.217686","lng":"4.940498"},{"country":"FR","name":"Saint-Barth\u00e9lemy","lat":"45.34505","lng":"5.077982"},{"country":"FR","name":"Ch\u00e2teauneuf","lat":"45.230962","lng":"4.956802"},{"country":"FR","name":"Villard","lat":"45.070696","lng":"5.552813"},{"country":"FR","name":"Veurey","lat":"45.27307","lng":"5.613191"},{"country":"FR","name":"Les Baraques","lat":"45.00263","lng":"5.420363"},{"country":"FR","name":"Le Sappey","lat":"45.259981","lng":"5.777211"},{"country":"FR","name":"Lepin","lat":"45.537178","lng":"5.79361"},{"country":"FR","name":"Salaise","lat":"45.342338","lng":"4.818291"},{"country":"FR","name":"Saint-Sorlin","lat":"45.289858","lng":"4.952053"},{"country":"FR","name":"Saint-Sim\u00e9on","lat":"45.330373","lng":"5.259935"},{"country":"FR","name":"Saint-Rambert","lat":"45.292512","lng":"4.818832"},{"country":"FR","name":"Saint-Pierre","lat":"45.316097","lng":"5.283652"},{"country":"FR","name":"Saint-Michel","lat":"45.305759","lng":"5.357987"},{"country":"FR","name":"Saint-Martin","lat":"45.236967","lng":"4.876764"},{"country":"FR","name":"Saint-Martin","lat":"45.220155","lng":"4.983933"},{"country":"FR","name":"Pommier","lat":"45.400321","lng":"5.119262"},{"country":"FR","name":"Moras","lat":"45.290518","lng":"4.992792"},{"country":"FR","name":"La Motte","lat":"45.196894","lng":"4.904768"},{"country":"FR","name":"Beauvoir","lat":"45.511325","lng":"5.082489"},{"country":"FR","name":"Saint-Just","lat":"45.913964","lng":"3.844601"},{"country":"FR","name":"Le Mayet","lat":"46.072508","lng":"3.666507"},{"country":"FR","name":"Saint-Vincent","lat":"45.370631","lng":"5.95182"},{"country":"FR","name":"Saint-Thibaud","lat":"45.501145","lng":"5.84572"},{"country":"FR","name":"Saint-Sulpice","lat":"45.46907","lng":"5.6095"},{"country":"FR","name":"Saint-Quentin","lat":"45.278809","lng":"5.542214"},{"country":"FR","name":"Saint-Pierre","lat":"45.49506","lng":"6.10606"},{"country":"FR","name":"Le Champ","lat":"45.281051","lng":"5.939658"},{"country":"FR","name":"Wihr","lat":"48.083095","lng":"7.411368"},{"country":"FR","name":"Fay","lat":"45.214107","lng":"4.906397"},{"country":"FR","name":"Saint-Germain","lat":"46.20211","lng":"3.432453"},{"country":"FR","name":"Saint-G\u00e9rand","lat":"46.257584","lng":"3.512199"},{"country":"FR","name":"Saint-Forgeux","lat":"46.122649","lng":"3.92914"},{"country":"FR","name":"Saint-\u00c9tienne","lat":"46.177707","lng":"3.534123"},{"country":"FR","name":"Saint-\u00c9tienne","lat":"46.260703","lng":"3.495467"},{"country":"FR","name":"Saint-Didier","lat":"46.388087","lng":"3.85969"},{"country":"FR","name":"Saint-Denis","lat":"45.965207","lng":"3.333591"},{"country":"FR","name":"Saint-Cl\u00e9ment","lat":"45.999674","lng":"3.297268"},{"country":"FR","name":"Saint-Bonnet","lat":"46.131395","lng":"3.845008"},{"country":"FR","name":"Saint-Andr\u00e9","lat":"45.964379","lng":"3.309898"},{"country":"FR","name":"Saint-Alban","lat":"46.007891","lng":"3.932028"},{"country":"FR","name":"Saint-Agnan","lat":"46.504747","lng":"3.880127"},{"country":"FR","name":"Sail","lat":"46.238226","lng":"3.847063"},{"country":"FR","name":"La Motte","lat":"46.495941","lng":"3.963965"},{"country":"FR","name":"Vitry","lat":"46.490518","lng":"4.588423"},{"country":"FR","name":"Ville","lat":"45.961886","lng":"4.608221"},{"country":"FR","name":"Vendenesse","lat":"46.442863","lng":"4.337303"},{"country":"FR","name":"Vaux","lat":"46.056735","lng":"4.591915"},{"country":"FR","name":"Varennes","lat":"46.2901","lng":"4.332806"},{"country":"FR","name":"Varenne","lat":"46.428169","lng":"4.028632"},{"country":"FR","name":"Varenne","lat":"46.338594","lng":"4.158577"},{"country":"FR","name":"Ligny","lat":"46.238941","lng":"4.189025"},{"country":"FR","name":"L\u2019H\u00f4pital","lat":"45.9745","lng":"4.129442"},{"country":"FR","name":"Saint-Pierre","lat":"45.415306","lng":"5.85491"},{"country":"FR","name":"Saint-Pierre","lat":"45.452595","lng":"5.75375"},{"country":"FR","name":"Saint-Pierre","lat":"45.34328","lng":"5.815139"},{"country":"FR","name":"Saint-Pierre","lat":"45.374537","lng":"6.048205"},{"country":"FR","name":"Saint-Paul","lat":"44.929553","lng":"5.627488"},{"country":"FR","name":"Saint-Paul","lat":"45.071594","lng":"5.63723"},{"country":"FR","name":"Saint-Nizier","lat":"45.170573","lng":"5.630085"},{"country":"FR","name":"Saint-Nicolas","lat":"45.3986","lng":"5.605233"},{"country":"FR","name":"Saint-Michel","lat":"44.869479","lng":"5.594634"},{"country":"FR","name":"Saint-Martin","lat":"45.02307","lng":"5.442841"},{"country":"FR","name":"Saint-Martin","lat":"45.495476","lng":"5.684077"},{"country":"FR","name":"Saint-Martin","lat":"44.845694","lng":"5.622154"},{"country":"FR","name":"Saint-Laurent","lat":"45.390092","lng":"5.735208"},{"country":"FR","name":"Saint-Julien","lat":"45.050001","lng":"5.448825"},{"country":"FR","name":"Lans","lat":"45.12793","lng":"5.585723"},{"country":"FR","name":"Saint-Laurent","lat":"48.538132","lng":"-2.725151"},{"country":"FR","name":"Colombier","lat":"45.266727","lng":"4.742512"},{"country":"FR","name":"Villeneuve","lat":"46.009711","lng":"3.330297"},{"country":"FR","name":"Verneuil","lat":"46.345951","lng":"3.251262"},{"country":"FR","name":"Varennes","lat":"46.326176","lng":"3.631713"},{"country":"FR","name":"Varennes","lat":"46.314718","lng":"3.398465"},{"country":"FR","name":"Thiel","lat":"46.523355","lng":"3.580846"},{"country":"FR","name":"Pierrefitte","lat":"46.50665","lng":"3.810872"},{"country":"FR","name":"Neuilly","lat":"46.345217","lng":"3.885021"},{"country":"FR","name":"Ferri\u00e8res","lat":"46.024161","lng":"3.647826"},{"country":"FR","name":"Espinasse","lat":"46.123489","lng":"3.324652"},{"country":"FR","name":"Dompierre","lat":"46.519622","lng":"3.699053"},{"country":"FR","name":"Semur","lat":"46.266255","lng":"4.094664"},{"country":"FR","name":"Salornay","lat":"46.520275","lng":"4.596798"},{"country":"FR","name":"Saint-Vincent","lat":"46.474126","lng":"4.561244"},{"country":"FR","name":"Saint-Vincent","lat":"46.07482","lng":"4.388422"},{"country":"FR","name":"Saint-Vincent","lat":"46.003833","lng":"4.114"},{"country":"FR","name":"Saint-Victor","lat":"46.001902","lng":"4.286206"},{"country":"FR","name":"Saint-Symphorien","lat":"46.332753","lng":"4.281675"},{"country":"FR","name":"L\u2019H\u00f4pital","lat":"46.39322","lng":"4.015472"},{"country":"FR","name":"Lamure","lat":"46.059667","lng":"4.491116"},{"country":"FR","name":"La Chapelle","lat":"46.260331","lng":"4.295133"},{"country":"FR","name":"La Chapelle","lat":"46.38198","lng":"4.535535"},{"country":"FR","name":"La Chapelle","lat":"46.052092","lng":"4.356721"},{"country":"FR","name":"Saint-Julien","lat":"45.350202","lng":"5.662704"},{"country":"FR","name":"Saint-Joseph","lat":"45.375743","lng":"5.697679"},{"country":"FR","name":"Saint-Jean","lat":"45.342624","lng":"5.58615"},{"country":"FR","name":"Saint-Jean","lat":"45.466915","lng":"5.819248"},{"country":"FR","name":"Saint-Jean","lat":"45.503157","lng":"5.677256"},{"country":"FR","name":"Saint-Geoire","lat":"45.456993","lng":"5.634155"},{"country":"FR","name":"Saint-\u00c9tienne","lat":"45.379143","lng":"5.645274"},{"country":"FR","name":"Sainte-Marie","lat":"45.406561","lng":"5.945821"},{"country":"FR","name":"Sainte-Marie","lat":"45.379676","lng":"5.967746"},{"country":"FR","name":"Sainte-H\u00e9l\u00e8ne","lat":"45.482655","lng":"6.065167"},{"country":"FR","name":"Saint-Christophe","lat":"45.438104","lng":"5.773551"},{"country":"FR","name":"La Chapelle","lat":"44.968317","lng":"5.416739"},{"country":"FR","name":"La Chapelle","lat":"45.422762","lng":"6.095448"},{"country":"FR","name":"Vi\u00e9vy","lat":"47.866118","lng":"1.316909"},{"country":"FR","name":"Saint-L\u00e9onard","lat":"47.83359","lng":"1.380807"},{"country":"FR","name":"Saint-Firmin","lat":"47.841322","lng":"1.114416"},{"country":"FR","name":"Saligny","lat":"46.468741","lng":"3.749337"},{"country":"FR","name":"Saint-Victor","lat":"45.940274","lng":"3.602683"},{"country":"FR","name":"Saint-Sylvestre","lat":"46.05101","lng":"3.399053"},{"country":"FR","name":"Saint-R\u00e9my","lat":"46.185551","lng":"3.396134"},{"country":"FR","name":"Saint-Priest","lat":"45.961205","lng":"3.749645"},{"country":"FR","name":"Saint-Pour\u00e7ain","lat":"46.309266","lng":"3.287866"},{"country":"FR","name":"Saint-Pour\u00e7ain","lat":"46.476055","lng":"3.636622"},{"country":"FR","name":"Saint-Pierre","lat":"46.202487","lng":"3.780623"},{"country":"FR","name":"Saint-Nicolas","lat":"46.060944","lng":"3.781563"},{"country":"FR","name":"Monteignet","lat":"46.122875","lng":"3.252486"},{"country":"FR","name":"Montcombroux","lat":"46.353013","lng":"3.693002"},{"country":"FR","name":"Montaigu","lat":"46.293905","lng":"3.508718"},{"country":"FR","name":"Montaig\u00fcet","lat":"46.270494","lng":"3.800064"},{"country":"FR","name":"Mon\u00e9tay","lat":"46.430143","lng":"3.816491"},{"country":"FR","name":"Chenay","lat":"46.227282","lng":"3.939543"},{"country":"FR","name":"Saint-Symphorien","lat":"45.948488","lng":"4.212045"},{"country":"FR","name":"Saint-Romain","lat":"46.084595","lng":"3.981598"},{"country":"FR","name":"Saint-Priest","lat":"45.913989","lng":"4.093768"},{"country":"FR","name":"Saint-Pierre","lat":"46.285652","lng":"4.535937"},{"country":"FR","name":"Saint-Pierre","lat":"46.179712","lng":"4.097238"},{"country":"FR","name":"Saint-Nizier","lat":"46.153505","lng":"4.12279"},{"country":"FR","name":"Saint-Maurice","lat":"45.965154","lng":"4.008491"},{"country":"FR","name":"Saint-Maurice","lat":"46.216292","lng":"4.253012"},{"country":"FR","name":"Saint-Martin","lat":"46.25329","lng":"4.044618"},{"country":"FR","name":"Saint-Martin","lat":"46.522291","lng":"4.502728"},{"country":"FR","name":"Saint-Martin","lat":"46.202985","lng":"4.244351"},{"country":"FR","name":"Saint-L\u00e9ger","lat":"46.041262","lng":"3.997644"},{"country":"FR","name":"Saint-L\u00e9ger","lat":"46.311471","lng":"4.560869"},{"country":"FR","name":"Saint-Laurent","lat":"46.273518","lng":"4.25863"},{"country":"FR","name":"Saint-Laurent","lat":"45.94432","lng":"4.563351"},{"country":"FR","name":"Saint-Just","lat":"46.001943","lng":"4.44739"},{"country":"FR","name":"Saint-Julien","lat":"46.236484","lng":"4.144212"},{"country":"FR","name":"Saint-Julien","lat":"46.366349","lng":"4.231209"},{"country":"FR","name":"Saint-Jean","lat":"45.966903","lng":"4.003484"},{"country":"FR","name":"Germolles","lat":"46.279859","lng":"4.590516"},{"country":"FR","name":"Fleury","lat":"46.205002","lng":"4.11906"},{"country":"FR","name":"Donzy","lat":"46.453472","lng":"4.564762"},{"country":"FR","name":"Dompierre","lat":"46.36046","lng":"4.483282"},{"country":"FR","name":"Curtil","lat":"46.401553","lng":"4.527969"},{"country":"FR","name":"Bligny","lat":"48.01761","lng":"3.606947"},{"country":"FR","name":"Bleigny","lat":"47.834972","lng":"3.682676"},{"country":"FR","name":"Saint-Blaise","lat":"45.37612","lng":"5.517944"},{"country":"FR","name":"Saint-Albin","lat":"45.501364","lng":"5.706303"},{"country":"FR","name":"Saint-Agnan","lat":"44.936095","lng":"5.432595"},{"country":"FR","name":"Gresse","lat":"44.901815","lng":"5.566591"},{"country":"FR","name":"La Chapelle","lat":"47.826746","lng":"1.207294"},{"country":"FR","name":"Saint-Martin","lat":"46.206109","lng":"3.802958"},{"country":"FR","name":"Saint-L\u00e9ger","lat":"46.410474","lng":"3.935338"},{"country":"FR","name":"Saint-Jean","lat":"46.001069","lng":"4.323992"},{"country":"FR","name":"Saint-Igny","lat":"46.194166","lng":"4.293075"},{"country":"FR","name":"Saint-Hilaire","lat":"46.121878","lng":"4.183066"},{"country":"FR","name":"Saint-Germain","lat":"46.10165","lng":"3.962045"},{"country":"FR","name":"Saint-Germain","lat":"46.354343","lng":"4.264932"},{"country":"FR","name":"Saint-Didier","lat":"46.337338","lng":"4.126584"},{"country":"FR","name":"Saint-Denis","lat":"46.173483","lng":"4.210907"},{"country":"FR","name":"Saint-Cyr","lat":"46.02706","lng":"4.556829"},{"country":"FR","name":"Saint-Cyr","lat":"45.967431","lng":"4.095156"},{"country":"FR","name":"Saint-Cl\u00e9ment","lat":"45.924631","lng":"4.453095"},{"country":"FR","name":"Saint-Christophe","lat":"46.288808","lng":"4.177227"},{"country":"FR","name":"Saint-Bonnet","lat":"46.27183","lng":"4.468055"},{"country":"FR","name":"Saint-Bonnet","lat":"46.482464","lng":"4.438285"},{"country":"FR","name":"Saint-Bonnet","lat":"46.216279","lng":"4.14058"},{"country":"FR","name":"Saint-Andr\u00e9","lat":"46.494607","lng":"4.530235"},{"country":"FR","name":"Croizet","lat":"45.916626","lng":"4.229877"},{"country":"FR","name":"Commelle","lat":"45.994392","lng":"4.066352"},{"country":"FR","name":"Colombier","lat":"46.3558","lng":"4.333728"},{"country":"FR","name":"Chassigny","lat":"46.2397","lng":"4.294026"},{"country":"FR","name":"Fontanil","lat":"45.248083","lng":"5.664345"},{"country":"FR","name":"Louchy","lat":"46.310748","lng":"3.252101"},{"country":"FR","name":"Bellerive","lat":"46.116327","lng":"3.403384"},{"country":"FR","name":"Beaumont","lat":"45.997211","lng":"3.384992"},{"country":"FR","name":"Ch\u00e2tel","lat":"49.122903","lng":"6.080011"},{"country":"FR","name":"Champey","lat":"48.957439","lng":"6.05805"},{"country":"FR","name":"Pommiers","lat":"45.318666","lng":"5.656493"},{"country":"FR","name":"Corren\u00e7on","lat":"45.029636","lng":"5.524553"},{"country":"FR","name":"Barrais","lat":"46.291878","lng":"3.719307"},{"country":"FR","name":"Pressy","lat":"46.475481","lng":"4.515404"},{"country":"FR","name":"Pouilly","lat":"46.145659","lng":"4.108902"},{"country":"FR","name":"Pouilly","lat":"46.0382","lng":"3.981982"},{"country":"FR","name":"Pouilly","lat":"45.956363","lng":"4.647932"},{"country":"FR","name":"Ouroux","lat":"46.358752","lng":"4.310541"},{"country":"FR","name":"Notre-Dame","lat":"46.002733","lng":"4.132229"},{"country":"FR","name":"Bourg","lat":"46.305367","lng":"3.98065"},{"country":"FR","name":"Bourg","lat":"46.033708","lng":"4.299042"},{"country":"FR","name":"Villiers","lat":"47.889049","lng":"3.334807"},{"country":"FR","name":"Villeneuve","lat":"47.85468","lng":"3.651201"},{"country":"FR","name":"Saint-Martin","lat":"47.81706","lng":"3.341218"},{"country":"FR","name":"Saint-Julien","lat":"48.031876","lng":"3.295559"},{"country":"FR","name":"Saint-Georges","lat":"47.800389","lng":"3.53144"},{"country":"FR","name":"Saint-Cyr","lat":"47.741925","lng":"3.738351"},{"country":"FR","name":"Saint-Bris","lat":"47.743964","lng":"3.649217"},{"country":"FR","name":"Saint-Aubin","lat":"48.000521","lng":"3.346109"},{"country":"FR","name":"Saint-Aubin","lat":"47.822138","lng":"3.308432"},{"country":"FR","name":"Moulins","lat":"47.707292","lng":"3.337012"},{"country":"FR","name":"Montigny","lat":"47.865672","lng":"3.680048"},{"country":"FR","name":"Chambley","lat":"49.048236","lng":"5.898896"},{"country":"FR","name":"Brainville","lat":"49.12871","lng":"5.805842"},{"country":"FR","name":"Bouxi\u00e8res","lat":"48.955289","lng":"6.090558"},{"country":"FR","name":"Bl\u00e9nod","lat":"48.884871","lng":"6.048441"},{"country":"FR","name":"Bey","lat":"48.804159","lng":"6.342807"},{"country":"FR","name":"Beney","lat":"48.962861","lng":"5.826062"},{"country":"FR","name":"La Chapelle","lat":"47.84559","lng":"3.765908"},{"country":"FR","name":"Cognin","lat":"45.16992","lng":"5.410411"},{"country":"FR","name":"Ch\u00e2tillon","lat":"44.694444","lng":"5.48438"},{"country":"FR","name":"Montm\u00e9las","lat":"46.015625","lng":"4.61024"},{"country":"FR","name":"Montceaux","lat":"46.351406","lng":"4.044926"},{"country":"FR","name":"Montagny","lat":"46.355958","lng":"4.550554"},{"country":"FR","name":"Melay","lat":"46.214206","lng":"4.016954"},{"country":"FR","name":"Meaux","lat":"46.045021","lng":"4.417991"},{"country":"FR","name":"Marcilly","lat":"46.400349","lng":"4.299403"},{"country":"FR","name":"Lugny","lat":"46.411713","lng":"4.210925"},{"country":"FR","name":"Anzy","lat":"46.319508","lng":"4.059189"},{"country":"FR","name":"Bayonville","lat":"49.01514","lng":"5.990155"},{"country":"FR","name":"Autreville","lat":"48.823992","lng":"6.11437"},{"country":"FR","name":"Aulnois","lat":"48.868746","lng":"6.314983"},{"country":"FR","name":"Ars","lat":"49.078314","lng":"6.072749"},{"country":"FR","name":"Ars","lat":"49.091577","lng":"6.269048"},{"country":"FR","name":"Bessy","lat":"47.621119","lng":"3.741102"},{"country":"FR","name":"Soppe","lat":"47.731459","lng":"7.060283"},{"country":"FR","name":"Soppe","lat":"47.716002","lng":"7.086147"},{"country":"FR","name":"Schweighouse","lat":"47.752249","lng":"7.170563"},{"country":"FR","name":"Saint-Maurice","lat":"47.858888","lng":"6.824775"},{"country":"FR","name":"Luttenbach","lat":"48.031959","lng":"7.117466"},{"country":"FR","name":"La Neuvelle","lat":"47.716662","lng":"6.553211"},{"country":"FR","name":"Lamadeleine","lat":"47.763208","lng":"6.913454"},{"country":"FR","name":"Lachapelle","lat":"47.710948","lng":"7.013317"},{"country":"FR","name":"Bitschwiller","lat":"47.82863","lng":"7.080661"},{"country":"FR","name":"Monestier","lat":"44.916805","lng":"5.635749"},{"country":"FR","name":"Moli\u00e8res","lat":"44.725837","lng":"5.40009"},{"country":"FR","name":"Miribel","lat":"45.429057","lng":"5.708354"},{"country":"FR","name":"Sainte-Marie","lat":"47.83557","lng":"6.513642"},{"country":"FR","name":"Rumersheim","lat":"47.851269","lng":"7.521331"},{"country":"FR","name":"Rougemont","lat":"47.733891","lng":"6.96899"},{"country":"FR","name":"Romagny","lat":"47.718068","lng":"6.968831"},{"country":"FR","name":"Rimbach","lat":"47.827449","lng":"6.950311"},{"country":"FR","name":"Rimbach","lat":"47.902668","lng":"7.153908"},{"country":"FR","name":"Aspach","lat":"47.776533","lng":"7.131455"},{"country":"FR","name":"Aspach","lat":"47.76115","lng":"7.150903"},{"country":"FR","name":"Villars","lat":"47.455772","lng":"6.991577"},{"country":"FR","name":"Villars","lat":"47.372857","lng":"6.873129"},{"country":"FR","name":"Vernois","lat":"47.327872","lng":"6.638478"},{"country":"FR","name":"Vernois","lat":"47.350821","lng":"6.985217"},{"country":"FR","name":"Courcelles","lat":"47.307753","lng":"6.714063"},{"country":"FR","name":"Ch\u00e2tillon","lat":"47.311576","lng":"6.746946"},{"country":"FR","name":"Cernay","lat":"47.257808","lng":"6.831482"},{"country":"FR","name":"Plombi\u00e8res","lat":"47.963368","lng":"6.457581"},{"country":"FR","name":"Saint-Dizier","lat":"47.470375","lng":"6.960443"},{"country":"FR","name":"Rosi\u00e8res","lat":"47.314722","lng":"6.658172"},{"country":"FR","name":"Montjoie","lat":"47.348499","lng":"6.901314"},{"country":"FR","name":"Cond\u00e9","lat":"49.153741","lng":"6.430275"},{"country":"FR","name":"Ch\u00e9mery","lat":"49.300286","lng":"6.444144"},{"country":"FR","name":"Charly","lat":"49.173779","lng":"6.240781"},{"country":"FR","name":"Charleville","lat":"49.189486","lng":"6.411301"},{"country":"FR","name":"Chailly","lat":"49.207881","lng":"6.234388"},{"country":"FR","name":"Brin","lat":"48.778354","lng":"6.355296"},{"country":"FR","name":"Merry","lat":"47.799439","lng":"3.332214"},{"country":"FR","name":"Rembercourt","lat":"48.983708","lng":"5.899615"},{"country":"FR","name":"Lorry","lat":"48.990392","lng":"6.087508"},{"country":"FR","name":"Longeville","lat":"49.112767","lng":"6.135301"},{"country":"FR","name":"Longeville","lat":"48.954395","lng":"6.14394"},{"country":"FR","name":"Latour","lat":"49.088175","lng":"5.81517"},{"country":"FR","name":"La Celle","lat":"47.973571","lng":"3.289448"},{"country":"FR","name":"Joux","lat":"47.622411","lng":"3.862172"},{"country":"FR","name":"Gy","lat":"47.721094","lng":"3.548895"},{"country":"FR","name":"Attignat","lat":"45.507676","lng":"5.776838"},{"country":"FR","name":"Aix","lat":"44.708333","lng":"5.419092"},{"country":"FR","name":"Aiguebelette","lat":"45.537629","lng":"5.815338"},{"country":"FR","name":"Muhlbach","lat":"48.024358","lng":"7.086076"},{"country":"FR","name":"Morschwiller","lat":"47.736094","lng":"7.266874"},{"country":"FR","name":"Griesbach","lat":"48.034082","lng":"7.17236"},{"country":"FR","name":"Fresse","lat":"47.875887","lng":"6.785893"},{"country":"FR","name":"Faucogney","lat":"47.84139","lng":"6.56365"},{"country":"FR","name":"Eschbach","lat":"48.028446","lng":"7.14597"},{"country":"FR","name":"Dommartin","lat":"47.999017","lng":"6.640477"},{"country":"FR","name":"Charmois","lat":"48.167901","lng":"6.593214"},{"country":"FR","name":"Champ","lat":"48.19598","lng":"6.721576"},{"country":"FR","name":"Marolles","lat":"47.949429","lng":"3.919795"},{"country":"FR","name":"Roches","lat":"47.408395","lng":"6.849611"},{"country":"FR","name":"Servigny","lat":"49.149064","lng":"6.27518"},{"country":"FR","name":"Sanry","lat":"49.183538","lng":"6.280959"},{"country":"FR","name":"Ay","lat":"49.241389","lng":"6.206805"},{"country":"FR","name":"Vitry","lat":"49.265536","lng":"6.11113"},{"country":"FR","name":"Ville","lat":"49.119103","lng":"5.865546"},{"country":"FR","name":"Villers","lat":"48.943006","lng":"5.999432"},{"country":"FR","name":"Villers","lat":"48.814682","lng":"6.250537"},{"country":"FR","name":"Villers","lat":"48.825858","lng":"6.011556"},{"country":"FR","name":"Villecey","lat":"49.006755","lng":"5.959136"},{"country":"FR","name":"Ville","lat":"48.847374","lng":"6.123328"},{"country":"FR","name":"Vilcey","lat":"48.933913","lng":"5.973047"},{"country":"FR","name":"Vi\u00e9ville","lat":"48.942149","lng":"5.925827"},{"country":"FR","name":"Port","lat":"48.904264","lng":"6.1647"},{"country":"FR","name":"Laneuveville","lat":"48.866901","lng":"6.434924"},{"country":"FR","name":"Lamarche","lat":"48.94505","lng":"5.784188"},{"country":"FR","name":"Jouy","lat":"49.063084","lng":"6.080232"},{"country":"FR","name":"Jonville","lat":"49.067182","lng":"5.785343"},{"country":"FR","name":"Breitenbach","lat":"48.022634","lng":"7.102099"},{"country":"FR","name":"Belmont","lat":"48.22494","lng":"6.764885"},{"country":"FR","name":"Arrent\u00e8s","lat":"48.143609","lng":"6.868726"},{"country":"FR","name":"Sancey","lat":"47.305015","lng":"6.598945"},{"country":"FR","name":"Pierrefontaine","lat":"47.215464","lng":"6.541765"},{"country":"FR","name":"Le Val","lat":"47.620153","lng":"6.484457"},{"country":"FR","name":"Volm\u00e9range","lat":"49.16836","lng":"6.451488"},{"country":"FR","name":"Rurange","lat":"49.277113","lng":"6.231387"},{"country":"FR","name":"Th\u00e9zey","lat":"48.900757","lng":"6.294155"},{"country":"FR","name":"Pagny","lat":"48.983494","lng":"6.020837"},{"country":"FR","name":"Pagny","lat":"48.971415","lng":"6.218606"},{"country":"FR","name":"Noviant","lat":"48.839984","lng":"5.881853"},{"country":"FR","name":"Nov\u00e9ant","lat":"49.021543","lng":"6.045581"},{"country":"FR","name":"Norroy","lat":"49.181523","lng":"6.104218"},{"country":"FR","name":"Norroy","lat":"48.934602","lng":"6.028058"},{"country":"FR","name":"Norroy","lat":"49.279473","lng":"5.811107"},{"country":"FR","name":"Haumont","lat":"49.010973","lng":"5.805964"},{"country":"FR","name":"Han","lat":"48.988899","lng":"6.436959"},{"country":"FR","name":"Hannonville","lat":"49.097773","lng":"5.833855"},{"country":"FR","name":"Hadonville","lat":"49.05093","lng":"5.818298"},{"country":"FR","name":"Ancy","lat":"49.056932","lng":"6.05816"},{"country":"FR","name":"Alaincourt","lat":"48.898416","lng":"6.340546"},{"country":"FR","name":"Aboncourt","lat":"48.816891","lng":"6.339861"},{"country":"FR","name":"Abb\u00e9ville","lat":"49.197772","lng":"5.844445"},{"country":"FR","name":"Pierrefontaine","lat":"47.375","lng":"6.839839"},{"country":"FR","name":"Laval","lat":"47.18682","lng":"6.624435"},{"country":"FR","name":"Fournet","lat":"47.167864","lng":"6.822087"},{"country":"FR","name":"Silly","lat":"49.120869","lng":"6.359979"},{"country":"FR","name":"Silly","lat":"48.991671","lng":"6.276023"},{"country":"FR","name":"Servigny","lat":"49.078242","lng":"6.45154"},{"country":"FR","name":"Scy","lat":"49.113596","lng":"6.116096"},{"country":"FR","name":"Sanry","lat":"49.052071","lng":"6.343651"},{"country":"FR","name":"Saint-Privat","lat":"49.187892","lng":"6.038319"},{"country":"FR","name":"Moulins","lat":"49.103178","lng":"6.107214"},{"country":"FR","name":"Morville","lat":"48.915841","lng":"6.155374"},{"country":"FR","name":"Morville","lat":"48.947574","lng":"6.434252"},{"country":"FR","name":"Montois","lat":"49.217522","lng":"6.023048"},{"country":"FR","name":"Montigny","lat":"49.094353","lng":"6.151673"},{"country":"FR","name":"Metz","lat":"49.115461","lng":"6.175875"},{"country":"FR","name":"Mars","lat":"49.098085","lng":"5.885843"},{"country":"FR","name":"Fresnes","lat":"48.838963","lng":"6.438066"},{"country":"FR","name":"Fl\u00e9ville","lat":"49.245321","lng":"5.822891"},{"country":"FR","name":"Fey","lat":"48.903028","lng":"5.961043"},{"country":"FR","name":"Essey","lat":"48.919052","lng":"5.810837"},{"country":"FR","name":"Wargemoulin","lat":"49.155501","lng":"4.698916"},{"country":"FR","name":"Maizi\u00e8res","lat":"49.207544","lng":"6.160515"},{"country":"FR","name":"K\u00e9dange","lat":"49.307908","lng":"6.337204"},{"country":"FR","name":"Hombourg","lat":"49.29572","lng":"6.34359"},{"country":"FR","name":"Saint-Julien","lat":"49.132879","lng":"6.202395"},{"country":"FR","name":"Sainte-Marie","lat":"49.191682","lng":"6.000649"},{"country":"FR","name":"Saint-Beno\u00eet","lat":"48.987613","lng":"5.784419"},{"country":"FR","name":"Saint-Ail","lat":"49.180712","lng":"5.997706"},{"country":"FR","name":"Rosi\u00e8res","lat":"48.792876","lng":"5.999822"},{"country":"FR","name":"Marly","lat":"49.062188","lng":"6.151934"},{"country":"FR","name":"Manoncourt","lat":"48.785147","lng":"5.926219"},{"country":"FR","name":"Malaucourt","lat":"48.841601","lng":"6.360443"},{"country":"FR","name":"Malancourt","lat":"49.219418","lng":"6.061689"},{"country":"FR","name":"Mailly","lat":"48.909749","lng":"6.244984"},{"country":"FR","name":"Doncourt","lat":"49.1436","lng":"5.933818"},{"country":"FR","name":"Dommartin","lat":"49.010558","lng":"5.86249"},{"country":"FR","name":"Dom\u00e8vre","lat":"48.817648","lng":"5.928937"},{"country":"FR","name":"Dain","lat":"49.011178","lng":"6.342843"},{"country":"FR","name":"Courcelles","lat":"49.066651","lng":"6.308383"},{"country":"FR","name":"Corny","lat":"49.034972","lng":"6.05971"},{"country":"FR","name":"Conflans","lat":"49.16768","lng":"5.848631"},{"country":"FR","name":"Pr\u00e9cy","lat":"47.967364","lng":"3.247964"},{"country":"FR","name":"Lucy","lat":"47.629176","lng":"3.743762"},{"country":"FR","name":"Fontenay","lat":"47.615306","lng":"3.596386"},{"country":"FR","name":"Fontenay","lat":"47.845765","lng":"3.810148"},{"country":"FR","name":"Fleury","lat":"47.86672","lng":"3.449082"},{"country":"FR","name":"Escolives","lat":"47.718033","lng":"3.607856"},{"country":"FR","name":"Ervy","lat":"48.041161","lng":"3.909881"},{"country":"FR","name":"\u00c9pineau","lat":"47.950671","lng":"3.481638"},{"country":"FR","name":"Chessy","lat":"48.023575","lng":"3.915344"},{"country":"FR","name":"Chemilly","lat":"47.898205","lng":"3.561392"},{"country":"FR","name":"Chemilly","lat":"47.771025","lng":"3.861677"},{"country":"FR","name":"Trucy","lat":"47.628696","lng":"3.658755"},{"country":"FR","name":"Soug\u00e8res","lat":"47.857331","lng":"3.614795"},{"country":"FR","name":"Poilly","lat":"47.865289","lng":"3.394108"},{"country":"FR","name":"Poilly","lat":"47.764066","lng":"3.892769"},{"country":"FR","name":"Paroy","lat":"47.954873","lng":"3.372337"},{"country":"FR","name":"Paroy","lat":"48.034087","lng":"3.571926"},{"country":"FR","name":"Neuvy","lat":"48.041897","lng":"3.79472"},{"country":"FR","name":"Saint-Nicolas","lat":"49.323379","lng":"-1.587809"},{"country":"FR","name":"Ligny","lat":"47.900217","lng":"3.7576"},{"country":"FR","name":"Lich\u00e8res","lat":"47.728192","lng":"3.854707"},{"country":"FR","name":"Laroche","lat":"47.96801","lng":"3.48467"},{"country":"FR","name":"La Chapelle","lat":"47.951165","lng":"3.889626"},{"country":"FR","name":"Vitry","lat":"48.787159","lng":"2.403322"},{"country":"FR","name":"Dracy","lat":"47.755797","lng":"3.250408"},{"country":"FR","name":"Coulanges","lat":"47.700785","lng":"3.582168"},{"country":"FR","name":"Bussy","lat":"48.019419","lng":"3.513723"},{"country":"FR","name":"Brienon","lat":"47.990095","lng":"3.616284"},{"country":"FR","name":"Aillant","lat":"47.874262","lng":"3.350486"},{"country":"FR","name":"Villars","lat":"43.936876","lng":"7.097359"},{"country":"FR","name":"Tourrette","lat":"43.884456","lng":"7.14137"},{"country":"FR","name":"Tourette","lat":"43.714129","lng":"7.052859"},{"country":"FR","name":"Saint-Paul","lat":"43.567617","lng":"6.694754"},{"country":"FR","name":"Tou\u00ebt","lat":"43.947243","lng":"7.005534"},{"country":"FR","name":"Sillans","lat":"43.567617","lng":"6.179716"},{"country":"FR","name":"La Croix","lat":"43.984833","lng":"6.87246"},{"country":"FR","name":"Trans","lat":"43.504997","lng":"6.485713"},{"country":"FR","name":"Saint-Vallier","lat":"43.695386","lng":"6.8443"},{"country":"FR","name":"Saint-Martin","lat":"43.818122","lng":"7.190302"},{"country":"FR","name":"Le Bar","lat":"43.697311","lng":"6.987158"},{"country":"FR","name":"Saint-C\u00e9zaire","lat":"43.648836","lng":"6.793837"},{"country":"FR","name":"Roquebrune","lat":"43.44309","lng":"6.639044"},{"country":"FR","name":"Puget","lat":"43.45604","lng":"6.684628"},{"country":"FR","name":"Saint-Laurent","lat":"43.670968","lng":"7.17606"},{"country":"FR","name":"La Colle","lat":"43.687498","lng":"7.102683"},{"country":"FR","name":"Revest","lat":"43.88295","lng":"7.153183"},{"country":"FR","name":"Saint-Genis","lat":"45.481073","lng":"-.568476"},{"country":"FR","name":"Saint-Fort","lat":"45.460878","lng":"-.72117"},{"country":"FR","name":"Saint-Dizant","lat":"45.432477","lng":"-.703073"},{"country":"FR","name":"Saint-Dizant","lat":"45.398715","lng":"-.573171"},{"country":"FR","name":"Saint-Ciers","lat":"45.288554","lng":"-.607935"},{"country":"FR","name":"Saint-Ciers","lat":"45.422957","lng":"-.639565"},{"country":"FR","name":"Saint-Christoly","lat":"45.355339","lng":"-.825279"},{"country":"FR","name":"Saint-Caprais","lat":"45.285028","lng":"-.56158"},{"country":"FR","name":"Saint-Bris","lat":"45.766832","lng":"-.492622"},{"country":"FR","name":"Saint-Bonnet","lat":"45.354661","lng":"-.65997"},{"country":"FR","name":"Saint-Aubin","lat":"45.26726","lng":"-.55997"},{"country":"FR","name":"Saint-Andr\u00e9","lat":"45.600091","lng":"-.748066"},{"country":"FR","name":"Saint-Julien","lat":"45.164407","lng":"-.739288"},{"country":"FR","name":"Saint-Girons","lat":"45.139413","lng":"-.542375"},{"country":"FR","name":"Saint-Gen\u00e8s","lat":"44.750714","lng":"-.372031"},{"country":"FR","name":"Saint-Gen\u00e8s","lat":"45.025124","lng":"-.358815"},{"country":"FR","name":"Saint-Gen\u00e8s","lat":"45.161314","lng":"-.640709"},{"country":"FR","name":"Saint-Ciers","lat":"45.08357","lng":"-.609042"},{"country":"FR","name":"Saint-Christoly","lat":"45.131785","lng":"-.507603"},{"country":"FR","name":"Saint-Caprais","lat":"44.747858","lng":"-.431916"},{"country":"FR","name":"Saint-Vincent","lat":"43.660306","lng":"-1.307986"},{"country":"FR","name":"Saint-Pierre","lat":"43.882974","lng":"-.519046"},{"country":"FR","name":"Saint-Paul","lat":"43.727147","lng":"-1.051618"},{"country":"FR","name":"Saint-Paul","lat":"44.224567","lng":"-1.153426"},{"country":"FR","name":"Saint-Maurice","lat":"43.785236","lng":"-.467132"},{"country":"FR","name":"Saint-Martin","lat":"43.927851","lng":"-.639758"},{"country":"FR","name":"Saint-Martin","lat":"43.58238","lng":"-1.268095"},{"country":"FR","name":"Saint-Lon","lat":"43.612743","lng":"-1.127018"},{"country":"FR","name":"Saint-L\u00e9ger","lat":"44.431907","lng":"-.466667"},{"country":"FR","name":"Saint-Julien","lat":"44.063112","lng":"-1.22445"},{"country":"FR","name":"Vielle","lat":"42.832727","lng":".403477"},{"country":"FR","name":"Vielle","lat":"42.830006","lng":".326531"},{"country":"FR","name":"Tr\u00e9bons","lat":"42.797581","lng":".596749"},{"country":"FR","name":"Montignac","lat":"44.573053","lng":".465792"},{"country":"FR","name":"Montferrand","lat":"44.750612","lng":".866361"},{"country":"FR","name":"Montagnac","lat":"44.540422","lng":".843004"},{"country":"FR","name":"Monsempron","lat":"44.490043","lng":".940903"},{"country":"FR","name":"Laguinge","lat":"43.093242","lng":"-.8664"},{"country":"FR","name":"Lacarry-Arhan-Charritte","lat":"43.085152","lng":"-.924244"},{"country":"FR","name":"Labets","lat":"43.384364","lng":"-1.057183"},{"country":"FR","name":"Labastide","lat":"43.452953","lng":"-1.020947"},{"country":"FR","name":"Laa","lat":"43.451587","lng":"-.773346"},{"country":"FR","name":"Ithorots","lat":"43.320798","lng":"-.952886"},{"country":"FR","name":"Idaux","lat":"43.180973","lng":"-.915814"},{"country":"FR","name":"Guinarthe","lat":"43.388448","lng":"-.944342"},{"country":"FR","name":"Gotein","lat":"43.189669","lng":"-.90064"},{"country":"FR","name":"L\u00e9zat","lat":"43.277337","lng":"1.346859"},{"country":"FR","name":"Lestelle","lat":"43.121577","lng":".912646"},{"country":"FR","name":"Les Bordes","lat":"43.105424","lng":"1.371236"},{"country":"FR","name":"Le Pin","lat":"43.400358","lng":"1.016786"},{"country":"FR","name":"Raissac","lat":"43.228801","lng":"2.880406"},{"country":"FR","name":"Pouzols","lat":"43.287188","lng":"2.825731"},{"country":"FR","name":"Saint-Salvi","lat":"43.806138","lng":"2.597573"},{"country":"FR","name":"Saint-Pons","lat":"43.512919","lng":"3.514954"},{"country":"FR","name":"Saint-Nazaire","lat":"43.509101","lng":"3.076266"},{"country":"FR","name":"Saint-Martin","lat":"43.671913","lng":"3.258423"},{"country":"FR","name":"Saint-Martin","lat":"43.572767","lng":"2.984975"},{"country":"FR","name":"Saint-Jean","lat":"43.576479","lng":"3.826266"},{"country":"FR","name":"Saint-Jean","lat":"43.385259","lng":"2.831941"},{"country":"FR","name":"Saint-Jean","lat":"43.714135","lng":"3.422806"},{"country":"FR","name":"Saint-Jean","lat":"43.701","lng":"3.551713"},{"country":"FR","name":"Saint-Guilhem","lat":"43.733334","lng":"3.55"},{"country":"FR","name":"Saint-Gervais","lat":"43.652429","lng":"3.041328"},{"country":"FR","name":"Saint-Georges","lat":"43.61003","lng":"3.779371"},{"country":"FR","name":"Saint-Geni\u00e8s","lat":"43.467809","lng":"3.178479"},{"country":"FR","name":"Sainte-C\u00e9cile","lat":"44.003167","lng":"1.809595"},{"country":"FR","name":"Saint-Beno\u00eet","lat":"44.050372","lng":"2.12911"},{"country":"FR","name":"Saint-Andr\u00e9","lat":"44.189878","lng":"2.04072"},{"country":"FR","name":"Sabadel","lat":"44.73607","lng":"2.060728"},{"country":"FR","name":"Saint-Sauveur","lat":"44.337248","lng":"5.351186"},{"country":"FR","name":"La B\u00e9gude","lat":"44.545733","lng":"4.936081"},{"country":"FR","name":"La B\u00e2tie","lat":"44.553592","lng":"4.86262"},{"country":"FR","name":"La B\u00e2tie","lat":"44.514702","lng":"5.638645"},{"country":"FR","name":"La B\u00e2tie","lat":"44.588022","lng":"5.590234"},{"country":"FR","name":"Prignac","lat":"45.326511","lng":"-.912868"},{"country":"FR","name":"S\u00e9rignac","lat":"44.213901","lng":".484028"},{"country":"FR","name":"Saint-Jean","lat":"43.625592","lng":"-1.2569"},{"country":"FR","name":"Saint-Jean","lat":"43.792494","lng":"-.876314"},{"country":"FR","name":"Saint-Geours","lat":"43.689362","lng":"-1.229367"},{"country":"FR","name":"Saint-Geours","lat":"43.757094","lng":"-.837273"},{"country":"FR","name":"Saint-\u00c9tienne","lat":"43.588686","lng":"-1.17785"},{"country":"FR","name":"Sainte-Eulalie","lat":"44.274661","lng":"-1.182952"},{"country":"FR","name":"Saint-Cricq","lat":"43.654285","lng":"-.684761"},{"country":"FR","name":"Saint-Andr\u00e9","lat":"43.559385","lng":"-1.351893"},{"country":"FR","name":"Rivi\u00e8re-Saas","lat":"43.6799","lng":"-1.14986"},{"country":"FR","name":"Puyol","lat":"43.605973","lng":"-.407298"},{"country":"FR","name":"Saint-P\u00e9","lat":"42.984014","lng":".670635"},{"country":"FR","name":"Saint-Paul","lat":"42.823809","lng":".551663"},{"country":"FR","name":"Saint-Bertrand","lat":"43.027097","lng":".571429"},{"country":"FR","name":"Miramont","lat":"44.601574","lng":".362467"},{"country":"FR","name":"Esp\u00e8s","lat":"43.274604","lng":"-.886219"},{"country":"FR","name":"Domezain","lat":"43.326772","lng":"-.965093"},{"country":"FR","name":"Charritte","lat":"43.294839","lng":"-.884295"},{"country":"FR","name":"Castetnau","lat":"43.326422","lng":"-.782196"},{"country":"FR","name":"Camou","lat":"43.370408","lng":"-1.019291"},{"country":"FR","name":"Camou","lat":"43.116406","lng":"-.906298"},{"country":"FR","name":"Lavelanet","lat":"43.254569","lng":"1.117095"},{"country":"FR","name":"La Tour","lat":"43.10471","lng":"1.652749"},{"country":"FR","name":"Lapeyr\u00e8re","lat":"43.206673","lng":"1.313954"},{"country":"FR","name":"La Louvi\u00e8re","lat":"43.263573","lng":"1.750773"},{"country":"FR","name":"P\u00e9zilla","lat":"42.695361","lng":"2.771152"},{"country":"FR","name":"Peyriac","lat":"43.290684","lng":"2.566132"},{"country":"FR","name":"Peyriac","lat":"43.087199","lng":"2.958315"},{"country":"FR","name":"Saint-Geni\u00e8s","lat":"43.678089","lng":"3.000143"},{"country":"FR","name":"Saint-G\u00e9ly","lat":"43.69272","lng":"3.804925"},{"country":"FR","name":"Saint-F\u00e9lix","lat":"43.883653","lng":"2.984939"},{"country":"FR","name":"Saint-F\u00e9lix","lat":"43.66228","lng":"3.460137"},{"country":"FR","name":"Saint-\u00c9tienne","lat":"43.531727","lng":"2.857602"},{"country":"FR","name":"Saint-Bauzille","lat":"43.616811","lng":"3.544289"},{"country":"FR","name":"Saint-Andr\u00e9","lat":"43.647527","lng":"3.502094"},{"country":"FR","name":"Peyrusse","lat":"44.495479","lng":"2.141423"},{"country":"FR","name":"Ols","lat":"44.466429","lng":"1.96168"},{"country":"FR","name":"Mouzieys","lat":"44.092741","lng":"1.93263"},{"country":"FR","name":"Morlhon","lat":"44.32429","lng":"2.063563"},{"country":"FR","name":"Saint-Roman","lat":"44.268581","lng":"4.964468"},{"country":"FR","name":"Saint-Pantal\u00e9on","lat":"44.399413","lng":"5.041881"},{"country":"FR","name":"Saint-Nazaire","lat":"44.569938","lng":"5.274593"},{"country":"FR","name":"Francillon","lat":"44.623414","lng":"5.085836"},{"country":"FR","name":"\u00c9toile","lat":"44.31648","lng":"5.627626"},{"country":"FR","name":"Pont-l\u2019Abb\u00e9","lat":"45.828753","lng":"-.874993"},{"country":"FR","name":"Nieul","lat":"45.408735","lng":"-.530903"},{"country":"FR","name":"Nieulle","lat":"45.750327","lng":"-1.000096"},{"country":"FR","name":"Nieul","lat":"45.760207","lng":"-.731371"},{"country":"FR","name":"Moulis","lat":"45.059378","lng":"-.770332"},{"country":"FR","name":"Martignas","lat":"44.845279","lng":"-.780598"},{"country":"FR","name":"Pontonx","lat":"43.789638","lng":"-.925243"},{"country":"FR","name":"Pontenx","lat":"44.241339","lng":"-1.12095"},{"country":"FR","name":"Parentis","lat":"44.352735","lng":"-1.07095"},{"country":"FR","name":"Portet","lat":"42.811337","lng":".482918"},{"country":"FR","name":"Montauban","lat":"42.792743","lng":".609613"},{"country":"FR","name":"La Sauvetat","lat":"44.226463","lng":".798712"},{"country":"FR","name":"Berrogain","lat":"43.25223","lng":"-.854986"},{"country":"FR","name":"B\u00e9hasque","lat":"43.324214","lng":"-1.010299"},{"country":"FR","name":"Barraute","lat":"43.387206","lng":"-.895424"},{"country":"FR","name":"Baigts","lat":"43.512484","lng":"-.838942"},{"country":"FR","name":"Autevielle","lat":"43.390933","lng":"-.970578"},{"country":"FR","name":"Athos","lat":"43.414097","lng":"-.973161"},{"country":"FR","name":"Arrast","lat":"43.293702","lng":"-.8493"},{"country":"FR","name":"Lagardelle","lat":"43.411433","lng":"1.389202"},{"country":"FR","name":"Lafitte","lat":"43.301141","lng":"1.163812"},{"country":"FR","name":"Lafitte","lat":"43.165097","lng":".906282"},{"country":"FR","name":"Labastide","lat":"43.518451","lng":".980954"},{"country":"FR","name":"Labastide","lat":"43.335902","lng":".937902"},{"country":"FR","name":"La Bastide","lat":"43.055853","lng":".987759"},{"country":"FR","name":"Labastide","lat":"43.143434","lng":"1.712241"},{"country":"FR","name":"La Bastide","lat":"43.166097","lng":"1.275519"},{"country":"FR","name":"La Bastide","lat":"43.228178","lng":"1.758624"},{"country":"FR","name":"Labastide","lat":"43.347714","lng":"1.12095"},{"country":"FR","name":"Labastide","lat":"43.481478","lng":"1.66543"},{"country":"FR","name":"Labarthe","lat":"43.452063","lng":"1.399683"},{"country":"FR","name":"Palau","lat":"42.571615","lng":"2.960326"},{"country":"FR","name":"Nissan","lat":"43.289615","lng":"3.127051"},{"country":"FR","name":"Prades","lat":"43.447288","lng":"2.986474"},{"country":"FR","name":"Prades","lat":"43.697538","lng":"3.864633"},{"country":"FR","name":"Montet","lat":"44.7477","lng":"2.046769"},{"country":"FR","name":"Sury","lat":"45.5342","lng":"4.186425"},{"country":"FR","name":"Solignac","lat":"45.251985","lng":"3.996377"},{"country":"FR","name":"Saint-Victor","lat":"45.44131","lng":"4.260871"},{"country":"FR","name":"Saint-Rambert","lat":"45.500604","lng":"4.24195"},{"country":"FR","name":"Saint-Paul","lat":"45.396473","lng":"4.226942"},{"country":"FR","name":"Saint-Pal","lat":"45.246278","lng":"4.274118"},{"country":"FR","name":"Saint-Nizier","lat":"45.403678","lng":"4.081186"},{"country":"FR","name":"Saint-Marcel","lat":"44.595009","lng":"4.806226"},{"country":"FR","name":"Cornillon","lat":"44.458696","lng":"5.367677"},{"country":"FR","name":"Cl\u00e9on","lat":"44.610789","lng":"4.936594"},{"country":"FR","name":"Naujac","lat":"45.254196","lng":"-1.024686"},{"country":"FR","name":"Mortagne","lat":"45.481391","lng":"-.787024"},{"country":"FR","name":"Mornac","lat":"45.709266","lng":"-1.028231"},{"country":"FR","name":"Montpellier","lat":"45.634621","lng":"-.744566"},{"country":"FR","name":"Meschers","lat":"45.560371","lng":"-.954702"},{"country":"FR","name":"Ludon","lat":"44.981176","lng":"-.602538"},{"country":"FR","name":"Listrac","lat":"45.074103","lng":"-.791322"},{"country":"FR","name":"Lignan","lat":"44.796658","lng":"-.427741"},{"country":"FR","name":"Le Taillan","lat":"44.905205","lng":"-.670601"},{"country":"FR","name":"Lestiac","lat":"44.69428","lng":"-.37441"},{"country":"FR","name":"Sauveterre","lat":"44.15489","lng":".706157"},{"country":"FR","name":"Montfort","lat":"43.711242","lng":"-.839472"},{"country":"FR","name":"Pergain","lat":"44.058922","lng":".587508"},{"country":"FR","name":"Maul\u00e9on","lat":"42.95926","lng":".567725"},{"country":"FR","name":"Luz","lat":"42.871909","lng":"-.003225"},{"country":"FR","name":"Loures","lat":"43.024376","lng":".606123"},{"country":"FR","name":"Juzet","lat":"42.808402","lng":".609008"},{"country":"FR","name":"Lamothe","lat":"43.876251","lng":".915628"},{"country":"FR","name":"La Sauvetat","lat":"44.468592","lng":".729833"},{"country":"FR","name":"Arbouet","lat":"43.369883","lng":"-1.000262"},{"country":"FR","name":"Arberats","lat":"43.340208","lng":"-.992287"},{"country":"FR","name":"Alos-Sibas-Abense","lat":"43.118505","lng":"-.875938"},{"country":"FR","name":"Al\u00e7ay","lat":"43.094685","lng":"-.909512"},{"country":"FR","name":"Labarthe","lat":"43.107246","lng":".837579"},{"country":"FR","name":"Gensac","lat":"43.217667","lng":"1.131334"},{"country":"FR","name":"Montbrun","lat":"43.19799","lng":"2.68457"},{"country":"FR","name":"Montalba","lat":"42.696134","lng":"2.56048"},{"country":"FR","name":"P\u00e9zenes","lat":"43.58733","lng":"3.250428"},{"country":"FR","name":"N\u00e9zignan","lat":"43.421486","lng":"3.406923"},{"country":"FR","name":"Le S\u00e9gur","lat":"44.108103","lng":"2.060124"},{"country":"FR","name":"Lescure","lat":"44.23143","lng":"2.146788"},{"country":"FR","name":"Lentillac","lat":"44.590838","lng":"2.121317"},{"country":"FR","name":"Saint-Maurice","lat":"45.402463","lng":"4.182352"},{"country":"FR","name":"Saint-Maurice","lat":"45.224311","lng":"4.139109"},{"country":"FR","name":"Saint-Marcellin","lat":"45.495487","lng":"4.169233"},{"country":"FR","name":"Saint-Just","lat":"45.505278","lng":"4.265853"},{"country":"FR","name":"Saint-Ferr\u00e9ol","lat":"45.35588","lng":"4.255581"},{"country":"FR","name":"Saint-Didier","lat":"45.302343","lng":"4.275609"},{"country":"FR","name":"Saint-Bonnet","lat":"45.423383","lng":"4.06673"},{"country":"FR","name":"Saint-Andr\u00e9","lat":"45.272683","lng":"3.969561"},{"country":"FR","name":"Rozier","lat":"45.371542","lng":"4.102225"},{"country":"FR","name":"Saint-Gervais","lat":"44.582242","lng":"4.889928"},{"country":"FR","name":"Saint-Ferr\u00e9ol","lat":"44.424379","lng":"5.215012"},{"country":"FR","name":"Saint-\u00c9tienne","lat":"44.185624","lng":"4.705731"},{"country":"FR","name":"Sainte-Marie","lat":"44.465345","lng":"5.476154"},{"country":"FR","name":"Ch\u00e2teauneuf","lat":"44.487791","lng":"4.717589"},{"country":"FR","name":"Ch\u00e2teauneuf","lat":"44.335786","lng":"5.1777"},{"country":"FR","name":"Camaret","lat":"44.164049","lng":"4.874242"},{"country":"FR","name":"Le Verdon","lat":"45.544899","lng":"-1.062251"},{"country":"FR","name":"Lesparre","lat":"45.303971","lng":"-.934542"},{"country":"FR","name":"Le Pian","lat":"44.955373","lng":"-.662267"},{"country":"FR","name":"La Teste","lat":"44.628749","lng":"-1.140591"},{"country":"FR","name":"Saint-Vincent","lat":"44.118364","lng":".953658"},{"country":"FR","name":"Saint-Vincent","lat":"44.085027","lng":".511868"},{"country":"FR","name":"Gouaux","lat":"42.860278","lng":".61707"},{"country":"FR","name":"Gouaux","lat":"42.794557","lng":".490135"},{"country":"FR","name":"Colayrac","lat":"44.22095","lng":".550606"},{"country":"FR","name":"Clermont","lat":"43.616946","lng":"1.030309"},{"country":"FR","name":"Villeneuve","lat":"43.521901","lng":"1.340154"},{"country":"FR","name":"Villeneuve","lat":"43.154285","lng":"1.637368"},{"country":"FR","name":"Villeneuve","lat":"43.203998","lng":"1.43319"},{"country":"FR","name":"Villefranche","lat":"43.400002","lng":"1.716939"},{"country":"FR","name":"Vigoulet","lat":"43.507232","lng":"1.459736"},{"country":"FR","name":"Tr\u00e9bons","lat":"43.450001","lng":"1.723641"},{"country":"FR","name":"Frontignan","lat":"43.396313","lng":".921783"},{"country":"FR","name":"Fajac","lat":"43.28024","lng":"1.723472"},{"country":"FR","name":"Luc","lat":"43.176684","lng":"2.785034"},{"country":"FR","name":"L\u00e9zignan","lat":"43.197645","lng":"2.76142"},{"country":"FR","name":"Murviel","lat":"43.606282","lng":"3.73858"},{"country":"FR","name":"Murat","lat":"43.684903","lng":"2.855103"},{"country":"FR","name":"Montpellier","lat":"43.61092","lng":"3.87723"},{"country":"FR","name":"Montferrier","lat":"43.667417","lng":"3.85439"},{"country":"FR","name":"Larroque","lat":"44.520949","lng":"1.941196"},{"country":"FR","name":"Lacapelle","lat":"44.116312","lng":"1.993575"},{"country":"FR","name":"La Bastide","lat":"44.339995","lng":"2.136199"},{"country":"FR","name":"Labastide","lat":"44.038829","lng":"2.095621"},{"country":"FR","name":"Monistrol","lat":"45.293345","lng":"4.171611"},{"country":"FR","name":"Sainte-Euph\u00e9mie","lat":"44.299467","lng":"5.378524"},{"country":"FR","name":"Saint-Dizier","lat":"44.515592","lng":"5.477898"},{"country":"FR","name":"Bonneval","lat":"44.627365","lng":"5.613925"},{"country":"FR","name":"Bonlieu","lat":"44.593971","lng":"4.882398"},{"country":"FR","name":"B\u00e9zaudun","lat":"44.607619","lng":"5.179799"},{"country":"FR","name":"Bellegarde","lat":"44.538289","lng":"5.427774"},{"country":"FR","name":"Beaumont","lat":"44.569251","lng":"5.476648"},{"country":"FR","name":"Beaumes","lat":"44.119337","lng":"5.024258"},{"country":"FR","name":"La Chapelle","lat":"45.759783","lng":"-.540797"},{"country":"FR","name":"Jarnac","lat":"45.559384","lng":"-.400766"},{"country":"FR","name":"Hiers","lat":"45.848281","lng":"-1.073127"},{"country":"FR","name":"La Lande","lat":"44.980359","lng":"-.380478"},{"country":"FR","name":"Saint-Romain","lat":"44.162296","lng":".785207"},{"country":"FR","name":"Montagnac","lat":"44.160828","lng":".460361"},{"country":"FR","name":"Frontignan","lat":"42.970862","lng":".659523"},{"country":"FR","name":"Fr\u00e9chet","lat":"42.929102","lng":".367725"},{"country":"FR","name":"Esqui\u00e8ze","lat":"42.881114","lng":"-.011086"},{"country":"FR","name":"Cier","lat":"42.857456","lng":".601008"},{"country":"FR","name":"Cazeaux","lat":"42.807369","lng":".532993"},{"country":"FR","name":"Cazaux","lat":"42.873522","lng":".608465"},{"country":"FR","name":"Cazaux","lat":"42.841495","lng":".421504"},{"country":"FR","name":"Cazaux","lat":"42.888471","lng":".384996"},{"country":"FR","name":"Clermont","lat":"44.140275","lng":".831797"},{"country":"FR","name":"Clermont","lat":"44.248896","lng":".414244"},{"country":"FR","name":"Tirent","lat":"43.54175","lng":".79191"},{"country":"FR","name":"Thouars","lat":"43.184476","lng":"1.24154"},{"country":"FR","name":"Taurignan","lat":"43.024957","lng":"1.115525"},{"country":"FR","name":"Taurignan","lat":"43.039329","lng":"1.090757"},{"country":"FR","name":"Seysses","lat":"43.506187","lng":"1.041196"},{"country":"FR","name":"Encausse","lat":"43.050285","lng":".741006"},{"country":"FR","name":"Daumazan","lat":"43.143434","lng":"1.306816"},{"country":"FR","name":"Laure","lat":"43.271057","lng":"2.520307"},{"country":"FR","name":"Latour","lat":"42.767904","lng":"2.653557"},{"country":"FR","name":"Latour","lat":"42.606461","lng":"3.002011"},{"country":"FR","name":"Laroque","lat":"42.522389","lng":"2.933642"},{"country":"FR","name":"Laroque","lat":"42.956342","lng":"2.56512"},{"country":"FR","name":"Marnhagues","lat":"43.883653","lng":"3.058459"},{"country":"FR","name":"Lignan","lat":"43.384616","lng":"3.168913"},{"country":"FR","name":"Lieuran","lat":"43.418595","lng":"3.237188"},{"country":"FR","name":"Lieuran","lat":"43.585474","lng":"3.415915"},{"country":"FR","name":"L\u00e9zignan","lat":"43.493683","lng":"3.437081"},{"country":"FR","name":"Labastide","lat":"43.92672","lng":"2.011357"},{"country":"FR","name":"Labarthe","lat":"44.076727","lng":"1.908096"},{"country":"FR","name":"Saint-Auban","lat":"44.288747","lng":"5.416362"},{"country":"FR","name":"Saint-Andr\u00e9","lat":"44.376826","lng":"5.514163"},{"country":"FR","name":"Barret","lat":"44.186089","lng":"5.493536"},{"country":"FR","name":"Gaillan","lat":"45.321328","lng":"-.957944"},{"country":"FR","name":"Fontaines","lat":"45.385761","lng":"-.380045"},{"country":"FR","name":"Fl\u00e9ac","lat":"45.533672","lng":"-.538985"},{"country":"FR","name":"Dompierre","lat":"45.701534","lng":"-.491509"},{"country":"FR","name":"Saint-Pierre","lat":"44.179587","lng":".761046"},{"country":"FR","name":"Saint-Paul","lat":"44.143771","lng":".968967"},{"country":"FR","name":"Monferran","lat":"43.598202","lng":".980384"},{"country":"FR","name":"Castillon","lat":"42.805895","lng":".535714"},{"country":"FR","name":"Cadeilhan","lat":"42.816061","lng":".316062"},{"country":"FR","name":"Bord\u00e8res","lat":"42.87275","lng":".394709"},{"country":"FR","name":"B\u00e9zins","lat":"42.93152","lng":".694356"},{"country":"FR","name":"Fontenilles","lat":"44.645758","lng":"1.001319"},{"country":"FR","name":"Castillon","lat":"43.568926","lng":".983333"},{"country":"FR","name":"Savignac","lat":"43.489639","lng":"1.004759"},{"country":"FR","name":"Salles","lat":"43.292885","lng":"1.785344"},{"country":"FR","name":"Salles","lat":"43.274376","lng":"1.178051"},{"country":"FR","name":"Salies","lat":"43.100738","lng":".958661"},{"country":"FR","name":"Clermont","lat":"43.455236","lng":"1.419849"},{"country":"FR","name":"Cazaux","lat":"43.54178","lng":".982252"},{"country":"FR","name":"Castillon","lat":"43.135758","lng":".865382"},{"country":"FR","name":"Casties","lat":"43.328621","lng":"1.010279"},{"country":"FR","name":"Cast\u00e9ra","lat":"43.274481","lng":".779193"},{"country":"FR","name":"Ille","lat":"42.670689","lng":"2.621616"},{"country":"FR","name":"Le Poujol","lat":"43.579192","lng":"3.061564"},{"country":"FR","name":"Le Bousquet","lat":"43.692421","lng":"3.167464"},{"country":"FR","name":"La Tour","lat":"43.651858","lng":"3.150714"},{"country":"FR","name":"Castelnau","lat":"43.965549","lng":"1.819555"},{"country":"FR","name":"Castelnau","lat":"43.938179","lng":"2.084544"},{"country":"FR","name":"La S\u00e9auve","lat":"45.297018","lng":"4.253177"},{"country":"FR","name":"La Chapelle","lat":"45.462758","lng":"3.990158"},{"country":"FR","name":"La Chapelle","lat":"45.333357","lng":"4.205688"},{"country":"FR","name":"Rousset","lat":"44.419188","lng":"5.061199"},{"country":"FR","name":"Civrac","lat":"45.337909","lng":"-.897928"},{"country":"FR","name":"Cissac","lat":"45.226002","lng":"-.831831"},{"country":"FR","name":"Fargues","lat":"44.823043","lng":"-.446764"},{"country":"FR","name":"Cubzac","lat":"44.971188","lng":"-.449762"},{"country":"FR","name":"Civrac","lat":"45.111553","lng":"-.442862"},{"country":"FR","name":"Saint-Nicolas","lat":"44.064167","lng":"1.022804"},{"country":"FR","name":"Saint-Nicolas","lat":"44.137063","lng":".763098"},{"country":"FR","name":"Saint-Nazaire","lat":"44.224054","lng":"1.012919"},{"country":"FR","name":"Labastide","lat":"43.613218","lng":"-.610718"},{"country":"FR","name":"Miramont","lat":"44.231817","lng":"1.06283"},{"country":"FR","name":"Beyr\u00e8de","lat":"42.955896","lng":".379554"},{"country":"FR","name":"Benque","lat":"42.815759","lng":".555102"},{"country":"FR","name":"Bazus","lat":"42.85665","lng":".350302"},{"country":"FR","name":"Luchon","lat":"42.79079","lng":".593147"},{"country":"FR","name":"Aspin","lat":"42.931823","lng":".341081"},{"country":"FR","name":"Conne","lat":"44.780007","lng":".553326"},{"country":"FR","name":"Cast\u00e9rat","lat":"44.000982","lng":".918987"},{"country":"FR","name":"Saint-Sulpice","lat":"43.330762","lng":"1.320912"},{"country":"FR","name":"Saint-Orens","lat":"43.554021","lng":"1.534106"},{"country":"FR","name":"Saint-Michel","lat":"43.324465","lng":"1.758624"},{"country":"FR","name":"Saint-Martin","lat":"43.518451","lng":".80703"},{"country":"FR","name":"Saint-Martin","lat":"43.169952","lng":"1.49586"},{"country":"FR","name":"Saint-Loube","lat":"43.437379","lng":".992256"},{"country":"FR","name":"Saint-Lizier","lat":"43.414407","lng":".95119"},{"country":"FR","name":"Castelnau","lat":"43.306138","lng":"1.017381"},{"country":"FR","name":"Castanet","lat":"43.515913","lng":"1.498644"},{"country":"FR","name":"Cassagnab\u00e8re","lat":"43.227623","lng":".793433"},{"country":"FR","name":"Campagne","lat":"43.127947","lng":"1.338044"},{"country":"FR","name":"Fraiss\u00e9","lat":"42.962491","lng":"2.859707"},{"country":"FR","name":"Ferrals","lat":"43.146908","lng":"2.726219"},{"country":"FR","name":"F\u00e9lines","lat":"42.988592","lng":"2.614502"},{"country":"FR","name":"F\u00e9lines","lat":"43.329156","lng":"2.600107"},{"country":"FR","name":"Espira","lat":"42.776682","lng":"2.836736"},{"country":"FR","name":"Durban","lat":"42.994896","lng":"2.815739"},{"country":"FR","name":"Lamalou","lat":"43.597857","lng":"3.080516"},{"country":"FR","name":"Labastide","lat":"43.475662","lng":"2.639293"},{"country":"FR","name":"Cahuzac","lat":"43.982681","lng":"1.910518"},{"country":"FR","name":"Cagnac","lat":"43.984452","lng":"2.142268"},{"country":"FR","name":"Bor","lat":"44.19774","lng":"2.08131"},{"country":"FR","name":"Roche","lat":"44.478129","lng":"5.02815"},{"country":"FR","name":"Bussac","lat":"45.21175","lng":"-.370736"},{"country":"FR","name":"Brives","lat":"45.671778","lng":"-.461557"},{"country":"FR","name":"Brie","lat":"45.493135","lng":"-.742876"},{"country":"FR","name":"Braud","lat":"45.247033","lng":"-.624382"},{"country":"FR","name":"Castelnau","lat":"45.029338","lng":"-.798278"},{"country":"FR","name":"Grenade","lat":"43.777533","lng":"-.429605"},{"country":"FR","name":"Antichan","lat":"42.972789","lng":".666667"},{"country":"FR","name":"An\u00e9ran","lat":"42.830158","lng":".420144"},{"country":"FR","name":"Castelnaud","lat":"44.496302","lng":".6679"},{"country":"FR","name":"Castelnau","lat":"43.971843","lng":".457119"},{"country":"FR","name":"Castelnau","lat":"43.574885","lng":".724172"},{"country":"FR","name":"Saint-Jean","lat":"43.086473","lng":"1.627803"},{"country":"FR","name":"Saint-F\u00e9lix","lat":"43.135473","lng":"1.742719"},{"country":"FR","name":"Saint-F\u00e9lix","lat":"43.046573","lng":"1.670522"},{"country":"FR","name":"Saint-\u00c9lix","lat":"43.194005","lng":".852105"},{"country":"FR","name":"Sainte-Foy","lat":"43.492624","lng":"1.144765"},{"country":"FR","name":"Sainte-Foy","lat":"43.544225","lng":"1.605119"},{"country":"FR","name":"Sainte-Croix","lat":"43.125336","lng":"1.174662"},{"country":"FR","name":"Saint-Clar","lat":"43.464922","lng":"1.216508"},{"country":"FR","name":"Bonrepos","lat":"43.545835","lng":"1.147977"},{"country":"FR","name":"Bois","lat":"43.344431","lng":"1.150999"},{"country":"FR","name":"Belb\u00e8ze","lat":"43.132403","lng":"1.025792"},{"country":"FR","name":"Cuxac","lat":"43.246003","lng":"2.999001"},{"country":"FR","name":"Corneilla","lat":"42.696753","lng":"2.729621"},{"country":"FR","name":"Corneilla","lat":"42.623897","lng":"2.952165"},{"country":"FR","name":"Conilhac","lat":"43.188593","lng":"2.715275"},{"country":"FR","name":"Fra\u00efsse","lat":"43.605031","lng":"2.796001"},{"country":"FR","name":"Blaye","lat":"44.030734","lng":"2.131656"},{"country":"FR","name":"Balaguier","lat":"44.523458","lng":"1.97322"},{"country":"FR","name":"Chazelles","lat":"45.539033","lng":"3.99657"},{"country":"FR","name":"Chamali\u00e8res","lat":"45.201236","lng":"3.984291"},{"country":"FR","name":"Arces","lat":"45.554403","lng":"-.860761"},{"country":"FR","name":"Allas","lat":"45.384046","lng":"-.491981"},{"country":"FR","name":"Cadillac","lat":"44.967143","lng":"-.372021"},{"country":"FR","name":"Bourg","lat":"45.039649","lng":"-.557655"},{"country":"FR","name":"Bordeaux","lat":"44.840439","lng":"-.5805"},{"country":"FR","name":"Saint-Jean","lat":"43.990294","lng":".875748"},{"country":"FR","name":"Saint-Jean","lat":"44.154176","lng":".741612"},{"country":"FR","name":"Saint-Hilaire","lat":"44.22679","lng":".513455"},{"country":"FR","name":"Gamarde","lat":"43.732905","lng":"-.87252"},{"country":"FR","name":"Eug\u00e9nie","lat":"43.696342","lng":"-.378336"},{"country":"FR","name":"Born","lat":"44.686316","lng":".714373"},{"country":"FR","name":"Blanquefort","lat":"44.597093","lng":".966973"},{"country":"FR","name":"Roquefort","lat":"43.162183","lng":".974091"},{"country":"FR","name":"Rieux","lat":"43.057566","lng":"1.60928"},{"country":"FR","name":"Belb\u00e8ze","lat":"43.441583","lng":"1.555499"},{"country":"FR","name":"Beaumont","lat":"43.380952","lng":"1.35826"},{"country":"FR","name":"Auzeville","lat":"43.527775","lng":"1.482396"},{"country":"FR","name":"Caunettes","lat":"43.063263","lng":"2.554485"},{"country":"FR","name":"Caunes","lat":"43.325553","lng":"2.525409"},{"country":"FR","name":"Castelnau","lat":"43.231835","lng":"2.672625"},{"country":"FR","name":"Cases","lat":"42.778229","lng":"2.786426"},{"country":"FR","name":"Ferrals","lat":"43.401394","lng":"2.630549"},{"country":"FR","name":"Clermont","lat":"43.628947","lng":"3.432619"},{"country":"FR","name":"Bas","lat":"45.306536","lng":"4.108993"},{"country":"FR","name":"Aurec","lat":"45.369071","lng":"4.204902"},{"country":"FR","name":"Portes","lat":"44.528737","lng":"4.911488"},{"country":"FR","name":"Ayguemorte","lat":"44.709876","lng":"-.480597"},{"country":"FR","name":"Aubie","lat":"45.018689","lng":"-.402974"},{"country":"FR","name":"Vieux-Bourg","lat":"43.628261","lng":"-.783013"},{"country":"FR","name":"Castelnau","lat":"43.663872","lng":"-.843058"},{"country":"FR","name":"Castaignos","lat":"43.586324","lng":"-.650841"},{"country":"FR","name":"Carcar\u00e8s","lat":"43.841827","lng":"-.790554"},{"country":"FR","name":"Verteuil","lat":"44.465267","lng":".415617"},{"country":"FR","name":"Beaumont","lat":"44.766623","lng":".769162"},{"country":"FR","name":"Ramonville","lat":"43.547937","lng":"1.470791"},{"country":"FR","name":"Pouy","lat":"43.342575","lng":"1.037902"},{"country":"FR","name":"Portet","lat":"43.523329","lng":"1.406515"},{"country":"FR","name":"Pointis","lat":"43.086045","lng":".813098"},{"country":"FR","name":"Peyssies","lat":"43.320663","lng":"1.177765"},{"country":"FR","name":"Aspret","lat":"43.067808","lng":".716953"},{"country":"FR","name":"Cascastel","lat":"42.984571","lng":"2.759744"},{"country":"FR","name":"Camplong","lat":"43.129001","lng":"2.651701"},{"country":"FR","name":"Ceilhes","lat":"43.803533","lng":"3.1106"},{"country":"FR","name":"Cazouls","lat":"43.392183","lng":"3.100999"},{"country":"FR","name":"Cazouls","lat":"43.506355","lng":"3.458101"},{"country":"FR","name":"Castelnau","lat":"43.633331","lng":"3.9"},{"country":"FR","name":"Castelnau","lat":"43.433977","lng":"3.437081"},{"country":"FR","name":"Castanet","lat":"43.666668","lng":"2.966667"},{"country":"FR","name":"Vaison","lat":"44.24287","lng":"5.071761"},{"country":"FR","name":"Suze","lat":"44.287879","lng":"4.843456"},{"country":"FR","name":"Salles","lat":"44.452138","lng":"4.936075"},{"country":"FR","name":"Saint-Romain","lat":"44.25791","lng":"5.111407"},{"country":"FR","name":"Saint-Pierre","lat":"44.100504","lng":"5.138361"},{"country":"FR","name":"Saint-Paul","lat":"44.349093","lng":"4.765745"},{"country":"FR","name":"Saint-Maurice","lat":"44.2985","lng":"5.009255"},{"country":"FR","name":"Saint-Marcellin","lat":"44.230193","lng":"5.097892"},{"country":"FR","name":"Pennes","lat":"44.637312","lng":"5.316408"},{"country":"FR","name":"Andernos","lat":"44.740575","lng":"-1.090182"},{"country":"FR","name":"Sainte-Colombe","lat":"44.178219","lng":".515715"},{"country":"FR","name":"Bretagne","lat":"43.847381","lng":"-.464991"},{"country":"FR","name":"Savignac","lat":"44.479921","lng":".789587"},{"country":"FR","name":"Sauveterre","lat":"44.590615","lng":"1.011448"},{"country":"FR","name":"Salles","lat":"44.711356","lng":".999254"},{"country":"FR","name":"Saint-Romain","lat":"44.719635","lng":".879376"},{"country":"FR","name":"Saint-Quentin","lat":"44.684109","lng":".599978"},{"country":"FR","name":"Saint-Pierre","lat":"44.467652","lng":".551184"},{"country":"FR","name":"Bourg","lat":"44.261778","lng":".959082"},{"country":"FR","name":"Beaumont","lat":"43.882855","lng":".987616"},{"country":"FR","name":"Mourvilles","lat":"43.485654","lng":"1.702629"},{"country":"FR","name":"Montoulieu","lat":"43.234047","lng":".9101"},{"country":"FR","name":"Villes\u00e8que","lat":"43.015584","lng":"2.850928"},{"country":"FR","name":"Villerouge","lat":"43.00928","lng":"2.626682"},{"country":"FR","name":"Villeneuve","lat":"42.97672","lng":"2.776411"},{"country":"FR","name":"Villeneuve","lat":"43.315167","lng":"3.280587"},{"country":"FR","name":"Villeneuve","lat":"42.69366","lng":"2.802939"},{"country":"FR","name":"Villeneuve","lat":"42.635961","lng":"2.916512"},{"country":"FR","name":"Villelongue","lat":"42.525909","lng":"2.903093"},{"country":"FR","name":"Villelongue","lat":"42.726374","lng":"2.982405"},{"country":"FR","name":"Ventenac","lat":"43.248108","lng":"2.860207"},{"country":"FR","name":"Boujan","lat":"43.369961","lng":"3.247591"},{"country":"FR","name":"Bize","lat":"43.316559","lng":"2.87134"},{"country":"FR","name":"Banyuls","lat":"42.482715","lng":"3.128384"},{"country":"FR","name":"Banyuls","lat":"42.565666","lng":"2.866667"},{"country":"FR","name":"Saint-L\u00e9ger","lat":"44.211605","lng":"5.276095"},{"country":"FR","name":"Saint-Hippolyte","lat":"44.125797","lng":"5.069166"},{"country":"FR","name":"Monts\u00e9gur","lat":"44.361346","lng":"4.859255"},{"country":"FR","name":"Montbrison","lat":"44.441475","lng":"5.023714"},{"country":"FR","name":"Mollans","lat":"44.234322","lng":"5.187746"},{"country":"FR","name":"M\u00e9rindol","lat":"44.272207","lng":"5.156873"},{"country":"FR","name":"Montr\u00e9al","lat":"44.401961","lng":"5.30033"},{"country":"FR","name":"Montlaur","lat":"44.634841","lng":"5.428086"},{"country":"FR","name":"Montbrun","lat":"44.174265","lng":"5.442117"},{"country":"FR","name":"Montboucher","lat":"44.550357","lng":"4.802446"},{"country":"FR","name":"Villars","lat":"45.79917","lng":"-.436402"},{"country":"FR","name":"Villars","lat":"45.603703","lng":"-.621521"},{"country":"FR","name":"Vertheuil","lat":"45.250432","lng":"-.833851"},{"country":"FR","name":"Vendays","lat":"45.35492","lng":"-1.060882"},{"country":"FR","name":"Vaux","lat":"45.646064","lng":"-1.058409"},{"country":"FR","name":"Saint-Caprais","lat":"44.213544","lng":".745092"},{"country":"FR","name":"Benesse","lat":"43.646004","lng":"-1.041328"},{"country":"FR","name":"Saint-Maurice","lat":"44.573651","lng":".568898"},{"country":"FR","name":"Saint-Martin","lat":"44.528133","lng":"1.042201"},{"country":"FR","name":"Saint-Martin","lat":"44.64373","lng":".820181"},{"country":"FR","name":"Saint-L\u00e9on","lat":"44.720108","lng":".691634"},{"country":"FR","name":"Saint-Laurent","lat":"44.816264","lng":".454473"},{"country":"FR","name":"Saint-Julien","lat":"44.723979","lng":".43957"},{"country":"FR","name":"Saint-Front","lat":"44.574388","lng":".973013"},{"country":"FR","name":"Saint-Eutrope","lat":"44.578676","lng":".690765"},{"country":"FR","name":"Saint-\u00c9tienne","lat":"44.615006","lng":".763079"},{"country":"FR","name":"Viodos","lat":"43.241784","lng":"-.880479"},{"country":"FR","name":"Viellenave","lat":"43.416324","lng":"-1.064994"},{"country":"FR","name":"Viellenave","lat":"43.349824","lng":"-.792429"},{"country":"FR","name":"Montgaillard","lat":"43.254426","lng":".730335"},{"country":"FR","name":"Montgaillard","lat":"43.431066","lng":"1.697938"},{"country":"FR","name":"Montgaillard","lat":"43.061407","lng":".93256"},{"country":"FR","name":"Montesquieu","lat":"43.207245","lng":"1.228622"},{"country":"FR","name":"Montesquieu","lat":"43.416668","lng":"1.629415"},{"country":"FR","name":"Montesquieu","lat":"43.33476","lng":".769951"},{"country":"FR","name":"Mont\u00e9gut","lat":"43.441781","lng":".958923"},{"country":"FR","name":"Montclar","lat":"43.361307","lng":"1.715224"},{"country":"FR","name":"Montclar","lat":"43.17703","lng":"1.01976"},{"country":"FR","name":"Montbrun","lat":"43.456806","lng":"1.521733"},{"country":"FR","name":"Montbrun","lat":"43.127621","lng":"1.267381"},{"country":"FR","name":"Valras","lat":"43.247002","lng":"3.290159"},{"country":"FR","name":"Argel\u00e8s","lat":"42.546287","lng":"3.021152"},{"country":"FR","name":"Belmont","lat":"43.819807","lng":"2.755245"},{"country":"FR","name":"Balaguier","lat":"43.897289","lng":"2.577337"},{"country":"FR","name":"Le Po\u00ebt","lat":"44.253009","lng":"5.385749"},{"country":"FR","name":"La Roche","lat":"44.276196","lng":"5.313197"},{"country":"FR","name":"La Penne","lat":"44.259026","lng":"5.223441"},{"country":"FR","name":"La Baume","lat":"44.337831","lng":"4.865967"},{"country":"FR","name":"Montauban","lat":"44.272567","lng":"5.519793"},{"country":"FR","name":"Mirabel","lat":"44.311329","lng":"5.09846"},{"country":"FR","name":"Luc","lat":"44.615718","lng":"5.45205"},{"country":"FR","name":"Luc","lat":"44.514937","lng":"5.171081"},{"country":"FR","name":"Soulac","lat":"45.510508","lng":"-1.125507"},{"country":"FR","name":"Salignac","lat":"45.672033","lng":"-.429442"},{"country":"FR","name":"Salignac","lat":"45.345293","lng":"-.483142"},{"country":"FR","name":"Saint-Yzans","lat":"45.321583","lng":"-.82116"},{"country":"FR","name":"Saint-Vivien","lat":"45.426945","lng":"-1.033765"},{"country":"FR","name":"Blaye","lat":"45.127383","lng":"-.66048"},