[{"country":"GA","name":"Koulamoutou","lat":"-1.130319","lng":"12.473589"},{"country":"GA","name":"Franceville","lat":"-1.608102","lng":"13.615401"},{"country":"GA","name":"Mouila","lat":"-1.863497","lng":"11.059953"},{"country":"GA","name":"Estuaire","lat":".166667","lng":"10"},{"country":"GA","name":"Haut-Ogoou\u00e9","lat":"-2","lng":"14"},{"country":"GA","name":"Moyen-Ogoou\u00e9","lat":"-.5","lng":"10.5"},{"country":"GA","name":"Ngouni\u00e9","lat":"-2","lng":"11"},{"country":"GA","name":"Nyanga","lat":"-3","lng":"11"},{"country":"GA","name":"Ogoou\u00e9-Ivindo","lat":".5","lng":"13"},{"country":"GA","name":"Ogoou\u00e9-Lolo","lat":"-1","lng":"13"},{"country":"GA","name":"Ogoou\u00e9-Maritime","lat":"-2","lng":"9.5"},{"country":"GA","name":"Woleu-Ntem","lat":"2","lng":"12"},{"country":"GA","name":"Oyem","lat":"1.598296","lng":"11.575369"},{"country":"GA","name":"Makokou","lat":".573811","lng":"12.864194"},{"country":"GA","name":"Port-Gentil","lat":"-.72744","lng":"8.791783"},{"country":"GA","name":"Tchibanga","lat":"-2.85","lng":"11.033333"},{"country":"GA","name":"Libreville","lat":".383333","lng":"9.45"},{"country":"GA","name":"Lambar\u00e9n\u00e9","lat":"-.699436","lng":"10.220185"}]