[{"country":"GM","name":"Banjul","lat":"13.45","lng":"-16.583333"},{"country":"GM","name":"Central River","lat":"13.583333","lng":"-14.916667"},{"country":"GM","name":"MacCarthy Island Division","lat":"13.583333","lng":"-14.916667"},{"country":"GM","name":"Lower River","lat":"13.366667","lng":"-15.666667"},{"country":"GM","name":"Central Division","lat":"13.366667","lng":"-15.666667"},{"country":"GM","name":"North Bank","lat":"13.5","lng":"-16"},{"country":"GM","name":"Upper River","lat":"13.333333","lng":"-14.166667"},{"country":"GM","name":"Western","lat":"13.25","lng":"-16.333333"},{"country":"GM","name":"Baniakan","lat":"13.325556","lng":"-16.7475"},{"country":"GM","name":"Kombo North","lat":"13.366667","lng":"-16.666667"},{"country":"GM","name":"North Kombo","lat":"13.366667","lng":"-16.666667"},{"country":"GM","name":"Little Banjul","lat":"13.373333","lng":"-16.657222"},{"country":"GM","name":"Ker-Dobally","lat":"13.388611","lng":"-16.677778"},{"country":"GM","name":"East Kombo","lat":"13.216667","lng":"-16.516667"},{"country":"GM","name":"Kanjeramba","lat":"13.2","lng":"-15.933333"},{"country":"GM","name":"Marige","lat":"13.2","lng":"-15.9"},{"country":"GM","name":"Bissari","lat":"13.2","lng":"-15.9"},{"country":"GM","name":"Tamba Kunda","lat":"13.216667","lng":"-15.966667"},{"country":"GM","name":"Saneh Kunda","lat":"13.233333","lng":"-15.95"},{"country":"GM","name":"Bondali","lat":"13.233333","lng":"-15.916667"},{"country":"GM","name":"Bundali","lat":"13.233333","lng":"-15.916667"},{"country":"GM","name":"Arankon Kunda","lat":"13.233333","lng":"-15.916667"},{"country":"GM","name":"Joren","lat":"13.233333","lng":"-15.883333"},{"country":"GM","name":"S\u0101neykunda","lat":"13.233333","lng":"-15.883333"},{"country":"GM","name":"Kaiyabor","lat":"13.25","lng":"-15.95"},{"country":"GM","name":"Kallang","lat":"13.25","lng":"-15.95"},{"country":"GM","name":"Bundali","lat":"13.25","lng":"-15.9"},{"country":"GM","name":"Bonda","lat":"13.25","lng":"-15.883333"},{"country":"GM","name":"Joren","lat":"13.25","lng":"-15.883333"},{"country":"GM","name":"Kabomb","lat":"13.166667","lng":"-15.8"},{"country":"GM","name":"Kanjeramba","lat":"13.2","lng":"-15.866667"},{"country":"GM","name":"Kangiramba","lat":"13.2","lng":"-15.866667"},{"country":"GM","name":"Sittanunka","lat":"13.185833","lng":"-16.130278"},{"country":"GM","name":"Gikis","lat":"13.170556","lng":"-16.066389"},{"country":"GM","name":"Kambagali","lat":"13.184722","lng":"-16.082222"},{"country":"GM","name":"Erangalain","lat":"13.206667","lng":"-16.146944"},{"country":"GM","name":"Bajagar","lat":"13.201111","lng":"-16.124167"},{"country":"GM","name":"Cibagnari","lat":"13.209444","lng":"-16.118056"},{"country":"GM","name":"Manong","lat":"13.190833","lng":"-16.064167"},{"country":"GM","name":"Darselami","lat":"13.266667","lng":"-16"},{"country":"GM","name":"Jongerr","lat":"13.283333","lng":"-15.983333"},{"country":"GM","name":"Jumakunda","lat":"13.280278","lng":"-16.016111"},{"country":"GM","name":"Dunyo Joyo","lat":"13.570278","lng":"-16.466944"},{"country":"GM","name":"Barrinding","lat":"13.490278","lng":"-16.464444"},{"country":"GM","name":"Berrending","lat":"13.490278","lng":"-16.464444"},{"country":"GM","name":"Sika","lat":"13.354722","lng":"-16.345833"},{"country":"GM","name":"Pakao Penku","lat":"13.375556","lng":"-16.381667"},{"country":"GM","name":"Pakkau","lat":"13.375556","lng":"-16.381667"},{"country":"GM","name":"Pakkau","lat":"13.394444","lng":"-16.391944"},{"country":"GM","name":"Pakao Ibrai","lat":"13.394444","lng":"-16.391944"},{"country":"GM","name":"Sami","lat":"13.388333","lng":"-16.316667"},{"country":"GM","name":"Mademba","lat":"13.418333","lng":"-16.43"},{"country":"GM","name":"Ker Mama","lat":"13.419167","lng":"-16.355833"},{"country":"GM","name":"Bakolar","lat":"13.421667","lng":"-16.426667"},{"country":"GM","name":"Bakalari","lat":"13.421667","lng":"-16.426667"},{"country":"GM","name":"Sissora","lat":"13.421667","lng":"-16.426667"},{"country":"GM","name":"Pakolar","lat":"13.43","lng":"-16.394444"},{"country":"GM","name":"Memme","lat":"13.519722","lng":"-16.231111"},{"country":"GM","name":"Drame Joku","lat":"13.565278","lng":"-16.157778"},{"country":"GM","name":"Ker Majojo","lat":"13.579444","lng":"-16.16"},{"country":"GM","name":"Barria","lat":"13.533333","lng":"-16.133333"},{"country":"GM","name":"Samba Musa","lat":"13.590833","lng":"-16.058333"},{"country":"GM","name":"Jirong","lat":"13.533333","lng":"-15.7"},{"country":"GM","name":"Yallol","lat":"13.55","lng":"-15.7"},{"country":"GM","name":"Ker Pateh","lat":"13.366667","lng":"-15.383333"},{"country":"GM","name":"Modi Kulo","lat":"13.366667","lng":"-15.35"},{"country":"GM","name":"Dongoro Ba","lat":"13.366667","lng":"-15.35"},{"country":"GM","name":"N\u2019Jeng-en","lat":"13.783333","lng":"-15.133333"},{"country":"GM","name":"Jata Sutu","lat":"13.55","lng":"-15.25"},{"country":"GM","name":"Western Niamina","lat":"13.583333","lng":"-15.25"},{"country":"GM","name":"Boro Sambaya","lat":"13.416667","lng":"-14.033333"},{"country":"GM","name":"Yambur","lat":"13.315556","lng":"-16.701944"},{"country":"GM","name":"Jambour","lat":"13.315556","lng":"-16.701944"},{"country":"GM","name":"Lameng","lat":"13.386944","lng":"-16.644722"},{"country":"GM","name":"Lamin Beretto","lat":"13.386944","lng":"-16.644722"},{"country":"GM","name":"Nemakunku","lat":"13.403611","lng":"-16.685278"},{"country":"GM","name":"Sareh","lat":"13.403611","lng":"-16.685278"},{"country":"GM","name":"Mauwhunda Kunda","lat":"13.403611","lng":"-16.685278"},{"country":"GM","name":"Saneh Kunda","lat":"13.233333","lng":"-15.866667"},{"country":"GM","name":"Kamenero","lat":"13.216667","lng":"-15.816667"},{"country":"GM","name":"Kalaji","lat":"13.25","lng":"-15.833333"},{"country":"GM","name":"Kalaja","lat":"13.25","lng":"-15.833333"},{"country":"GM","name":"Kossema","lat":"13.173056","lng":"-16.175556"},{"country":"GM","name":"Kussamai","lat":"13.173056","lng":"-16.175556"},{"country":"GM","name":"Bajagar","lat":"13.193333","lng":"-16.181389"},{"country":"GM","name":"Battabut","lat":"13.206389","lng":"-16.16"},{"country":"GM","name":"Jakoe","lat":"13.228056","lng":"-16.175278"},{"country":"GM","name":"Sita","lat":"13.233611","lng":"-16.162222"},{"country":"GM","name":"Kaleng","lat":"13.174722","lng":"-16.056389"},{"country":"GM","name":"Sharm","lat":"13.523611","lng":"-16.466389"},{"country":"GM","name":"Ker Chende","lat":"13.578611","lng":"-16.44"},{"country":"GM","name":"Medina Sering Mas","lat":"13.488333","lng":"-16.410833"},{"country":"GM","name":"Niana Farra","lat":"13.488333","lng":"-16.410833"},{"country":"GM","name":"Medina Sering Mass","lat":"13.488333","lng":"-16.410833"},{"country":"GM","name":"Hamawda","lat":"13.488333","lng":"-16.410833"},{"country":"GM","name":"Darsilam","lat":"13.588333","lng":"-16.422778"},{"country":"GM","name":"Niji","lat":"13.574444","lng":"-16.525"},{"country":"GM","name":"Kajata","lat":"13.581389","lng":"-16.5275"},{"country":"GM","name":"Jinak","lat":"13.581389","lng":"-16.5275"},{"country":"GM","name":"Fas Omar Sahor","lat":"13.461389","lng":"-16.3825"},{"country":"GM","name":"Cherno Omar","lat":"13.455833","lng":"-16.339722"},{"country":"GM","name":"Chermo Omar","lat":"13.455833","lng":"-16.339722"},{"country":"GM","name":"Willingara","lat":"13.5","lng":"-16.35"},{"country":"GM","name":"Tawah","lat":"13.516667","lng":"-16.35"},{"country":"GM","name":"Joka","lat":"13.533333","lng":"-16.183333"},{"country":"GM","name":"Salikeni","lat":"13.483333","lng":"-15.966667"},{"country":"GM","name":"Salekini","lat":"13.483333","lng":"-15.966667"},{"country":"GM","name":"Salekaine","lat":"13.483333","lng":"-15.966667"},{"country":"GM","name":"Lower Baddibu","lat":"13.5","lng":"-16.05"},{"country":"GM","name":"Jammi Kunda","lat":"13.5","lng":"-16"},{"country":"GM","name":"Kashan","lat":"13.5","lng":"-15.75"},{"country":"GM","name":"Jumansari Korto","lat":"13.5","lng":"-15.733333"},{"country":"GM","name":"Alical Kunda","lat":"13.533333","lng":"-15.733333"},{"country":"GM","name":"Yuma","lat":"13.583333","lng":"-15.7"},{"country":"GM","name":"Banta Killi","lat":"13.583333","lng":"-15.7"},{"country":"GM","name":"Dutta Bullu","lat":"13.566667","lng":"-15.616667"},{"country":"GM","name":"Makka","lat":"13.4","lng":"-16.133333"},{"country":"GM","name":"Willimissa","lat":"13.416667","lng":"-16.116667"},{"country":"GM","name":"Tabafulanding","lat":"13.3","lng":"-15.933333"},{"country":"GM","name":"Jang-maru","lat":"13.3","lng":"-15.933333"},{"country":"GM","name":"Baijana","lat":"13.316667","lng":"-15.883333"},{"country":"GM","name":"Kanton Kunda","lat":"13.333333","lng":"-15.95"},{"country":"GM","name":"Kidi Kunda","lat":"13.333333","lng":"-15.916667"},{"country":"GM","name":"Jiffarong","lat":"13.3","lng":"-15.866667"},{"country":"GM","name":"Samba Tako","lat":"13.75","lng":"-15.05"},{"country":"GM","name":"Ker Sering Jabel","lat":"13.766667","lng":"-15.05"},{"country":"GM","name":"Kutcha","lat":"13.766667","lng":"-15.016667"},{"country":"GM","name":"Ramatulie","lat":"13.766667","lng":"-14.983333"},{"country":"GM","name":"Jokul","lat":"13.766667","lng":"-14.983333"},{"country":"GM","name":"Jalo Kunda Abdu Secka","lat":"13.766667","lng":"-14.983333"},{"country":"GM","name":"Jessida Tenda","lat":"13.65","lng":"-15.266667"},{"country":"GM","name":"Ker Katim","lat":"13.583333","lng":"-15.183333"},{"country":"GM","name":"Sare Malik","lat":"13.416667","lng":"-14.7"},{"country":"GM","name":"Junku","lat":"13.416667","lng":"-14.666667"},{"country":"GM","name":"Cherna Musa","lat":"13.416667","lng":"-14.65"},{"country":"GM","name":"Barsangsang","lat":"13.433333","lng":"-14.65"},{"country":"GM","name":"Bansang Tenda","lat":"13.433333","lng":"-14.65"},{"country":"GM","name":"Sare Bakare Demba","lat":"13.4","lng":"-14.6"},{"country":"GM","name":"Mansakunda","lat":"13.364444","lng":"-16.73"},{"country":"GM","name":"Latra Sabiji","lat":"13.413333","lng":"-16.678889"},{"country":"GM","name":"Latrikunda Sabiji","lat":"13.413333","lng":"-16.678889"},{"country":"GM","name":"Latra Sibige","lat":"13.413333","lng":"-16.678889"},{"country":"GM","name":"Latri","lat":"13.413333","lng":"-16.678889"},{"country":"GM","name":"Wellingara","lat":"13.403611","lng":"-16.673611"},{"country":"GM","name":"Willingara","lat":"13.403611","lng":"-16.673611"},{"country":"GM","name":"Tabokoto","lat":"13.4075","lng":"-16.667222"},{"country":"GM","name":"Nanetto","lat":"13.1825","lng":"-16.635"},{"country":"GM","name":"Kafenkena","lat":"13.171667","lng":"-16.002222"},{"country":"GM","name":"Baji Kunda","lat":"13.215278","lng":"-16.055833"},{"country":"GM","name":"Kanfinda","lat":"13.215278","lng":"-16.055833"},{"country":"GM","name":"Sangajor","lat":"13.229167","lng":"-16.040278"},{"country":"GM","name":"Meris","lat":"13.241389","lng":"-16.041667"},{"country":"GM","name":"Myamba","lat":"13.494167","lng":"-16.516944"},{"country":"GM","name":"M\u2019Bollet","lat":"13.516667","lng":"-16.5"},{"country":"GM","name":"M\u2019Bolett","lat":"13.516667","lng":"-16.5"},{"country":"GM","name":"M\u2019Bengkama","lat":"13.544167","lng":"-16.505556"},{"country":"GM","name":"Lower Niumi","lat":"13.533333","lng":"-16.416667"},{"country":"GM","name":"Niumi","lat":"13.533333","lng":"-16.416667"},{"country":"GM","name":"Mandingo State","lat":"13.533333","lng":"-16.416667"},{"country":"GM","name":"Alijamadu","lat":"13.4","lng":"-16.455556"},{"country":"GM","name":"Sita Nunku","lat":"13.383889","lng":"-16.463611"},{"country":"GM","name":"Tubakolon","lat":"13.366111","lng":"-16.465278"},{"country":"GM","name":"Bakkendik","lat":"13.456111","lng":"-16.453611"},{"country":"GM","name":"Ker Samba N\u2019Jobbeh","lat":"13.504722","lng":"-16.345278"},{"country":"GM","name":"Ker Biram Yasin","lat":"13.583333","lng":"-16"},{"country":"GM","name":"Ker Batram Yasin","lat":"13.583333","lng":"-16"},{"country":"GM","name":"Njabba Kunda","lat":"13.55","lng":"-15.916667"},{"country":"GM","name":"N\u2019jaba Kunda","lat":"13.55","lng":"-15.916667"},{"country":"GM","name":"N\u2019Ja Kunda","lat":"13.55","lng":"-15.916667"},{"country":"GM","name":"Ker Samba","lat":"13.583333","lng":"-15.933333"},{"country":"GM","name":"Marka Farafenni","lat":"13.583333","lng":"-15.633333"},{"country":"GM","name":"Ker Ali","lat":"13.583333","lng":"-15.616667"},{"country":"GM","name":"N\u2019Gien Beretto","lat":"13.55","lng":"-15.583333"},{"country":"GM","name":"Kunjung","lat":"13.566667","lng":"-15.583333"},{"country":"GM","name":"Yallol Ba","lat":"13.583333","lng":"-15.566667"},{"country":"GM","name":"Dumbuttu","lat":"13.35","lng":"-15.833333"},{"country":"GM","name":"Saniang Kunda","lat":"13.35","lng":"-15.833333"},{"country":"GM","name":"Battelling","lat":"13.4","lng":"-15.85"},{"country":"GM","name":"Kenniba","lat":"13.328889","lng":"-16.015"},{"country":"GM","name":"Tankural","lat":"13.417778","lng":"-16.036944"},{"country":"GM","name":"Bulufulla","lat":"13.283333","lng":"-15.916667"},{"country":"GM","name":"Baijangkortor","lat":"13.266667","lng":"-15.9"},{"country":"GM","name":"Neman Kunda","lat":"13.266667","lng":"-15.9"},{"country":"GM","name":"Willingara","lat":"13.416667","lng":"-15.4"},{"country":"GM","name":"Sitafuma","lat":"13.416667","lng":"-15.4"},{"country":"GM","name":"Sukotto","lat":"13.4","lng":"-15.316667"},{"country":"GM","name":"Sare Dabatu","lat":"13.366667","lng":"-15.3"},{"country":"GM","name":"Dongoro","lat":"13.383333","lng":"-15.283333"},{"country":"GM","name":"Willingara","lat":"13.4","lng":"-15.266667"},{"country":"GM","name":"Buraing","lat":"13.416667","lng":"-15.283333"},{"country":"GM","name":"Eastern Jarra","lat":"13.416667","lng":"-15.25"},{"country":"GM","name":"Bani Bajenko","lat":"13.416667","lng":"-15.233333"},{"country":"GM","name":"Jaba","lat":"13.433333","lng":"-15.216667"},{"country":"GM","name":"Sare N\u2019Joba","lat":"13.433333","lng":"-15.216667"},{"country":"GM","name":"Kass N\u2019Jaibal","lat":"13.766667","lng":"-14.933333"},{"country":"GM","name":"Porli","lat":"13.783333","lng":"-15.116667"},{"country":"GM","name":"Tento","lat":"13.783333","lng":"-15.1"},{"country":"GM","name":"Ker Sering N\u2019Jie","lat":"13.783333","lng":"-15.083333"},{"country":"GM","name":"Tento","lat":"13.783333","lng":"-15.083333"},{"country":"GM","name":"Ker Malima","lat":"13.583333","lng":"-15.183333"},{"country":"GM","name":"Kumbani","lat":"13.6","lng":"-15.216667"},{"country":"GM","name":"Ker Biran","lat":"13.6","lng":"-15.166667"},{"country":"GM","name":"N\u2019Gawarr","lat":"13.6","lng":"-15.15"},{"country":"GM","name":"Gauwa","lat":"13.6","lng":"-15.15"},{"country":"GM","name":"Bamba Kolon","lat":"13.6","lng":"-15.133333"},{"country":"GM","name":"N\u2019Jareng Kunda","lat":"13.433333","lng":"-14.583333"},{"country":"GM","name":"Sering Saho","lat":"13.45","lng":"-14.833333"},{"country":"GM","name":"Sinchu Bachi","lat":"13.466667","lng":"-14.833333"},{"country":"GM","name":"Sare Sambaro","lat":"13.45","lng":"-14.783333"},{"country":"GM","name":"Jahabi","lat":"13.366667","lng":"-14.366667"},{"country":"GM","name":"Jakaba","lat":"13.366667","lng":"-14.366667"},{"country":"GM","name":"Dirboko","lat":"13.383333","lng":"-14.4"},{"country":"GM","name":"Kurau","lat":"13.4","lng":"-14.416667"},{"country":"GM","name":"Missir","lat":"13.366667","lng":"-14.35"},{"country":"GM","name":"Misera","lat":"13.366667","lng":"-14.35"},{"country":"GM","name":"Plinky Woppa","lat":"13.366667","lng":"-14.3"},{"country":"GM","name":"Sotokoi","lat":"13.370556","lng":"-16.744444"},{"country":"GM","name":"Bajon Kotor","lat":"13.411667","lng":"-16.661667"},{"country":"GM","name":"Kambuji","lat":"13.3","lng":"-16.616667"},{"country":"GM","name":"Old Kembuji","lat":"13.3","lng":"-16.616667"},{"country":"GM","name":"Kakudia","lat":"13.225278","lng":"-16.742778"},{"country":"GM","name":"Kunkujan","lat":"13.225278","lng":"-16.742778"},{"country":"GM","name":"Mandingo State","lat":"13.4","lng":"-16.333333"},{"country":"GM","name":"Upper Niumi","lat":"13.4","lng":"-16.333333"},{"country":"GM","name":"Niumi","lat":"13.4","lng":"-16.333333"},{"country":"GM","name":"Albreda","lat":"13.334444","lng":"-16.386667"},{"country":"GM","name":"Jufuri","lat":"13.338611","lng":"-16.3825"},{"country":"GM","name":"Yolof","lat":"13.35","lng":"-16.338333"},{"country":"GM","name":"Ker N\u2019Gojan","lat":"13.533333","lng":"-16.280556"},{"country":"GM","name":"Jama Ken","lat":"13.533611","lng":"-16.253056"},{"country":"GM","name":"Dimbaga","lat":"13.543889","lng":"-16.364167"},{"country":"GM","name":"Dungu","lat":"13.558611","lng":"-16.351667"},{"country":"GM","name":"Fafending","lat":"13.565278","lng":"-16.379167"},{"country":"GM","name":"Ker Kalim","lat":"13.583333","lng":"-15.883333"},{"country":"GM","name":"Dai","lat":"13.55","lng":"-15.816667"},{"country":"GM","name":"Dankadanka","lat":"13.516667","lng":"-15.633333"},{"country":"GM","name":"Balingo","lat":"13.483333","lng":"-15.616667"},{"country":"GM","name":"N\u2019Jie Kunda","lat":"13.533333","lng":"-15.516667"},{"country":"GM","name":"N\u2019Jenghen","lat":"13.533333","lng":"-15.516667"},{"country":"GM","name":"Tomba Koto","lat":"13.533333","lng":"-15.516667"},{"country":"GM","name":"Tendito","lat":"13.516667","lng":"-15.416667"},{"country":"GM","name":"Tendaito","lat":"13.516667","lng":"-15.416667"},{"country":"GM","name":"Kumbija","lat":"13.533333","lng":"-15.433333"},{"country":"GM","name":"Sarra Kunda","lat":"13.533333","lng":"-15.416667"},{"country":"GM","name":"Jatabba","lat":"13.266667","lng":"-15.833333"},{"country":"GM","name":"Bumari","lat":"13.366667","lng":"-15.766667"},{"country":"GM","name":"Sare Mamoudou","lat":"13.366667","lng":"-15.716667"},{"country":"GM","name":"Sibitto","lat":"13.383333","lng":"-15.733333"},{"country":"GM","name":"Tendeba","lat":"13.433333","lng":"-15.816667"},{"country":"GM","name":"Bambaka","lat":"13.4","lng":"-15.766667"},{"country":"GM","name":"Central Kiang","lat":"13.4","lng":"-15.75"},{"country":"GM","name":"Surukung","lat":"13.466667","lng":"-15.266667"},{"country":"GM","name":"Felling Kotor","lat":"13.466667","lng":"-15.233333"},{"country":"GM","name":"Barukunda","lat":"13.483333","lng":"-15.266667"},{"country":"GM","name":"Dasalami","lat":"13.483333","lng":"-15.233333"},{"country":"GM","name":"Darselameh","lat":"13.483333","lng":"-15.233333"},{"country":"GM","name":"Fas","lat":"13.8","lng":"-15.066667"},{"country":"GM","name":"Nioro","lat":"13.8","lng":"-15.05"},{"country":"GM","name":"Misera","lat":"13.816667","lng":"-15.066667"},{"country":"GM","name":"Misira","lat":"13.816667","lng":"-15.066667"},{"country":"GM","name":"Ker Maka","lat":"13.816667","lng":"-15.066667"},{"country":"GM","name":"Niani Bantang","lat":"13.783333","lng":"-15.016667"},{"country":"GM","name":"Nianga","lat":"13.783333","lng":"-15.016667"},{"country":"GM","name":"Nianha","lat":"13.783333","lng":"-15.016667"},{"country":"GM","name":"Chalen Ker Bakary Salla","lat":"13.783333","lng":"-15"},{"country":"GM","name":"Baitit Mamu Fana","lat":"13.6","lng":"-15.116667"},{"country":"GM","name":"Sinchu Alpha Saine","lat":"13.6","lng":"-15.033333"},{"country":"GM","name":"Sare Samba Sumaleh","lat":"13.6","lng":"-15.033333"},{"country":"GM","name":"Pate","lat":"13.616667","lng":"-15.066667"},{"country":"GM","name":"Ker Omar Dahor","lat":"13.616667","lng":"-15.066667"},{"country":"GM","name":"Tenenfara","lat":"13.616667","lng":"-15.016667"},{"country":"GM","name":"Madina","lat":"13.616667","lng":"-15.016667"},{"country":"GM","name":"Muritabeh","lat":"13.483333","lng":"-14.816667"},{"country":"GM","name":"Sare Fally","lat":"13.483333","lng":"-14.816667"},{"country":"GM","name":"Sare Sambuldu","lat":"13.483333","lng":"-14.8"},{"country":"GM","name":"Sare Naba","lat":"13.483333","lng":"-14.8"},{"country":"GM","name":"Patchari","lat":"13.5","lng":"-14.833333"},{"country":"GM","name":"Pachari Konoh Ba","lat":"13.5","lng":"-14.833333"},{"country":"GM","name":"Sare Fosary","lat":"13.5","lng":"-14.816667"},{"country":"GM","name":"M\u2019Baia","lat":"13.383333","lng":"-14.283333"},{"country":"GM","name":"Madina","lat":"13.366667","lng":"-14.2"},{"country":"GM","name":"Perai Memadi","lat":"13.383333","lng":"-14.25"},{"country":"GM","name":"Kundum","lat":"13.4","lng":"-14.283333"},{"country":"GM","name":"Kandimai","lat":"13.4","lng":"-14.283333"},{"country":"GM","name":"Kuonko","lat":"13.416667","lng":"-14.316667"},{"country":"GM","name":"Sare Yorori","lat":"13.433333","lng":"-14.316667"},{"country":"GM","name":"Sare Dumfoya","lat":"13.416667","lng":"-14.216667"},{"country":"GM","name":"Boro Manjang Kunda","lat":"13.416667","lng":"-14.033333"},{"country":"GM","name":"Sare Alpha","lat":"13.366667","lng":"-13.983333"},{"country":"GM","name":"Sare Vesu","lat":"13.383333","lng":"-13.966667"},{"country":"GM","name":"Song Kunda","lat":"13.383333","lng":"-13.85"},{"country":"GM","name":"Karaoli","lat":"13.416667","lng":"-13.95"},{"country":"GM","name":"Charnum","lat":"13.416667","lng":"-13.95"},{"country":"GM","name":"Manjal Kunda","lat":"13.445278","lng":"-16.702778"},{"country":"GM","name":"Jabang","lat":"13.359444","lng":"-16.709444"},{"country":"GM","name":"N\u2019Dungu Kebbeh","lat":"13.540278","lng":"-16.321944"},{"country":"GM","name":"Kebbe","lat":"13.540278","lng":"-16.321944"},{"country":"GM","name":"Bantanding","lat":"13.588056","lng":"-16.255278"},{"country":"GM","name":"Nirabaya","lat":"13.583333","lng":"-15.866667"},{"country":"GM","name":"Chamaya","lat":"13.583333","lng":"-15.833333"},{"country":"GM","name":"Konti Kunda","lat":"13.566667","lng":"-15.8"},{"country":"GM","name":"Niji","lat":"13.566667","lng":"-15.783333"},{"country":"GM","name":"Ker Lelly","lat":"13.583333","lng":"-15.8"},{"country":"GM","name":"Biram Kunda","lat":"13.583333","lng":"-15.783333"},{"country":"GM","name":"Ker Bambo Lowe","lat":"13.55","lng":"-15.416667"},{"country":"GM","name":"Dipa Kunda","lat":"13.566667","lng":"-15.466667"},{"country":"GM","name":"M\u2019Palen","lat":"13.566667","lng":"-15.433333"},{"country":"GM","name":"Numu Kunda","lat":"13.416667","lng":"-15.716667"},{"country":"GM","name":"Jollofin","lat":"13.366667","lng":"-15.65"},{"country":"GM","name":"Toranko Bantang","lat":"13.4","lng":"-15.666667"},{"country":"GM","name":"Eastern Kiang","lat":"13.416667","lng":"-15.633333"},{"country":"GM","name":"Genge","lat":"13.716667","lng":"-15.383333"},{"country":"GM","name":"Gunkoru Wolloff","lat":"13.716667","lng":"-15.383333"},{"country":"GM","name":"Gunkeru","lat":"13.716667","lng":"-15.383333"},{"country":"GM","name":"Hibra","lat":"13.733333","lng":"-15.383333"},{"country":"GM","name":"N\u2019Yang-en Baba N\u2019Yang","lat":"13.783333","lng":"-14.983333"},{"country":"GM","name":"N\u2019Yang-en","lat":"13.783333","lng":"-14.983333"},{"country":"GM","name":"N\u2019Joben","lat":"13.783333","lng":"-14.966667"},{"country":"GM","name":"N\u2019Joben Fula","lat":"13.783333","lng":"-14.966667"},{"country":"GM","name":"Kass","lat":"13.783333","lng":"-14.933333"},{"country":"GM","name":"Samba N\u2019Yang","lat":"13.783333","lng":"-14.933333"},{"country":"GM","name":"Kass Malal Bah","lat":"13.783333","lng":"-14.933333"},{"country":"GM","name":"Kas Malal Bah","lat":"13.783333","lng":"-14.933333"},{"country":"GM","name":"Doki Alla","lat":"13.716667","lng":"-14.9"},{"country":"GM","name":"Jingory Manga","lat":"13.716667","lng":"-14.866667"},{"country":"GM","name":"Dingarai","lat":"13.766667","lng":"-14.916667"},{"country":"GM","name":"Madina N\u2019Jaien","lat":"13.75","lng":"-14.883333"},{"country":"GM","name":"Pallol","lat":"13.766667","lng":"-14.866667"},{"country":"GM","name":"Fula Kolon","lat":"13.633333","lng":"-15.116667"},{"country":"GM","name":"Eastern Niamina","lat":"13.633333","lng":"-15.083333"},{"country":"GM","name":"Satakoi","lat":"13.65","lng":"-15.1"},{"country":"GM","name":"Hai-Rewan","lat":"13.65","lng":"-15.083333"},{"country":"GM","name":"Barrajalli","lat":"13.6","lng":"-14.95"},{"country":"GM","name":"Tabba Nanni","lat":"13.533333","lng":"-14.816667"},{"country":"GM","name":"Tabba Nanna","lat":"13.533333","lng":"-14.816667"},{"country":"GM","name":"Kewal","lat":"13.45","lng":"-14.7"},{"country":"GM","name":"Sololo","lat":"13.45","lng":"-14.683333"},{"country":"GM","name":"Sololo","lat":"13.45","lng":"-14.666667"},{"country":"GM","name":"Medina","lat":"13.483333","lng":"-14.7"},{"country":"GM","name":"Dobo","lat":"13.466667","lng":"-14.633333"},{"country":"GM","name":"Koli Kunda","lat":"13.466667","lng":"-14.583333"},{"country":"GM","name":"Sileri Ba","lat":"13.466667","lng":"-14.583333"},{"country":"GM","name":"Sileria","lat":"13.466667","lng":"-14.583333"},{"country":"GM","name":"Kurop","lat":"13.5","lng":"-14.716667"},{"country":"GM","name":"Kossemar Mamodu Sutu","lat":"13.316667","lng":"-14.383333"},{"country":"GM","name":"Jawbeh Madeh","lat":"13.35","lng":"-14.416667"},{"country":"GM","name":"Mansong","lat":"13.333333","lng":"-14.4"},{"country":"GM","name":"Pachunko","lat":"13.333333","lng":"-14.383333"},{"country":"GM","name":"Kossema","lat":"13.333333","lng":"-14.383333"},{"country":"GM","name":"Gambissara Fula","lat":"13.266667","lng":"-14.3"},{"country":"GM","name":"Talito","lat":"13.266667","lng":"-14.283333"},{"country":"GM","name":"Bahwa","lat":"13.266667","lng":"-14.283333"},{"country":"GM","name":"Kukuyal","lat":"13.4","lng":"-13.9"},{"country":"GM","name":"Kebbe","lat":"13.433333","lng":"-13.966667"},{"country":"GM","name":"Farintumbu","lat":"13.4","lng":"-13.866667"},{"country":"GM","name":"Farem-Toumbo","lat":"13.4","lng":"-13.866667"},{"country":"GM","name":"Djan Counda","lat":"13.416667","lng":"-13.866667"},{"country":"GM","name":"Old Jeshwang","lat":"13.458611","lng":"-16.663333"},{"country":"GM","name":"Mandina Ba","lat":"13.281111","lng":"-16.593611"},{"country":"GM","name":"Maindina Ba","lat":"13.281111","lng":"-16.593611"},{"country":"GM","name":"Mandina Bah","lat":"13.281111","lng":"-16.593611"},{"country":"GM","name":"Jakadia","lat":"13.583333","lng":"-15.75"},{"country":"GM","name":"Jahajan","lat":"13.583333","lng":"-15.75"},{"country":"GM","name":"Kerewan","lat":"13.489444","lng":"-16.091111"},{"country":"GM","name":"Kerevane","lat":"13.489444","lng":"-16.091111"},{"country":"GM","name":"Suara Kunda","lat":"13.506944","lng":"-16.082222"},{"country":"GM","name":"Kinti Kunda","lat":"13.507222","lng":"-16.067222"},{"country":"GM","name":"Dasalami","lat":"13.530556","lng":"-16.136389"},{"country":"GM","name":"Darsilami","lat":"13.530556","lng":"-16.136389"},{"country":"GM","name":"Dasalami","lat":"13.530556","lng":"-16.136389"},{"country":"GM","name":"N\u2019Toro Baien","lat":"13.558056","lng":"-16.070556"},{"country":"GM","name":"Balli","lat":"13.5675","lng":"-16.117222"},{"country":"GM","name":"Panne","lat":"13.586389","lng":"-16.070556"},{"country":"GM","name":"Bali Hali Howeh","lat":"13.59","lng":"-16.111667"},{"country":"GM","name":"Kungeru","lat":"13.522778","lng":"-16.027778"},{"country":"GM","name":"N\u2019Toro Taim","lat":"13.561667","lng":"-16.048333"},{"country":"GM","name":"N\u2019Toro Tem","lat":"13.561667","lng":"-16.048333"},{"country":"GM","name":"Ker Ardo","lat":"13.578889","lng":"-16.046389"},{"country":"GM","name":"Sare Hamady","lat":"13.366667","lng":"-15.616667"},{"country":"GM","name":"Subundu","lat":"13.383333","lng":"-15.533333"},{"country":"GM","name":"Simbarre Kai","lat":"13.733333","lng":"-15.35"},{"country":"GM","name":"Simbara Hai","lat":"13.733333","lng":"-15.35"},{"country":"GM","name":"Ker Tierno","lat":"13.75","lng":"-15.4"},{"country":"GM","name":"Jokul","lat":"13.783333","lng":"-14.9"},{"country":"GM","name":"Kas Yallal","lat":"13.783333","lng":"-14.9"},{"country":"GM","name":"Ker Biram Yassin","lat":"13.65","lng":"-15.433333"},{"country":"GM","name":"Biram Yacin","lat":"13.65","lng":"-15.433333"},{"country":"GM","name":"N\u2019Geyen Ker Farba N\u2019Daw","lat":"13.65","lng":"-15.416667"},{"country":"GM","name":"Bintinki","lat":"13.666667","lng":"-15.4"},{"country":"GM","name":"Balangar","lat":"13.666667","lng":"-15.4"},{"country":"GM","name":"Ballangar","lat":"13.666667","lng":"-15.4"},{"country":"GM","name":"Jarrume Kuta","lat":"13.566667","lng":"-14.866667"},{"country":"GM","name":"Ka-ai","lat":"13.583333","lng":"-14.883333"},{"country":"GM","name":"Sukutta","lat":"13.616667","lng":"-14.916667"},{"country":"GM","name":"Dasalami","lat":"13.666667","lng":"-15.1"},{"country":"GM","name":"Daresalama","lat":"13.666667","lng":"-15.1"},{"country":"GM","name":"Gunjur","lat":"13.666667","lng":"-15.033333"},{"country":"GM","name":"Kulibanta","lat":"13.666667","lng":"-15"},{"country":"GM","name":"Tankon Kunda","lat":"13.5","lng":"-14.65"},{"country":"GM","name":"Sare Yoro Beri","lat":"13.516667","lng":"-14.733333"},{"country":"GM","name":"Sare Yora Beri","lat":"13.516667","lng":"-14.733333"},{"country":"GM","name":"Boroba","lat":"13.516667","lng":"-14.733333"},{"country":"GM","name":"Yona","lat":"13.533333","lng":"-14.683333"},{"country":"GM","name":"Jogdu","lat":"13.516667","lng":"-14.6"},{"country":"GM","name":"Sotuma Sairy","lat":"13.3","lng":"-14.333333"},{"country":"GM","name":"Jata","lat":"13.283333","lng":"-14.316667"},{"country":"GM","name":"Tabanding Sakbo","lat":"13.283333","lng":"-14.316667"},{"country":"GM","name":"Talito","lat":"13.283333","lng":"-14.283333"},{"country":"GM","name":"Sotuma Samba","lat":"13.3","lng":"-14.316667"},{"country":"GM","name":"Sotoma","lat":"13.3","lng":"-14.316667"},{"country":"GM","name":"Samba Koi","lat":"13.3","lng":"-14.316667"},{"country":"GM","name":"Sotoma N\u2019ding","lat":"13.3","lng":"-14.316667"},{"country":"GM","name":"Kumbita","lat":"13.266667","lng":"-14.183333"},{"country":"GM","name":"Manneh Kunda","lat":"13.3","lng":"-14.216667"},{"country":"GM","name":"Willingara","lat":"13.3","lng":"-14.2"},{"country":"GM","name":"Giroba","lat":"13.3","lng":"-14.2"},{"country":"GM","name":"Sare Jula","lat":"13.45","lng":"-14.433333"},{"country":"GM","name":"Barry Narbeh","lat":"13.45","lng":"-14.383333"},{"country":"GM","name":"Sare Kuba","lat":"13.45","lng":"-14.366667"},{"country":"GM","name":"Tarbu Chindeh","lat":"13.466667","lng":"-14.383333"},{"country":"GM","name":"Kembuje","lat":"13.285","lng":"-16.621389"},{"country":"GM","name":"New Kembuji","lat":"13.285","lng":"-16.621389"},{"country":"GM","name":"Bambale","lat":"13.483333","lng":"-15.333333"},{"country":"GM","name":"Bombale","lat":"13.483333","lng":"-15.333333"},{"country":"GM","name":"Kurong Kortor","lat":"13.316667","lng":"-16.1"},{"country":"GM","name":"Kurang Kotor","lat":"13.301389","lng":"-16.1875"},{"country":"GM","name":"Kurong Kotor","lat":"13.301389","lng":"-16.1875"},{"country":"GM","name":"Tenda","lat":"13.301389","lng":"-16.1875"},{"country":"GM","name":"Santang Ba Wharf","lat":"13.296111","lng":"-16.133333"},{"country":"GM","name":"Birong","lat":"13.326667","lng":"-16.179444"},{"country":"GM","name":"Taburo Koto","lat":"13.3225","lng":"-16.179444"},{"country":"GM","name":"Taba Woro","lat":"13.3225","lng":"-16.179444"},{"country":"GM","name":"Mandina","lat":"13.357778","lng":"-16.171667"},{"country":"GM","name":"Kenniang","lat":"13.353889","lng":"-16.07"},{"country":"GM","name":"Mandua","lat":"13.353889","lng":"-16.07"},{"country":"GM","name":"Janna Kunda","lat":"13.380278","lng":"-16.138333"},{"country":"GM","name":"Giffin","lat":"13.416667","lng":"-15.583333"},{"country":"GM","name":"Seno Ba","lat":"13.4","lng":"-15.516667"},{"country":"GM","name":"Western Jarra","lat":"13.416667","lng":"-15.533333"},{"country":"GM","name":"Tonitaba","lat":"13.433333","lng":"-15.583333"},{"country":"GM","name":"Digante","lat":"13.366667","lng":"-15.433333"},{"country":"GM","name":"Central Jarra","lat":"13.416667","lng":"-15.416667"},{"country":"GM","name":"Jafini","lat":"13.416667","lng":"-15.416667"},{"country":"GM","name":"Ker Tiendu","lat":"13.766667","lng":"-15.333333"},{"country":"GM","name":"Yungo","lat":"13.716667","lng":"-15.2"},{"country":"GM","name":"Balangar","lat":"13.666667","lng":"-15.366667"},{"country":"GM","name":"Balanghar","lat":"13.666667","lng":"-15.366667"},{"country":"GM","name":"Jakau","lat":"13.7","lng":"-15.35"},{"country":"GM","name":"Ida","lat":"13.666667","lng":"-14.933333"},{"country":"GM","name":"Jda","lat":"13.666667","lng":"-14.933333"},{"country":"GM","name":"Kudang Wharf","lat":"13.683333","lng":"-15.083333"},{"country":"GM","name":"Kudang","lat":"13.683333","lng":"-15.083333"},{"country":"GM","name":"Niani Marigo","lat":"13.7","lng":"-15"},{"country":"GM","name":"Niani Maro","lat":"13.7","lng":"-15"},{"country":"GM","name":"Tuba","lat":"13.633333","lng":"-14.9"},{"country":"GM","name":"Kuntaur","lat":"13.65","lng":"-14.866667"},{"country":"GM","name":"Pallan","lat":"13.666667","lng":"-14.866667"},{"country":"GM","name":"Lamin","lat":"13.55","lng":"-14.766667"},{"country":"GM","name":"Jarrume Koto","lat":"13.583333","lng":"-14.783333"},{"country":"GM","name":"Kora","lat":"13.583333","lng":"-14.75"},{"country":"GM","name":"Jamarli","lat":"13.583333","lng":"-14.75"},{"country":"GM","name":"Jamari","lat":"13.583333","lng":"-14.75"},{"country":"GM","name":"Dula Kunda","lat":"13.316667","lng":"-14.3"},{"country":"GM","name":"Doba Kunda","lat":"13.316667","lng":"-14.3"},{"country":"GM","name":"Changally","lat":"13.35","lng":"-14.333333"},{"country":"GM","name":"Kuoba","lat":"13.316667","lng":"-14.233333"},{"country":"GM","name":"Sare Sajor Biloh","lat":"13.25","lng":"-14.4"},{"country":"GM","name":"Nobakunda","lat":"13.25","lng":"-14.383333"},{"country":"GM","name":"N\u2019 Gai Golore","lat":"13.5","lng":"-14.433333"},{"country":"GM","name":"Sare Ngabba","lat":"13.466667","lng":"-14.216667"},{"country":"GM","name":"Kuonko","lat":"13.466667","lng":"-14.2"},{"country":"GM","name":"Jar Kunda","lat":"13.466667","lng":"-14.183333"},{"country":"GM","name":"Fula Kunda","lat":"13.483333","lng":"-14.2"},{"country":"GM","name":"Bala Silla","lat":"13.45","lng":"-14.133333"},{"country":"GM","name":"Dipa Kunda","lat":"13.440278","lng":"-16.686944"},{"country":"GM","name":"Jeswang","lat":"13.4425","lng":"-16.681389"},{"country":"GM","name":"Farakunda","lat":"13.309167","lng":"-16.778611"},{"country":"GM","name":"Tujereng","lat":"13.316389","lng":"-16.788889"},{"country":"GM","name":"Tujurei","lat":"13.316389","lng":"-16.788889"},{"country":"GM","name":"Kunkujan","lat":"13.304722","lng":"-16.623889"},{"country":"GM","name":"Kombo South","lat":"13.25","lng":"-16.75"},{"country":"GM","name":"South Kombo","lat":"13.25","lng":"-16.75"},{"country":"GM","name":"Buiba","lat":"13.433333","lng":"-15.45"},{"country":"GM","name":"Baba","lat":"13.433333","lng":"-15.45"},{"country":"GM","name":"Pokalle Ding","lat":"13.466667","lng":"-15.55"},{"country":"GM","name":"Sankuia","lat":"13.466667","lng":"-15.516667"},{"country":"GM","name":"Jabis","lat":"13.466667","lng":"-15.466667"},{"country":"GM","name":"Mansa Konko","lat":"13.466667","lng":"-15.55"},{"country":"GM","name":"Ginoi","lat":"13.483333","lng":"-15.566667"},{"country":"GM","name":"Samba So","lat":"13.716667","lng":"-15.016667"},{"country":"GM","name":"Kahone","lat":"13.716667","lng":"-15.016667"},{"country":"GM","name":"Ker Samba Sowe","lat":"13.716667","lng":"-15.016667"},{"country":"GM","name":"Hamdalai","lat":"13.716667","lng":"-15.016667"},{"country":"GM","name":"Medina","lat":"13.733333","lng":"-15.283333"},{"country":"GM","name":"Bulgurk","lat":"13.75","lng":"-15.283333"},{"country":"GM","name":"Bulghurk","lat":"13.75","lng":"-15.283333"},{"country":"GM","name":"Jaggli","lat":"13.75","lng":"-15.25"},{"country":"GM","name":"Sare Galaja","lat":"13.683333","lng":"-15.233333"},{"country":"GM","name":"Bantanta","lat":"13.7","lng":"-15.25"},{"country":"GM","name":"Bantanto","lat":"13.7","lng":"-15.25"},{"country":"GM","name":"Bantanto Ebrima Kah","lat":"13.7","lng":"-15.25"},{"country":"GM","name":"Misera Fafa Jow","lat":"13.7","lng":"-15.233333"},{"country":"GM","name":"Batti N\u2019Dau","lat":"13.7","lng":"-15.2"},{"country":"GM","name":"Bati N\u2019Da","lat":"13.7","lng":"-15.2"},{"country":"GM","name":"Sare Ram","lat":"13.5","lng":"-14.933333"},{"country":"GM","name":"Madina","lat":"13.533333","lng":"-14.95"},{"country":"GM","name":"Manna","lat":"13.533333","lng":"-14.95"},{"country":"GM","name":"Brekana","lat":"13.533333","lng":"-14.933333"},{"country":"GM","name":"Brikama","lat":"13.533333","lng":"-14.933333"},{"country":"GM","name":"Misira","lat":"13.55","lng":"-14.95"},{"country":"GM","name":"Willingara","lat":"13.55","lng":"-14.933333"},{"country":"GM","name":"Fas","lat":"13.466667","lng":"-14.916667"},{"country":"GM","name":"Anulie","lat":"13.466667","lng":"-14.916667"},{"country":"GM","name":"Sare Jabel","lat":"13.466667","lng":"-14.916667"},{"country":"GM","name":"Taiba","lat":"13.466667","lng":"-14.9"},{"country":"GM","name":"Sare Boutie","lat":"13.466667","lng":"-14.9"},{"country":"GM","name":"Banni","lat":"13.55","lng":"-14.733333"},{"country":"GM","name":"Demba Kale","lat":"13.583333","lng":"-14.65"},{"country":"GM","name":"Karantaba","lat":"13.55","lng":"-14.566667"},{"country":"GM","name":"Tasali","lat":"13.566667","lng":"-14.616667"},{"country":"GM","name":"Wellingara Mansak","lat":"13.25","lng":"-14.366667"},{"country":"GM","name":"Gambissara Jawo","lat":"13.25","lng":"-14.3"},{"country":"GM","name":"Morbugu","lat":"13.25","lng":"-14.266667"},{"country":"GM","name":"Sare Pateh Jameh","lat":"13.266667","lng":"-14.433333"},{"country":"GM","name":"Barrakunda","lat":"13.483333","lng":"-14.116667"},{"country":"GM","name":"Fatotenda","lat":"13.45","lng":"-14.066667"},{"country":"GM","name":"Manor Koto","lat":"13.5","lng":"-14.116667"},{"country":"GM","name":"Tabajan","lat":"13.533333","lng":"-14.083333"},{"country":"GM","name":"Banjul","lat":"13.453056","lng":"-16.5775"},{"country":"GM","name":"Bathurst","lat":"13.453056","lng":"-16.5775"},{"country":"GM","name":"Kubune","lat":"13.324167","lng":"-16.605278"},{"country":"GM","name":"Gallo-ya","lat":"13.331111","lng":"-16.6175"},{"country":"GM","name":"Mukumbay\u0101","lat":"13.331667","lng":"-16.625278"},{"country":"GM","name":"Makumbay\u0101","lat":"13.331667","lng":"-16.625278"},{"country":"GM","name":"Kunkujan Jataya","lat":"13.347222","lng":"-16.600556"},{"country":"GM","name":"Nyofellah Madina","lat":"13.225833","lng":"-16.709167"},{"country":"GM","name":"Nyofellah Manjago","lat":"13.233333","lng":"-16.7"},{"country":"GM","name":"Manduari","lat":"13.245556","lng":"-16.636944"},{"country":"GM","name":"Central Kombo","lat":"13.25","lng":"-16.666667"},{"country":"GM","name":"Kombo Central","lat":"13.25","lng":"-16.666667"},{"country":"GM","name":"Jallow Kunda","lat":"13.250833","lng":"-16.638889"},{"country":"GM","name":"Janweley","lat":"13.250833","lng":"-16.638889"},{"country":"GM","name":"Jamweley","lat":"13.250833","lng":"-16.638889"},{"country":"GM","name":"Jiboroh","lat":"13.179444","lng":"-16.576111"},{"country":"GM","name":"Jiboroh","lat":"13.188333","lng":"-16.573611"},{"country":"GM","name":"Ker Mod Hali","lat":"13.75","lng":"-15.233333"},{"country":"GM","name":"Ker Mod","lat":"13.75","lng":"-15.233333"},{"country":"GM","name":"Nianija","lat":"13.75","lng":"-15.216667"},{"country":"GM","name":"Willingara","lat":"13.733333","lng":"-15.15"},{"country":"GM","name":"N\u2019Jau","lat":"13.733333","lng":"-15.15"},{"country":"GM","name":"Leba","lat":"13.75","lng":"-15.166667"},{"country":"GM","name":"Sare Yoro Taker","lat":"13.466667","lng":"-14.866667"},{"country":"GM","name":"Sare Yoro Takor","lat":"13.466667","lng":"-14.866667"},{"country":"GM","name":"Sare Balla","lat":"13.466667","lng":"-14.85"},{"country":"GM","name":"Sare Yoro Tako","lat":"13.466667","lng":"-14.85"},{"country":"GM","name":"Sare Yewtu","lat":"13.483333","lng":"-14.883333"},{"country":"GM","name":"Madina Alpha","lat":"13.483333","lng":"-14.883333"},{"country":"GM","name":"Sabu Sirde","lat":"13.5","lng":"-14.883333"},{"country":"GM","name":"Mankajang","lat":"13.5","lng":"-14.866667"},{"country":"GM","name":"Madina","lat":"13.5","lng":"-14.866667"},{"country":"GM","name":"Pachari Sana","lat":"13.5","lng":"-14.85"},{"country":"GM","name":"Patchari Sana","lat":"13.5","lng":"-14.85"},{"country":"GM","name":"Patchari","lat":"13.5","lng":"-14.85"},{"country":"GM","name":"Kerewan","lat":"13.516667","lng":"-14.9"},{"country":"GM","name":"Sepu","lat":"13.55","lng":"-14.9"},{"country":"GM","name":"Karantaba Wolloff","lat":"13.566667","lng":"-14.566667"},{"country":"GM","name":"Karantaba","lat":"13.566667","lng":"-14.566667"},{"country":"GM","name":"Kerewan Duto Koto","lat":"13.583333","lng":"-14.566667"},{"country":"GM","name":"Fitu","lat":"13.6","lng":"-14.7"},{"country":"GM","name":"Joli Kah","lat":"13.616667","lng":"-14.666667"},{"country":"GM","name":"Demfai","lat":"13.616667","lng":"-14.65"},{"country":"GM","name":"Sami Fati","lat":"13.616667","lng":"-14.633333"},{"country":"GM","name":"Nema","lat":"13.65","lng":"-14.833333"},{"country":"GM","name":"Bakadaji","lat":"13.65","lng":"-14.833333"},{"country":"GM","name":"Wassadung","lat":"13.3","lng":"-14.45"},{"country":"GM","name":"Sambel Kunda","lat":"13.283333","lng":"-14.383333"},{"country":"GM","name":"Yarry Njoffa","lat":"13.283333","lng":"-14.383333"},{"country":"GM","name":"Bakadaji","lat":"13.3","lng":"-14.383333"},{"country":"GM","name":"Yorubawal","lat":"13.433333","lng":"-14.216667"},{"country":"GM","name":"Sutuko","lat":"13.5","lng":"-14.016667"},{"country":"GM","name":"Dembo Kumbel","lat":"13.466667","lng":"-13.85"},{"country":"GM","name":"Demba Koumbel","lat":"13.466667","lng":"-13.85"},{"country":"GM","name":"Fode Kounda","lat":"13.5","lng":"-13.933333"},{"country":"GM","name":"Bakau Kunku","lat":"13.324444","lng":"-16.800833"},{"country":"GM","name":"Karewan","lat":"13.368333","lng":"-16.625833"},{"country":"GM","name":"Kafuta Tubung","lat":"13.174167","lng":"-16.460556"},{"country":"GM","name":"Faraba Sutu","lat":"13.203333","lng":"-16.484444"},{"country":"GM","name":"Penjemu","lat":"13.216667","lng":"-16.626667"},{"country":"GM","name":"Bassori","lat":"13.225556","lng":"-16.591944"},{"country":"GM","name":"Sidiya","lat":"13.236944","lng":"-16.620556"},{"country":"GM","name":"Kambuji","lat":"13.254444","lng":"-16.595556"},{"country":"GM","name":"Dankunko","lat":"13.566667","lng":"-15.316667"},{"country":"GM","name":"Dunkunku Niamina","lat":"13.583333","lng":"-15.333333"},{"country":"GM","name":"Dankunku Niamina","lat":"13.583333","lng":"-15.333333"},{"country":"GM","name":"Jallakotto","lat":"13.633333","lng":"-15.316667"},{"country":"GM","name":"Same","lat":"13.633333","lng":"-15.316667"},{"country":"GM","name":"Jallo Koto","lat":"13.633333","lng":"-15.316667"},{"country":"GM","name":"Jakotto","lat":"13.65","lng":"-15.316667"},{"country":"GM","name":"Pignai","lat":"13.55","lng":"-15.283333"},{"country":"GM","name":"Piniai","lat":"13.55","lng":"-15.283333"},{"country":"GM","name":"Willingara","lat":"13.35","lng":"-14.65"},{"country":"GM","name":"Sara Debo","lat":"13.35","lng":"-14.65"},{"country":"GM","name":"Galleh Jollof","lat":"13.433333","lng":"-14.8"},{"country":"GM","name":"Galleh Jolloff","lat":"13.433333","lng":"-14.8"},{"country":"GM","name":"Manda","lat":"13.433333","lng":"-14.783333"},{"country":"GM","name":"Madina Tujeng","lat":"13.433333","lng":"-14.75"},{"country":"GM","name":"Madina Demba","lat":"13.433333","lng":"-14.75"},{"country":"GM","name":"Belal","lat":"13.366667","lng":"-14.65"},{"country":"GM","name":"Kuiran","lat":"13.666667","lng":"-14.833333"},{"country":"GM","name":"Sinchu Garba","lat":"13.666667","lng":"-14.833333"},{"country":"GM","name":"Kataba","lat":"13.683333","lng":"-14.816667"},{"country":"GM","name":"Kattaba","lat":"13.683333","lng":"-14.816667"},{"country":"GM","name":"N\u2019Baien","lat":"13.716667","lng":"-14.816667"},{"country":"GM","name":"Sare Saouma","lat":"13.633333","lng":"-14.65"},{"country":"GM","name":"Sare Saoma","lat":"13.633333","lng":"-14.65"},{"country":"GM","name":"Darsilame Ker Koro","lat":"13.266667","lng":"-14.15"},{"country":"GM","name":"Darsilane Ker Koro","lat":"13.266667","lng":"-14.15"},{"country":"GM","name":"Tuba","lat":"13.283333","lng":"-14.15"},{"country":"GM","name":"Banenko","lat":"13.283333","lng":"-14.133333"},{"country":"GM","name":"Wallikunda","lat":"13.533333","lng":"-13.933333"},{"country":"GM","name":"Basse","lat":"13.316667","lng":"-14.216667"},{"country":"GM","name":"Basse Santa Su","lat":"13.316667","lng":"-14.216667"},{"country":"GM","name":"Banna Tenda","lat":"13.383333","lng":"-14.483333"},{"country":"GM","name":"Timbinto","lat":"13.383333","lng":"-14.466667"},{"country":"GM","name":"Niankwi","lat":"13.433333","lng":"-14.483333"},{"country":"GM","name":"Niani Kunda","lat":"13.433333","lng":"-14.483333"},{"country":"GM","name":"N\u2019Jagga Jarry","lat":"13.416667","lng":"-14.483333"},{"country":"GM","name":"Tanjen","lat":"13.348889","lng":"-16.790833"},{"country":"GM","name":"Tanje","lat":"13.348889","lng":"-16.790833"},{"country":"GM","name":"Suma Kunda","lat":"13.226667","lng":"-16.493333"},{"country":"GM","name":"Saniang","lat":"13.266667","lng":"-16.760556"},{"country":"GM","name":"Brikama","lat":"13.2675","lng":"-16.646111"},{"country":"GM","name":"Fula Kulda","lat":"13.269167","lng":"-16.631111"},{"country":"GM","name":"Faraba Bantang","lat":"13.261389","lng":"-16.52"},{"country":"GM","name":"Ngayene","lat":"13.4","lng":"-14.733333"},{"country":"GM","name":"Chargel","lat":"13.45","lng":"-14.55"},{"country":"GM","name":"Tandi Wolloff","lat":"13.516667","lng":"-14.55"},{"country":"GM","name":"Tende","lat":"13.533333","lng":"-14.55"},{"country":"GM","name":"Mandingo","lat":"13.533333","lng":"-14.55"},{"country":"GM","name":"Sinchu Ousman","lat":"13.616667","lng":"-14.55"},{"country":"GM","name":"Runeru","lat":"13.633333","lng":"-14.55"},{"country":"GM","name":"Georgetown","lat":"13.533333","lng":"-14.766667"},{"country":"GM","name":"Old Fort George","lat":"13.533333","lng":"-14.766667"},{"country":"GM","name":"Sare Adama","lat":"13.45","lng":"-14.883333"},{"country":"GM","name":"Sinchu Kusalang","lat":"13.45","lng":"-14.866667"},{"country":"GM","name":"Sare Maundeh","lat":"13.45","lng":"-14.866667"},{"country":"GM","name":"Dinguirin","lat":"13.283333","lng":"-14.066667"},{"country":"GM","name":"Fula Kunda","lat":"13.283333","lng":"-14.066667"},{"country":"GM","name":"Dinguirin","lat":"13.3","lng":"-14.066667"},{"country":"GM","name":"Samantalu","lat":"13.3","lng":"-14.066667"},{"country":"GM","name":"Njarinjota","lat":"13.3","lng":"-14.016667"},{"country":"GM","name":"Njarinjofa","lat":"13.3","lng":"-14.016667"},{"country":"GM","name":"Darsilame","lat":"13.333333","lng":"-14.066667"},{"country":"GM","name":"Ndimo","lat":"13.333333","lng":"-14.033333"},{"country":"GM","name":"Keralima","lat":"13.466667","lng":"-14.483333"},{"country":"GM","name":"Medina","lat":"13.45","lng":"-14.483333"},{"country":"GM","name":"Demba Waddu","lat":"13.5","lng":"-14.466667"},{"country":"GM","name":"Santanto-Koto","lat":"13.383333","lng":"-14.533333"},{"country":"GM","name":"Santanto Kuta","lat":"13.383333","lng":"-14.533333"},{"country":"GM","name":"Sare Bojo","lat":"13.316667","lng":"-14.533333"},{"country":"GM","name":"Sare Boja Demmo","lat":"13.316667","lng":"-14.533333"},{"country":"GM","name":"Sare Bakare","lat":"13.316667","lng":"-14.516667"},{"country":"GM","name":"Busure","lat":"13.316667","lng":"-14.5"},{"country":"GM","name":"Turu Kunda","lat":"13.333333","lng":"-14.516667"},{"country":"GM","name":"Sukuto","lat":"13.411389","lng":"-16.708889"},{"country":"GM","name":"Sabiji","lat":"13.411389","lng":"-16.708889"},{"country":"GM","name":"Sukutta","lat":"13.411389","lng":"-16.708889"},{"country":"GM","name":"Amdulai","lat":"13.431944","lng":"-16.7225"},{"country":"GM","name":"Sarin N\u2019Jaga","lat":"13.431944","lng":"-16.7225"},{"country":"GM","name":"Ker Serigne Njaga","lat":"13.431944","lng":"-16.7225"},{"country":"GM","name":"Amdulay","lat":"13.431944","lng":"-16.7225"},{"country":"GM","name":"Batori Sateh","lat":"13.153056","lng":"-16.778889"},{"country":"GM","name":"Somita","lat":"13.216667","lng":"-16.3"},{"country":"GM","name":"Sami","lat":"13.533333","lng":"-14.466667"},{"country":"GM","name":"Sam\u00e9","lat":"13.533333","lng":"-14.466667"},{"country":"GM","name":"Sam\u00e9","lat":"13.55","lng":"-14.516667"},{"country":"GM","name":"Sami","lat":"13.55","lng":"-14.516667"},{"country":"GM","name":"N\u2019Jalal","lat":"13.616667","lng":"-14.5"},{"country":"GM","name":"Jallal","lat":"13.616667","lng":"-14.5"},{"country":"GM","name":"Baiaba","lat":"13.5","lng":"-14.5"},{"country":"GM","name":"Niani Baia","lat":"13.5","lng":"-14.5"},{"country":"GM","name":"Sofi Kunda","lat":"13.416667","lng":"-14.516667"},{"country":"GM","name":"Momodu Kunda","lat":"13.333333","lng":"-14.266667"},{"country":"GM","name":"Salikenye","lat":"13.35","lng":"-14.016667"},{"country":"GM","name":"Fula","lat":"13.35","lng":"-14.016667"},{"country":"GM","name":"Mandingko","lat":"13.35","lng":"-14.016667"},{"country":"GM","name":"Gembissara","lat":"13.316667","lng":"-13.95"},{"country":"GM","name":"Sandefu","lat":"13.333333","lng":"-13.95"},{"country":"GM","name":"Tiembasisi","lat":"13.383333","lng":"-14.166667"},{"country":"GM","name":"Tambasansan","lat":"13.383333","lng":"-14.166667"},{"country":"GM","name":"Findofato","lat":"13.383333","lng":"-14.116667"},{"country":"GM","name":"Tuba Kata","lat":"13.366667","lng":"-14"},{"country":"GM","name":"Numu Kunda","lat":"13.333333","lng":"-14.5"},{"country":"GM","name":"Koro Numa Kunda","lat":"13.333333","lng":"-14.5"},{"country":"GM","name":"Sare Amady Jebel","lat":"13.316667","lng":"-14.55"},{"country":"GM","name":"Sare Bohum","lat":"13.55","lng":"-13.95"},{"country":"GM","name":"Bolum","lat":"13.566667","lng":"-13.933333"},{"country":"GM","name":"Baijana","lat":"13.186944","lng":"-16.398333"},{"country":"GM","name":"Kajabina","lat":"13.170278","lng":"-16.3225"},{"country":"GM","name":"Niambalon","lat":"13.171111","lng":"-16.253333"},{"country":"GM","name":"Waliba Kunda","lat":"13.366667","lng":"-14.016667"},{"country":"GM","name":"Priakunda","lat":"13.383333","lng":"-14.033333"},{"country":"GM","name":"Pirai","lat":"13.383333","lng":"-14.033333"},{"country":"GM","name":"Yamadu","lat":"13.416667","lng":"-14.133333"},{"country":"GM","name":"Jaha","lat":"13.416667","lng":"-14.116667"},{"country":"GM","name":"Dramane","lat":"13.433333","lng":"-14.116667"},{"country":"GM","name":"Barajali Kunda","lat":"13.4","lng":"-14"},{"country":"GM","name":"Jambanjeli","lat":"13.280278","lng":"-16.729444"},{"country":"GM","name":"Faarla","lat":"13.284722","lng":"-16.764444"},{"country":"GM","name":"Farato","lat":"13.315","lng":"-16.665"},{"country":"GM","name":"Old-Busumbala","lat":"13.339167","lng":"-16.6875"},{"country":"GM","name":"Sito","lat":"13.183611","lng":"-16.6975"},{"country":"GM","name":"Sifa","lat":"13.183611","lng":"-16.6975"},{"country":"GM","name":"N\u2019Demban","lat":"13.207778","lng":"-16.345278"},{"country":"GM","name":"Demban","lat":"13.207778","lng":"-16.345278"},{"country":"GM","name":"Kaie","lat":"13.207778","lng":"-16.345278"},{"country":"GM","name":"Bita","lat":"13.190556","lng":"-16.2875"},{"country":"GM","name":"Beeta","lat":"13.190556","lng":"-16.2875"},{"country":"GM","name":"Kandong","lat":"13.245","lng":"-16.313611"},{"country":"GM","name":"Bottending","lat":"13.256667","lng":"-16.317778"},{"country":"GM","name":"Battending","lat":"13.256667","lng":"-16.317778"},{"country":"GM","name":"Batending","lat":"13.256667","lng":"-16.317778"},{"country":"GM","name":"Elol","lat":"13.25","lng":"-16.267222"},{"country":"GM","name":"Pacholi","lat":"13.286944","lng":"-16.754167"},{"country":"GM","name":"Busumbata","lat":"13.333056","lng":"-16.670833"},{"country":"GM","name":"Janeck","lat":"13.166667","lng":"-16.233333"},{"country":"GM","name":"Batena","lat":"13.181944","lng":"-16.216389"},{"country":"GM","name":"Burelai","lat":"13.192222","lng":"-16.237222"},{"country":"GM","name":"Bullelai","lat":"13.192222","lng":"-16.237222"},{"country":"GM","name":"Kassang","lat":"13.231944","lng":"-16.229722"},{"country":"GM","name":"Vintang","lat":"13.249722","lng":"-16.214167"},{"country":"GM","name":"Pacholi","lat":"13.290556","lng":"-16.747778"},{"country":"GM","name":"Pacholi","lat":"13.295833","lng":"-16.746944"},{"country":"GM","name":"Yumdum","lat":"13.3625","lng":"-16.686111"},{"country":"GM","name":"Yundum","lat":"13.3625","lng":"-16.686111"},{"country":"GM","name":"Yundun","lat":"13.3625","lng":"-16.686111"},{"country":"GM","name":"Shindifulla","lat":"13.233333","lng":"-16.1"},{"country":"GM","name":"Kaffenkeng","lat":"13.183333","lng":"-16"},{"country":"GM","name":"Kawali","lat":"13.2","lng":"-16"},{"country":"GM","name":"Sanya Kunda","lat":"13.166667","lng":"-15.9"},{"country":"GM","name":"Bakotti","lat":"13.43","lng":"-16.698333"},{"country":"GM","name":"Bakoteh","lat":"13.43","lng":"-16.698333"}]