[{"country":"GT","name":"San Bartolo","lat":"15.133333","lng":"-91.416667"},{"country":"GT","name":"Pochuta","lat":"14.55","lng":"-91.083333"},{"country":"GT","name":"San Sebasti\u00e1n Huehuetenango","lat":"15.383333","lng":"-91.583333"},{"country":"GT","name":"San Sebasti\u00e1n Coat\u00e1n","lat":"15.733333","lng":"-91.566667"},{"country":"GT","name":"San Sebasti\u00e1n","lat":"14.566667","lng":"-91.65"},{"country":"GT","name":"San Carlos Sija","lat":"14.983333","lng":"-91.55"},{"country":"GT","name":"San Carlos Alzatate","lat":"14.5","lng":"-90.05"},{"country":"GT","name":"Esquipulas","lat":"14.566667","lng":"-89.35"},{"country":"GT","name":"San Crist\u00f3bal Cucho","lat":"14.9","lng":"-91.783333"},{"country":"GT","name":"San Crist\u00f3bal Acasaguastl\u00e1n","lat":"14.916667","lng":"-89.883333"},{"country":"GT","name":"San Juan La Laguna","lat":"14.7","lng":"-91.283333"},{"country":"GT","name":"San Juan Ermita","lat":"14.766667","lng":"-89.433333"},{"country":"GT","name":"Magdalena Milpas Altas","lat":"14.55","lng":"-90.683333"},{"country":"GT","name":"Jocotenango","lat":"14.583333","lng":"-90.733333"},{"country":"GT","name":"Sibinal","lat":"15.133333","lng":"-92.05"},{"country":"GT","name":"San Pedro Ayampuc","lat":"14.783333","lng":"-90.45"},{"country":"GT","name":"San Pedro Sacatep\u00e9quez","lat":"14.683333","lng":"-90.65"},{"country":"GT","name":"San Pedro Pinula","lat":"14.666667","lng":"-89.85"},{"country":"GT","name":"San Pedro Necta","lat":"15.5","lng":"-91.766667"},{"country":"GT","name":"San Pedro La Laguna","lat":"14.683333","lng":"-91.266667"},{"country":"GT","name":"San Pedro Jocopilas","lat":"15.116667","lng":"-91.116667"},{"country":"GT","name":"Oratorio","lat":"14.233333","lng":"-90.166667"},{"country":"GT","name":"Olintepeque","lat":"14.883333","lng":"-91.516667"},{"country":"GT","name":"San Raimundo","lat":"14.766667","lng":"-90.6"},{"country":"GT","name":"El Quetzal","lat":"14.766667","lng":"-91.816667"},{"country":"GT","name":"Santa Mar\u00eda Visitaci\u00f3n","lat":"14.716667","lng":"-91.316667"},{"country":"GT","name":"Nuevo Progreso","lat":"14.8","lng":"-91.916667"},{"country":"GT","name":"Jalapa","lat":"14.633333","lng":"-89.983333"},{"country":"GT","name":"Iztapa","lat":"13.933333","lng":"-90.716667"},{"country":"GT","name":"El Tejar","lat":"14.65","lng":"-90.783333"},{"country":"GT","name":"San Mateo Ixtat\u00e1n","lat":"15.833333","lng":"-91.483333"},{"country":"GT","name":"San Mateo","lat":"14.866667","lng":"-91.6"},{"country":"GT","name":"San Mart\u00edn Sacatep\u00e9quez","lat":"14.816667","lng":"-91.65"},{"country":"GT","name":"Salcaj\u00e1","lat":"14.883333","lng":"-91.45"},{"country":"GT","name":"San Vicente Pacaya","lat":"14.416667","lng":"-90.633333"},{"country":"GT","name":"Petapa","lat":"14.5","lng":"-90.566667"},{"country":"GT","name":"San Miguel Pan\u00e1n","lat":"14.533333","lng":"-91.366667"},{"country":"GT","name":"San Agust\u00edn Acasaguastl\u00e1n","lat":"14.95","lng":"-89.966667"},{"country":"GT","name":"Totonicap\u00e1n","lat":"14.916667","lng":"-91.366667"},{"country":"GT","name":"Ixchigu\u00e1n","lat":"15.2","lng":"-91.883333"},{"country":"GT","name":"Chajul","lat":"15.5","lng":"-91.033333"},{"country":"GT","name":"Santa Cruz Mulu\u00e1","lat":"14.583333","lng":"-91.616667"},{"country":"GT","name":"Santa Clara La Laguna","lat":"14.716667","lng":"-91.3"},{"country":"GT","name":"Purulh\u00e1","lat":"15.266667","lng":"-90.2"},{"country":"GT","name":"Estanzuela","lat":"15","lng":"-89.566667"},{"country":"GT","name":"Pal\u00edn","lat":"14.4","lng":"-90.7"},{"country":"GT","name":"San Gaspar Ixchil","lat":"15.383333","lng":"-91.716667"},{"country":"GT","name":"San Francisco Zapotitl\u00e1n","lat":"14.583333","lng":"-91.516667"},{"country":"GT","name":"San Francisco La Uni\u00f3n","lat":"14.916667","lng":"-91.533333"},{"country":"GT","name":"Quesada","lat":"14.266667","lng":"-90.05"},{"country":"GT","name":"Palencia","lat":"14.666667","lng":"-90.35"},{"country":"GT","name":"Mataquescuintla","lat":"14.533333","lng":"-90.183333"},{"country":"GT","name":"Masagua","lat":"14.2","lng":"-90.85"},{"country":"GT","name":"Villa Nueva","lat":"14.516667","lng":"-90.583333"},{"country":"GT","name":"Soloma","lat":"15.716667","lng":"-91.45"},{"country":"GT","name":"Santa Catarina Pinula","lat":"14.566667","lng":"-90.5"},{"country":"GT","name":"Santa Catarina Barahona","lat":"14.55","lng":"-90.783333"},{"country":"GT","name":"Santa B\u00e1rbara","lat":"15.316667","lng":"-91.616667"},{"country":"GT","name":"San Crist\u00f3bal Verapaz","lat":"15.383333","lng":"-90.4"},{"country":"GT","name":"San Crist\u00f3bal Totonicap\u00e1n","lat":"14.916667","lng":"-91.433333"},{"country":"GT","name":"Pueblo Nuevo Vi\u00f1as","lat":"14.233333","lng":"-90.483333"},{"country":"GT","name":"Pueblo Nuevo","lat":"14.65","lng":"-91.533333"},{"country":"GT","name":"San Juan Bautista","lat":"14.416667","lng":"-91.183333"},{"country":"GT","name":"San Juan Atit\u00e1n","lat":"15.433333","lng":"-91.633333"},{"country":"GT","name":"Patzic\u00eda","lat":"14.633333","lng":"-90.933333"},{"country":"GT","name":"Ostuncalco","lat":"14.866667","lng":"-91.616667"},{"country":"GT","name":"Uspant\u00e1n","lat":"15.383333","lng":"-90.833333"},{"country":"GT","name":"La Democracia","lat":"15.566667","lng":"-91.866667"},{"country":"GT","name":"La Democracia","lat":"14.233333","lng":"-90.95"},{"country":"GT","name":"La Libertad","lat":"16.783333","lng":"-90.116667"},{"country":"GT","name":"San Pablo La Laguna","lat":"14.716667","lng":"-91.266667"},{"country":"GT","name":"San Pablo","lat":"14.933333","lng":"-92"},{"country":"GT","name":"Jerez","lat":"14.1","lng":"-89.75"},{"country":"GT","name":"San Andr\u00e9s Semetabaj","lat":"14.75","lng":"-91.133333"},{"country":"GT","name":"San Andr\u00e9s Sajcabaj\u00e1","lat":"15.216667","lng":"-90.916667"},{"country":"GT","name":"San Antonio Huista","lat":"15.65","lng":"-91.766667"},{"country":"GT","name":"San Rafael Las Flores","lat":"14.466667","lng":"-90.183333"},{"country":"GT","name":"San Bernardino","lat":"14.533333","lng":"-91.45"},{"country":"GT","name":"San Bartolom\u00e9 Milpas Altas","lat":"14.6","lng":"-90.683333"},{"country":"GT","name":"Monjas","lat":"14.5","lng":"-89.866667"},{"country":"GT","name":"Momostenango","lat":"15.066667","lng":"-91.4"},{"country":"GT","name":"San Jos\u00e9 La Arada","lat":"14.716667","lng":"-89.583333"},{"country":"GT","name":"Ixtahuac\u00e1n","lat":"15.416667","lng":"-91.766667"},{"country":"GT","name":"Senah\u00fa","lat":"15.4","lng":"-89.833333"},{"country":"GT","name":"San Miguel Chicaj","lat":"15.1","lng":"-90.316667"},{"country":"GT","name":"San Andr\u00e9s","lat":"16.966667","lng":"-89.916667"},{"country":"GT","name":"Samayac","lat":"14.583333","lng":"-91.466667"},{"country":"GT","name":"Chahal","lat":"15.75","lng":"-89.566667"},{"country":"GT","name":"L\u00edvingston","lat":"15.833333","lng":"-88.75"},{"country":"GT","name":"San Luis","lat":"16.233333","lng":"-89.45"},{"country":"GT","name":"San Marcos","lat":"14.966667","lng":"-91.8"},{"country":"GT","name":"Comapa","lat":"14.116667","lng":"-89.916667"},{"country":"GT","name":"Colotenango","lat":"15.416667","lng":"-91.716667"},{"country":"GT","name":"Santa Cruz Balany\u00e1","lat":"14.683333","lng":"-90.916667"},{"country":"GT","name":"San Felipe","lat":"14.616667","lng":"-91.6"},{"country":"GT","name":"Flores Costa Cuca","lat":"14.65","lng":"-91.816667"},{"country":"GT","name":"Flores","lat":"16.933333","lng":"-89.883333"},{"country":"GT","name":"San Francisco El Alto","lat":"14.95","lng":"-91.45"},{"country":"GT","name":"Tacan\u00e1","lat":"15.233333","lng":"-92.083333"},{"country":"GT","name":"La Uni\u00f3n","lat":"14.966667","lng":"-89.283333"},{"country":"GT","name":"Mazatenango","lat":"14.533333","lng":"-91.5"},{"country":"GT","name":"Nent\u00f3n","lat":"15.8","lng":"-91.75"},{"country":"GT","name":"La Esperanza","lat":"14.866667","lng":"-91.566667"},{"country":"GT","name":"Zunilito","lat":"14.616667","lng":"-91.516667"},{"country":"GT","name":"Pajapita","lat":"14.716667","lng":"-92.033333"},{"country":"GT","name":"Chich\u00e9","lat":"15.033333","lng":"-91.066667"},{"country":"GT","name":"Cuilco","lat":"15.4","lng":"-91.966667"},{"country":"GT","name":"Cuilapa","lat":"14.283333","lng":"-90.3"},{"country":"GT","name":"San Lorenzo","lat":"15.033333","lng":"-91.733333"},{"country":"GT","name":"San Lorenzo","lat":"14.483333","lng":"-91.516667"},{"country":"GT","name":"San Juan Tecuaco","lat":"14.083333","lng":"-90.266667"},{"country":"GT","name":"Patzit\u00e9","lat":"14.966667","lng":"-91.216667"},{"country":"GT","name":"Guatemala","lat":"14.633333","lng":"-90.516667"},{"country":"GT","name":"San Jos\u00e9 del Golfo","lat":"14.75","lng":"-90.366667"},{"country":"GT","name":"Parramos","lat":"14.616667","lng":"-90.8"},{"country":"GT","name":"Pastores","lat":"14.6","lng":"-90.75"},{"country":"GT","name":"Morales","lat":"15.483333","lng":"-88.816667"},{"country":"GT","name":"Cantel","lat":"14.816667","lng":"-91.45"},{"country":"GT","name":"Concepci\u00f3n Tutuapa","lat":"15.283333","lng":"-91.783333"},{"country":"GT","name":"San Jer\u00f3nimo","lat":"15.05","lng":"-90.2"},{"country":"GT","name":"El Progreso","lat":"14.85","lng":"-90.066667"},{"country":"GT","name":"El Progreso","lat":"14.35","lng":"-89.85"},{"country":"GT","name":"Taxisco","lat":"14.066667","lng":"-90.466667"},{"country":"GT","name":"Santa Mar\u00eda Chiquimula","lat":"15.016667","lng":"-91.3"},{"country":"GT","name":"San Jos\u00e9 Chacay\u00e1","lat":"14.766667","lng":"-91.216667"},{"country":"GT","name":"San Jos\u00e9","lat":"13.916667","lng":"-90.816667"},{"country":"GT","name":"San Jacinto","lat":"14.666667","lng":"-89.5"},{"country":"GT","name":"Mixco","lat":"14.633333","lng":"-90.6"},{"country":"GT","name":"Camot\u00e1n","lat":"14.816667","lng":"-89.366667"},{"country":"GT","name":"Chimaltenango","lat":"14.666667","lng":"-90.816667"},{"country":"GT","name":"Ciudad Vieja","lat":"14.516667","lng":"-90.766667"},{"country":"GT","name":"Ayutla","lat":"14.666667","lng":"-92.15"},{"country":"GT","name":"Chinique","lat":"15.083333","lng":"-91.033333"},{"country":"GT","name":"Cajol\u00e1","lat":"14.916667","lng":"-91.616667"},{"country":"GT","name":"Cahab\u00f3n","lat":"15.566667","lng":"-89.816667"},{"country":"GT","name":"Atescatempa","lat":"14.183333","lng":"-89.733333"},{"country":"GT","name":"El Rodeo","lat":"14.916667","lng":"-91.966667"},{"country":"GT","name":"Santiago Sacatep\u00e9quez","lat":"14.633333","lng":"-90.683333"},{"country":"GT","name":"San Lucas Sacatep\u00e9quez","lat":"14.616667","lng":"-90.666667"},{"country":"GT","name":"Nahual\u00e1","lat":"14.85","lng":"-91.316667"},{"country":"GT","name":"Zacualpa","lat":"15.083333","lng":"-90.833333"},{"country":"GT","name":"Guanagazapa","lat":"14.233333","lng":"-90.65"},{"country":"GT","name":"R\u00edo Hondo","lat":"15.066667","lng":"-89.583333"},{"country":"GT","name":"Zapotitl\u00e1n","lat":"14.133333","lng":"-89.833333"},{"country":"GT","name":"Santiago Atitl\u00e1n","lat":"14.633333","lng":"-91.233333"},{"country":"GT","name":"Gual\u00e1n","lat":"15.133333","lng":"-89.366667"},{"country":"GT","name":"Retalhuleu","lat":"14.533333","lng":"-91.683333"},{"country":"GT","name":"Alotenango","lat":"14.483333","lng":"-90.8"},{"country":"GT","name":"Santa Luc\u00eda Milpas Altas","lat":"14.583333","lng":"-90.683333"},{"country":"GT","name":"Santa Luc\u00eda La Reforma","lat":"15.1","lng":"-91.283333"},{"country":"GT","name":"Rabinal","lat":"15.1","lng":"-90.45"},{"country":"GT","name":"Panz\u00f3s","lat":"15.4","lng":"-89.666667"},{"country":"GT","name":"Aguacat\u00e1n","lat":"15.35","lng":"-91.3"},{"country":"GT","name":"Canill\u00e1","lat":"15.183333","lng":"-90.816667"},{"country":"GT","name":"Barillas","lat":"15.8","lng":"-91.3"},{"country":"GT","name":"Dolores","lat":"16.516667","lng":"-89.416667"},{"country":"GT","name":"Chinautla","lat":"14.7","lng":"-90.5"},{"country":"GT","name":"Cuyotenango","lat":"14.533333","lng":"-91.566667"},{"country":"GT","name":"Guatemala","lat":"14.621111","lng":"-90.526944"},{"country":"GT","name":"Barberena","lat":"14.3","lng":"-90.366667"},{"country":"GT","name":"Cabric\u00e1n","lat":"15.133333","lng":"-91.616667"},{"country":"GT","name":"Chiquimulilla","lat":"14.083333","lng":"-90.383333"},{"country":"GT","name":"Todos Santos Cuchumat\u00e1n","lat":"15.516667","lng":"-91.616667"},{"country":"GT","name":"Huit\u00e9","lat":"14.933333","lng":"-89.716667"},{"country":"GT","name":"Huehuetenango","lat":"15.333333","lng":"-91.466667"},{"country":"GT","name":"Champerico","lat":"14.3","lng":"-91.916667"},{"country":"GT","name":"Tamah\u00fa","lat":"15.333333","lng":"-90.166667"},{"country":"GT","name":"Chicacao","lat":"14.533333","lng":"-91.316667"},{"country":"GT","name":"El J\u00edcaro","lat":"14.916667","lng":"-89.9"},{"country":"GT","name":"Caba\u00f1as","lat":"14.933333","lng":"-89.8"},{"country":"GT","name":"Chuarrancho","lat":"14.816667","lng":"-90.5"},{"country":"GT","name":"San Diego","lat":"14.783333","lng":"-89.783333"},{"country":"GT","name":"Solol\u00e1","lat":"14.666667","lng":"-91.25"},{"country":"GT","name":"Suchitep\u00e9quez","lat":"14.416667","lng":"-91.333333"},{"country":"GT","name":"Totonicap\u00e1n","lat":"15","lng":"-91.333333"},{"country":"GT","name":"Zacapa","lat":"15","lng":"-89.5"},{"country":"GT","name":"Alta Verapaz","lat":"15.666667","lng":"-90"},{"country":"GT","name":"Baja Verapaz","lat":"15.083333","lng":"-90.333333"},{"country":"GT","name":"Chimaltenango","lat":"14.666667","lng":"-90.916667"},{"country":"GT","name":"Chiquimula","lat":"14.666667","lng":"-89.416667"},{"country":"GT","name":"El Progreso","lat":"14.833333","lng":"-90"},{"country":"GT","name":"Escuintla","lat":"14.166667","lng":"-91"},{"country":"GT","name":"Guatemala","lat":"14.666667","lng":"-90.5"},{"country":"GT","name":"Huehuetenango","lat":"15.666667","lng":"-91.583333"},{"country":"GT","name":"Izabal","lat":"15.5","lng":"-89"},{"country":"GT","name":"Jalapa","lat":"14.583333","lng":"-89.916667"},{"country":"GT","name":"Jutiapa","lat":"14.166667","lng":"-89.833333"},{"country":"GT","name":"Pet\u00e9n","lat":"16.833333","lng":"-90"},{"country":"GT","name":"Quetzaltenango","lat":"14.75","lng":"-91.666667"},{"country":"GT","name":"Quich\u00e9","lat":"15.5","lng":"-90.916667"},{"country":"GT","name":"Retalhuleu","lat":"14.333333","lng":"-91.833333"},{"country":"GT","name":"Sacatep\u00e9quez","lat":"14.583333","lng":"-90.75"},{"country":"GT","name":"San Marcos","lat":"15","lng":"-91.916667"},{"country":"GT","name":"Santa Rosa","lat":"14.166667","lng":"-90.3"},{"country":"GT","name":"Cob\u00e1n","lat":"15.470833","lng":"-90.370833"},{"country":"GT","name":"Salam\u00e1","lat":"15.102778","lng":"-90.318056"},{"country":"GT","name":"Chimaltenango","lat":"14.661111","lng":"-90.819444"},{"country":"GT","name":"Chiquimula","lat":"14.8","lng":"-89.545833"},{"country":"GT","name":"Guastatoya","lat":"14.854167","lng":"-90.069444"},{"country":"GT","name":"Escuintla","lat":"14.305","lng":"-90.785"},{"country":"GT","name":"Huehuetenango","lat":"15.319722","lng":"-91.470833"},{"country":"GT","name":"Puerto Barrios","lat":"15.727778","lng":"-88.594444"},{"country":"GT","name":"Jalapa","lat":"14.634722","lng":"-89.988889"},{"country":"GT","name":"Jutiapa","lat":"14.291667","lng":"-89.895833"},{"country":"GT","name":"Flores","lat":"16.921667","lng":"-89.895278"},{"country":"GT","name":"Quetzaltenango","lat":"14.834722","lng":"-91.518056"},{"country":"GT","name":"Santa Cruz del Quich\u00e9","lat":"15.030556","lng":"-91.148889"},{"country":"GT","name":"Retalhuleu","lat":"14.536111","lng":"-91.677778"},{"country":"GT","name":"Antigua Guatemala","lat":"14.561111","lng":"-90.734444"},{"country":"GT","name":"San Marcos","lat":"14.963889","lng":"-91.794444"},{"country":"GT","name":"Cuilapa","lat":"14.276389","lng":"-90.298889"},{"country":"GT","name":"Solol\u00e1","lat":"14.772222","lng":"-91.183333"},{"country":"GT","name":"Mazatenango","lat":"14.534167","lng":"-91.503333"},{"country":"GT","name":"Totonicap\u00e1n","lat":"14.911667","lng":"-91.361111"},{"country":"GT","name":"Zacapa","lat":"14.972222","lng":"-89.530556"},{"country":"GT","name":"Tecp\u00e1n Guatemala","lat":"14.766667","lng":"-91"},{"country":"GT","name":"Santa Cruz Naranjo","lat":"14.383333","lng":"-90.366667"},{"country":"GT","name":"San Jos\u00e9 Pinula","lat":"14.55","lng":"-90.416667"},{"country":"GT","name":"San Jos\u00e9 Ojetenam","lat":"15.216667","lng":"-91.966667"},{"country":"GT","name":"Santa Mar\u00eda de Jes\u00fas","lat":"14.5","lng":"-90.716667"},{"country":"GT","name":"Cob\u00e1n","lat":"15.483333","lng":"-90.316667"},{"country":"GT","name":"San Antonio La Paz","lat":"14.75","lng":"-90.283333"},{"country":"GT","name":"San Juan Cotzal","lat":"15.433333","lng":"-91.016667"},{"country":"GT","name":"San Antonio Sacatep\u00e9quez","lat":"14.966667","lng":"-91.733333"},{"country":"GT","name":"Santa Luc\u00eda Utatl\u00e1n","lat":"14.766667","lng":"-91.266667"},{"country":"GT","name":"Jutiapa","lat":"14.283333","lng":"-89.9"},{"country":"GT","name":"Yupiltepeque","lat":"14.2","lng":"-89.783333"},{"country":"GT","name":"San Mart\u00edn Zapotitl\u00e1n","lat":"14.6","lng":"-91.6"},{"country":"GT","name":"Patulul","lat":"14.416667","lng":"-91.166667"},{"country":"GT","name":"Amatitl\u00e1n","lat":"14.483333","lng":"-90.616667"},{"country":"GT","name":"Cubulco","lat":"15.133333","lng":"-90.583333"},{"country":"GT","name":"R\u00edo Bravo","lat":"14.4","lng":"-91.316667"},{"country":"GT","name":"Santa Cruz La Laguna","lat":"14.75","lng":"-91.216667"},{"country":"GT","name":"Panajachel","lat":"14.733333","lng":"-91.15"},{"country":"GT","name":"Ipala","lat":"14.616667","lng":"-89.616667"},{"country":"GT","name":"Santa B\u00e1rbara","lat":"14.433333","lng":"-91.233333"},{"country":"GT","name":"Palestina de los Altos","lat":"14.933333","lng":"-91.7"},{"country":"GT","name":"Concepci\u00f3n Chiquirichapa","lat":"14.85","lng":"-91.616667"},{"country":"GT","name":"San Manuel Chaparr\u00f3n","lat":"14.516667","lng":"-89.766667"},{"country":"GT","name":"Santo Domingo Xenacoj","lat":"14.683333","lng":"-90.7"},{"country":"GT","name":"Santo Domingo Suchitep\u00e9quez","lat":"14.466667","lng":"-91.483333"},{"country":"GT","name":"San Miguel Acat\u00e1n","lat":"15.7","lng":"-91.616667"},{"country":"GT","name":"Cun\u00e9n","lat":"15.383333","lng":"-91.033333"},{"country":"GT","name":"Chiquimula","lat":"14.8","lng":"-89.55"},{"country":"GT","name":"Villa Canales","lat":"14.483333","lng":"-90.533333"},{"country":"GT","name":"Sipacapa","lat":"15.2","lng":"-91.666667"},{"country":"GT","name":"Santa Mar\u00eda Ixhuat\u00e1n","lat":"14.183333","lng":"-90.266667"},{"country":"GT","name":"San Jos\u00e9 El \u00cddolo","lat":"14.45","lng":"-91.416667"},{"country":"GT","name":"Concepci\u00f3n","lat":"14.783333","lng":"-91.15"},{"country":"GT","name":"San Juan Sacatep\u00e9quez","lat":"14.716667","lng":"-90.65"},{"country":"GT","name":"San Jos\u00e9 Acatempa","lat":"14.25","lng":"-90.133333"},{"country":"GT","name":"San Jos\u00e9","lat":"16.983333","lng":"-89.9"},{"country":"GT","name":"Popt\u00fan","lat":"16.35","lng":"-89.433333"},{"country":"GT","name":"Guazacap\u00e1n","lat":"14.066667","lng":"-90.416667"},{"country":"GT","name":"El Tumbador","lat":"14.866667","lng":"-91.933333"},{"country":"GT","name":"Zacapa","lat":"14.966667","lng":"-89.533333"},{"country":"GT","name":"Tejutla","lat":"15.116667","lng":"-91.8"},{"country":"GT","name":"R\u00edo Blanco","lat":"15.033333","lng":"-91.683333"},{"country":"GT","name":"Tiquisate","lat":"14.283333","lng":"-91.366667"},{"country":"GT","name":"San Juan Chamelco","lat":"15.433333","lng":"-90.283333"},{"country":"GT","name":"Comitancillo","lat":"15.083333","lng":"-91.716667"},{"country":"GT","name":"Santa Rosa de Lima","lat":"14.4","lng":"-90.3"},{"country":"GT","name":"Granados","lat":"14.916667","lng":"-90.516667"},{"country":"GT","name":"Olopa","lat":"14.683333","lng":"-89.35"},{"country":"GT","name":"Pasaco","lat":"13.983333","lng":"-90.2"},{"country":"GT","name":"Patz\u00fan","lat":"14.683333","lng":"-90.016667"},{"country":"GT","name":"Santa Eulalia","lat":"15.75","lng":"-91.483333"},{"country":"GT","name":"Santa Luc\u00eda Cotzumalguapa","lat":"14.333333","lng":"-91.016667"},{"country":"GT","name":"Zaragoza","lat":"14.65","lng":"-90.883333"},{"country":"GT","name":"Colomba","lat":"14.716667","lng":"-91.733333"},{"country":"GT","name":"La Libertad","lat":"15.5","lng":"-91.833333"},{"country":"GT","name":"San Pablo Jocopilas","lat":"14.583333","lng":"-91.45"},{"country":"GT","name":"Usumatl\u00e1n","lat":"14.95","lng":"-89.783333"},{"country":"GT","name":"Tucur\u00fa","lat":"15.3","lng":"-90.066667"},{"country":"GT","name":"San Miguel Due\u00f1as","lat":"14.516667","lng":"-90.8"},{"country":"GT","name":"Solol\u00e1","lat":"14.766667","lng":"-91.183333"},{"country":"GT","name":"Santa Catarina Mita","lat":"14.45","lng":"-89.75"},{"country":"GT","name":"El Chol","lat":"14.966667","lng":"-90.466667"},{"country":"GT","name":"Santiago Chimaltenango","lat":"15.466667","lng":"-91.716667"},{"country":"GT","name":"San Andr\u00e9s Villa Seca","lat":"14.566667","lng":"-91.583333"},{"country":"GT","name":"San Gabriel","lat":"14.516667","lng":"-91.516667"},{"country":"GT","name":"San Juan Ixcoy","lat":"15.6","lng":"-91.45"},{"country":"GT","name":"La Reforma","lat":"14.8","lng":"-91.816667"},{"country":"GT","name":"San Francisco","lat":"16.8","lng":"-89.933333"},{"country":"GT","name":"Asunci\u00f3n Mita","lat":"14.333333","lng":"-89.716667"},{"country":"GT","name":"Sacapulas","lat":"15.333333","lng":"-91.066667"},{"country":"GT","name":"Sanarate","lat":"14.783333","lng":"-90.2"},{"country":"GT","name":"San Antonio Palop\u00f3","lat":"14.7","lng":"-91.116667"},{"country":"GT","name":"Moraz\u00e1n","lat":"14.933333","lng":"-90.15"},{"country":"GT","name":"Yepocapa","lat":"14.5","lng":"-90.95"},{"country":"GT","name":"San Rafael Pie de La Cuesta","lat":"14.933333","lng":"-91.916667"},{"country":"GT","name":"San Benito","lat":"16.916667","lng":"-89.9"},{"country":"GT","name":"Santa Catarina Palop\u00f3","lat":"14.716667","lng":"-91.133333"},{"country":"GT","name":"Tactic","lat":"15.333333","lng":"-90.3"},{"country":"GT","name":"Catarina","lat":"14.85","lng":"-92.083333"},{"country":"GT","name":"San Rafael La Independencia","lat":"15.716667","lng":"-91.533333"},{"country":"GT","name":"Santa Apolonia","lat":"14.783333","lng":"-90.966667"},{"country":"GT","name":"Sibilia","lat":"15","lng":"-91.616667"},{"country":"GT","name":"Zunil","lat":"14.783333","lng":"-91.483333"},{"country":"GT","name":"Teculut\u00e1n","lat":"14.983333","lng":"-89.716667"},{"country":"GT","name":"San Miguel Sig\u00fcil\u00e1","lat":"14.9","lng":"-91.616667"},{"country":"GT","name":"Los Amates","lat":"15.266667","lng":"-89.1"},{"country":"GT","name":"Oc\u00f3s","lat":"14.516667","lng":"-92.183333"},{"country":"GT","name":"San Miguel Ixtahuac\u00e1n","lat":"15.25","lng":"-91.75"},{"country":"GT","name":"San Andr\u00e9s Itzapa","lat":"14.616667","lng":"-90.85"},{"country":"GT","name":"G\u00e9nova","lat":"14.616667","lng":"-91.833333"},{"country":"GT","name":"Soche","lat":"14.966667","lng":"-91.8"},{"country":"GT","name":"Quezaltepeque","lat":"14.633333","lng":"-89.45"},{"country":"GT","name":"Agua Blanca","lat":"14.5","lng":"-89.65"},{"country":"GT","name":"Jocot\u00e1n","lat":"14.816667","lng":"-89.383333"},{"country":"GT","name":"Escuintla","lat":"14.3","lng":"-90.783333"},{"country":"GT","name":"Lanqu\u00edn","lat":"15.566667","lng":"-89.966667"},{"country":"GT","name":"Jalpatagua","lat":"14.133333","lng":"-90.016667"},{"country":"GT","name":"Jacaltenango","lat":"15.666667","lng":"-91.733333"},{"country":"GT","name":"Almolonga","lat":"14.816667","lng":"-91.5"},{"country":"GT","name":"Malacat\u00e1n","lat":"14.9","lng":"-92.05"},{"country":"GT","name":"San Jos\u00e9 Poaquil","lat":"14.816667","lng":"-90.916667"},{"country":"GT","name":"San Rafael Petzal","lat":"15.416667","lng":"-91.666667"},{"country":"GT","name":"Nuevo San Carlos","lat":"14.6","lng":"-91.7"},{"country":"GT","name":"San Mart\u00edn Jilotepeque","lat":"14.783333","lng":"-90.783333"},{"country":"GT","name":"Acatenango","lat":"14.55","lng":"-90.95"},{"country":"GT","name":"Comalapa","lat":"14.733333","lng":"-90.883333"},{"country":"GT","name":"Nueva Santa Rosa","lat":"14.383333","lng":"-90.283333"},{"country":"GT","name":"Conguaco","lat":"14.05","lng":"-90.033333"},{"country":"GT","name":"Chiantla","lat":"15.366667","lng":"-91.45"},{"country":"GT","name":"San Luis Jilotepeque","lat":"14.65","lng":"-89.733333"},{"country":"GT","name":"Sansare","lat":"14.75","lng":"-90.116667"},{"country":"GT","name":"San Marcos La Laguna","lat":"14.716667","lng":"-91.266667"},{"country":"GT","name":"Concepci\u00f3n","lat":"15.616667","lng":"-91.683333"},{"country":"GT","name":"San Pedro Sacatep\u00e9quez","lat":"14.966667","lng":"-91.766667"},{"country":"GT","name":"Chisec","lat":"15.816667","lng":"-90.283333"},{"country":"GT","name":"La Gomera","lat":"14.083333","lng":"-91.05"},{"country":"GT","name":"San Antonio Suchitep\u00e9quez","lat":"14.533333","lng":"-91.416667"},{"country":"GT","name":"San Lucas Tolim\u00e1n","lat":"14.633333","lng":"-91.133333"},{"country":"GT","name":"Antigua Guatemala","lat":"14.566667","lng":"-90.733333"},{"country":"GT","name":"Tajumulco","lat":"15.083333","lng":"-91.883333"},{"country":"GT","name":"El Estor","lat":"15.533333","lng":"-89.35"},{"country":"GT","name":"El Adelanto","lat":"14.166667","lng":"-89.833333"},{"country":"GT","name":"Huit\u00e1n","lat":"15.1","lng":"-91.616667"},{"country":"GT","name":"Chichicastenango","lat":"14.933333","lng":"-91.116667"},{"country":"GT","name":"Moyuta","lat":"14.033333","lng":"-90.083333"},{"country":"GT","name":"Sumpango","lat":"14.65","lng":"-90.733333"},{"country":"GT","name":"San Andr\u00e9s Xecul","lat":"14.9","lng":"-91.483333"},{"country":"GT","name":"Sayaxch\u00e9","lat":"16.516667","lng":"-90.166667"},{"country":"GT","name":"Santo Tom\u00e1s La Uni\u00f3n","lat":"14.633333","lng":"-91.383333"},{"country":"GT","name":"Joyabaj","lat":"14.983333","lng":"-90.8"},{"country":"GT","name":"Salam\u00e1","lat":"15.1","lng":"-90.266667"},{"country":"GT","name":"Esquipulas Palo Gordo","lat":"14.933333","lng":"-91.816667"},{"country":"GT","name":"Santa Ana Huista","lat":"15.683333","lng":"-91.816667"},{"country":"GT","name":"Siquinal\u00e1","lat":"14.3","lng":"-90.966667"},{"country":"GT","name":"Santa Catarina Ixtahuac\u00e1n","lat":"14.8","lng":"-91.366667"},{"country":"GT","name":"Santa Cruz del Quich\u00e9","lat":"15.033333","lng":"-91.133333"},{"country":"GT","name":"Santa Ana","lat":"16.8","lng":"-89.833333"},{"country":"GT","name":"Nebaj","lat":"15.4","lng":"-91.133333"},{"country":"GT","name":"El Palmar","lat":"14.65","lng":"-91.583333"},{"country":"GT","name":"San Antonio Ilotenango","lat":"15.05","lng":"-91.183333"},{"country":"GT","name":"Melchor de Mencos","lat":"17.066667","lng":"-89.166667"},{"country":"GT","name":"San Bartolom\u00e9 Jocotenango","lat":"15.233333","lng":"-91.05"},{"country":"GT","name":"Coatepeque","lat":"14.7","lng":"-91.866667"},{"country":"GT","name":"Casillas","lat":"14.416667","lng":"-90.25"},{"country":"GT","name":"Concepci\u00f3n Las Minas","lat":"14.516667","lng":"-89.45"},{"country":"GT","name":"El Asintal","lat":"14.6","lng":"-91.733333"},{"country":"GT","name":"San Pedro Carch\u00e1","lat":"15.483333","lng":"-90.266667"},{"country":"GT","name":"Fraijanes","lat":"14.466667","lng":"-90.433333"},{"country":"GT","name":"Nueva Concepci\u00f3n","lat":"14.2","lng":"-91.3"},{"country":"GT","name":"Tectit\u00e1n","lat":"15.333333","lng":"-92.033333"},{"country":"GT","name":"San Antonio Aguas Calientes","lat":"14.533333","lng":"-90.766667"},{"country":"GT","name":"Santa Cruz Verapaz","lat":"15.4","lng":"-90.366667"},{"country":"GT","name":"Malacatancito","lat":"15.216667","lng":"-91.516667"},{"country":"GT","name":"Quetzaltenango","lat":"14.833333","lng":"-91.516667"},{"country":"GT","name":"Puerto Barrios","lat":"15.716667","lng":"-88.6"}]