[{"country":"GY","name":"Marurawaunawa","lat":"2.75","lng":"-59.166667"},{"country":"GY","name":"Maruranau","lat":"2.75","lng":"-59.166667"},{"country":"GY","name":"Maruranawa","lat":"2.75","lng":"-59.166667"},{"country":"GY","name":"Taruma","lat":"2.083333","lng":"-58.383333"},{"country":"GY","name":"Yupukari","lat":"3.666667","lng":"-59.35"},{"country":"GY","name":"Eupukari","lat":"3.666667","lng":"-59.35"},{"country":"GY","name":"Karia","lat":"6.833333","lng":"-58.583333"},{"country":"GY","name":"Quatata","lat":"3.633333","lng":"-59.5"},{"country":"GY","name":"Enachu Station","lat":"6.15","lng":"-60.033333"},{"country":"GY","name":"Enachu","lat":"6.15","lng":"-60.033333"},{"country":"GY","name":"Patarinau","lat":"3.033333","lng":"-59.766667"},{"country":"GY","name":"Johi","lat":"1.85","lng":"-58.533333"},{"country":"GY","name":"New Ground Village","lat":"5.85","lng":"-57.466667"},{"country":"GY","name":"Saint Ignatius Mission","lat":"3.333333","lng":"-59.8"},{"country":"GY","name":"Attai","lat":"5.083333","lng":"-58.516667"},{"country":"GY","name":"Waramuri","lat":"7.616667","lng":"-58.866667"},{"country":"GY","name":"Achiwuib Village","lat":"2.3","lng":"-59.583333"},{"country":"GY","name":"Tuka","lat":"3.916667","lng":"-59.383333"},{"country":"GY","name":"Toka","lat":"3.916667","lng":"-59.383333"},{"country":"GY","name":"Tipuru","lat":"4.216667","lng":"-59.566667"},{"country":"GY","name":"Akar","lat":"5.683333","lng":"-60.316667"},{"country":"GY","name":"Itoni Township","lat":"5.533333","lng":"-58.25"},{"country":"GY","name":"Ituni Townsite","lat":"5.533333","lng":"-58.25"},{"country":"GY","name":"Village Shulinab","lat":"3.083333","lng":"-59.783333"},{"country":"GY","name":"Shulinab Village","lat":"3.083333","lng":"-59.783333"},{"country":"GY","name":"Wandapa","lat":"4.55","lng":"-59.716667"},{"country":"GY","name":"Waudapa Village","lat":"4.55","lng":"-59.716667"},{"country":"GY","name":"Towakaima Landing","lat":"7.316667","lng":"-60"},{"country":"GY","name":"Towokaima Falls","lat":"7.316667","lng":"-60"},{"country":"GY","name":"Bom Sucesso","lat":"3.383333","lng":"-59.8"},{"country":"GY","name":"Kowaeng","lat":"5.65","lng":"-60.3"},{"country":"GY","name":"Barakara Mission","lat":"5.85","lng":"-57.466667"},{"country":"GY","name":"Sion","lat":"5.683333","lng":"-57.85"},{"country":"GY","name":"Woweta","lat":"3.983333","lng":"-59.083333"},{"country":"GY","name":"Wakakulud","lat":"1.383333","lng":"-58.75"},{"country":"GY","name":"Waioklepalul","lat":"5.45","lng":"-60.15"},{"country":"GY","name":"Karto","lat":"4.666667","lng":"-59.816667"},{"country":"GY","name":"Kato","lat":"4.666667","lng":"-59.816667"},{"country":"GY","name":"Espera","lat":"5.133333","lng":"-57.333333"},{"country":"GY","name":"Epira Mission","lat":"5.133333","lng":"-57.333333"},{"country":"GY","name":"Five Stars","lat":"7.6","lng":"-60.366667"},{"country":"GY","name":"Five Star Landing","lat":"7.6","lng":"-60.366667"},{"country":"GY","name":"Paramahatoi","lat":"4.716667","lng":"-59.7"},{"country":"GY","name":"Iguapa","lat":"7.4","lng":"-59.266667"},{"country":"GY","name":"Sawariwau","lat":"2.683333","lng":"-59.65"},{"country":"GY","name":"Moreiro","lat":"3.9","lng":"-59.55"},{"country":"GY","name":"Surama","lat":"4.166667","lng":"-59.083333"},{"country":"GY","name":"Kamuda","lat":"5.633333","lng":"-60.3"},{"country":"GY","name":"Kukuieng","lat":"4.583333","lng":"-59.666667"},{"country":"GY","name":"Saint Nicholas","lat":"7.5","lng":"-58.95"},{"country":"GY","name":"Moco-Moco","lat":"3.333333","lng":"-59.666667"},{"country":"GY","name":"Aunama","lat":"7.15","lng":"-60.083333"},{"country":"GY","name":"Lethen","lat":"3.383333","lng":"-59.8"},{"country":"GY","name":"Bon Success","lat":"3.383333","lng":"-59.8"},{"country":"GY","name":"Aishalton Village","lat":"2.516667","lng":"-59.25"},{"country":"GY","name":"Ishalton","lat":"2.516667","lng":"-59.25"},{"country":"GY","name":"McTurk","lat":"3.8","lng":"-59.4"},{"country":"GY","name":"Butakari","lat":"5.75","lng":"-58.616667"},{"country":"GY","name":"Amamure Village","lat":"6.8","lng":"-60.016667"},{"country":"GY","name":"Jacaretinga","lat":"3.516667","lng":"-59.666667"},{"country":"GY","name":"Pilanawa","lat":"2.766667","lng":"-59.683333"},{"country":"GY","name":"Big Baiabo","lat":"6.55","lng":"-57.883333"},{"country":"GY","name":"Big Biaboo","lat":"6.55","lng":"-57.883333"},{"country":"GY","name":"Biabu","lat":"6.55","lng":"-57.883333"},{"country":"GY","name":"Baiabu","lat":"6.55","lng":"-57.883333"},{"country":"GY","name":"Big Biabu","lat":"6.55","lng":"-57.883333"},{"country":"GY","name":"Melvilles Ranch","lat":"2.833333","lng":"-59.516667"},{"country":"GY","name":"Kumu Village","lat":"3.333333","lng":"-59.8"},{"country":"GY","name":"Oranopai","lat":"6.066667","lng":"-59.916667"},{"country":"GY","name":"Oranapai","lat":"6.066667","lng":"-59.916667"},{"country":"GY","name":"Tamtom","lat":"2.35","lng":"-59.716667"},{"country":"GY","name":"New Annlegt","lat":"6.736138","lng":"-58.265868"},{"country":"GY","name":"Sand Hills","lat":"5.811965","lng":"-57.740319"},{"country":"GY","name":"Number 40","lat":"6.470026","lng":"-57.669289"},{"country":"GY","name":"Number 41","lat":"6.473904","lng":"-57.67273"},{"country":"GY","name":"Bagatelle","lat":"6.649153","lng":"-57.921979"},{"country":"GY","name":"Kariakau","lat":"7.377758","lng":"-59.712993"},{"country":"GY","name":"Kokerit","lat":"7.333798","lng":"-59.589977"},{"country":"GY","name":"Kokerit Landing","lat":"7.333798","lng":"-59.589977"},{"country":"GY","name":"Number 12","lat":"6.537388","lng":"-57.79268"},{"country":"GY","name":"Perth Village","lat":"6.55872","lng":"-57.801428"},{"country":"GY","name":"Mahaicony","lat":"6.576334","lng":"-57.80486"},{"country":"GY","name":"De Kindern","lat":"6.632335","lng":"-57.844662"},{"country":"GY","name":"Number 10","lat":"6.568507","lng":"-57.886258"},{"country":"GY","name":"Golden Fleece Plantation","lat":"7.142374","lng":"-58.480626"},{"country":"GY","name":"Dorchester","lat":"6.430033","lng":"-58.292353"},{"country":"GY","name":"Esau and Jacob","lat":"6.481811","lng":"-57.790035"},{"country":"GY","name":"Mocomoco","lat":"6.474504","lng":"-57.786822"},{"country":"GY","name":"Moraikobe","lat":"6.098549","lng":"-57.950842"},{"country":"GY","name":"Courtland","lat":"6.278485","lng":"-57.391553"},{"country":"GY","name":"Number 2","lat":"6.278485","lng":"-57.391553"},{"country":"GY","name":"Saint Cuthberts","lat":"6.36873","lng":"-58.08666"},{"country":"GY","name":"Saint Cuthberts Village","lat":"6.36873","lng":"-58.08666"},{"country":"GY","name":"Helena Number 2","lat":"6.68219","lng":"-57.933169"},{"country":"GY","name":"Daniel","lat":"7.3004","lng":"-58.479755"},{"country":"GY","name":"Loo Land","lat":"6.254278","lng":"-58.273572"},{"country":"GY","name":"Het Loo","lat":"6.254278","lng":"-58.273572"},{"country":"GY","name":"Kalakoon House","lat":"6.388422","lng":"-58.65306"},{"country":"GY","name":"Kalkoon","lat":"6.388422","lng":"-58.65306"},{"country":"GY","name":"Kalacoon","lat":"6.388422","lng":"-58.65306"},{"country":"GY","name":"Urisirma Point","lat":"6.434179","lng":"-58.593885"},{"country":"GY","name":"Urisirma","lat":"6.434179","lng":"-58.593885"},{"country":"GY","name":"Durabanna","lat":"6.29914","lng":"-58.266092"},{"country":"GY","name":"Barima-Waini","lat":"7.666667","lng":"-59.75"},{"country":"GY","name":"Region 1","lat":"7.666667","lng":"-59.75"},{"country":"GY","name":"Cuyuni-Mazaruni","lat":"6","lng":"-60"},{"country":"GY","name":"Region 7","lat":"6","lng":"-60"},{"country":"GY","name":"Region 4","lat":"6.5","lng":"-58.083333"},{"country":"GY","name":"Demerara-Mahaica","lat":"6.5","lng":"-58.083333"},{"country":"GY","name":"East Berbice-Corentyne","lat":"4","lng":"-58.166667"},{"country":"GY","name":"Region 6","lat":"4","lng":"-58.166667"},{"country":"GY","name":"Essequibo Islands-West Demerara","lat":"6.666667","lng":"-58.5"},{"country":"GY","name":"Region 3","lat":"6.666667","lng":"-58.5"},{"country":"GY","name":"Mahaica-Berbice","lat":"6.25","lng":"-57.833333"},{"country":"GY","name":"Region 5","lat":"6.25","lng":"-57.833333"},{"country":"GY","name":"Pomeroon-Supenaam","lat":"7.083333","lng":"-58.833333"},{"country":"GY","name":"Region 2","lat":"7.083333","lng":"-58.833333"},{"country":"GY","name":"Potaro-Siparuni","lat":"5","lng":"-59.5"},{"country":"GY","name":"Region 8","lat":"5","lng":"-59.5"},{"country":"GY","name":"Upper Demerara-Berbice","lat":"5.5","lng":"-58.333333"},{"country":"GY","name":"Region 10","lat":"5.5","lng":"-58.333333"},{"country":"GY","name":"Upper Takutu-Upper Essequibo","lat":"2.5","lng":"-59"},{"country":"GY","name":"Region 9","lat":"2.5","lng":"-59"},{"country":"GY","name":"Kaituma","lat":"7.734552","lng":"-59.878615"},{"country":"GY","name":"Klip","lat":"6.383333","lng":"-58.666667"},{"country":"GY","name":"Waramadan","lat":"5.816667","lng":"-60.75"},{"country":"GY","name":"Tumereng","lat":"6.166667","lng":"-60.05"},{"country":"GY","name":"Tumureng","lat":"6.166667","lng":"-60.05"},{"country":"GY","name":"Karasabai","lat":"4.033333","lng":"-59.533333"},{"country":"GY","name":"Konora Village","lat":"7.25","lng":"-60.016667"},{"country":"GY","name":"Wauna-Yarakita","lat":"8.083333","lng":"-59.916667"},{"country":"GY","name":"Rising","lat":"6.083333","lng":"-57.2"},{"country":"GY","name":"Owenteik","lat":"4.45","lng":"-59.583333"},{"country":"GY","name":"Wandaik","lat":"4.45","lng":"-59.583333"},{"country":"GY","name":"Shoa","lat":"2.816667","lng":"-59.133333"},{"country":"GY","name":"Shea","lat":"2.816667","lng":"-59.133333"},{"country":"GY","name":"Manari","lat":"7.516667","lng":"-59.833333"},{"country":"GY","name":"Santa Rosa","lat":"7.65","lng":"-58.95"},{"country":"GY","name":"Ebini Downs","lat":"5.666667","lng":"-57.783333"},{"country":"GY","name":"Goldspie","lat":"6.1","lng":"-57.2"},{"country":"GY","name":"Kumaka","lat":"5.566667","lng":"-57.916667"},{"country":"GY","name":"Coomacka","lat":"5.566667","lng":"-57.916667"},{"country":"GY","name":"Tacama","lat":"5.566667","lng":"-57.916667"},{"country":"GY","name":"Hart","lat":"3.75","lng":"-59.583333"},{"country":"GY","name":"Awariwaunau","lat":"2.666667","lng":"-59.2"},{"country":"GY","name":"Waruma Outstation","lat":"3.1","lng":"-59.9"},{"country":"GY","name":"De Jonge Rachael","lat":"6.7","lng":"-58.2"},{"country":"GY","name":"Queenstown Village","lat":"7.198432","lng":"-58.489287"},{"country":"GY","name":"Blairmont Place","lat":"6.257044","lng":"-57.539791"},{"country":"GY","name":"Barteke","lat":"6.407992","lng":"-58.621918"},{"country":"GY","name":"Number 77","lat":"5.903944","lng":"-57.151165"},{"country":"GY","name":"Springlands Place","lat":"5.900489","lng":"-57.134748"},{"country":"GY","name":"Number 75","lat":"5.912941","lng":"-57.16056"},{"country":"GY","name":"Spring Garden","lat":"5.912941","lng":"-57.16056"},{"country":"GY","name":"Harriet","lat":"5.910073","lng":"-57.149269"},{"country":"GY","name":"Number 76","lat":"5.910073","lng":"-57.149269"},{"country":"GY","name":"Number 74","lat":"5.921283","lng":"-57.15396"},{"country":"GY","name":"Balaam","lat":"5.921283","lng":"-57.15396"},{"country":"GY","name":"Stockholm","lat":"5.921283","lng":"-57.15396"},{"country":"GY","name":"Number Seventy-four Balaam","lat":"5.921283","lng":"-57.15396"},{"country":"GY","name":"La Printemps","lat":"5.923521","lng":"-57.163041"},{"country":"GY","name":"Clonbrook","lat":"5.923521","lng":"-57.163041"},{"country":"GY","name":"Number Seventy-three La Printemps","lat":"5.923521","lng":"-57.163041"},{"country":"GY","name":"Number 73","lat":"5.923521","lng":"-57.163041"},{"country":"GY","name":"Little Massiah","lat":"5.935594","lng":"-57.158205"},{"country":"GY","name":"Number 71","lat":"5.935594","lng":"-57.158205"},{"country":"GY","name":"Hong Kong","lat":"5.931056","lng":"-57.156756"},{"country":"GY","name":"Number 72","lat":"5.931056","lng":"-57.156756"},{"country":"GY","name":"Massiah","lat":"5.94025","lng":"-57.166107"},{"country":"GY","name":"Number 70","lat":"5.94025","lng":"-57.166107"},{"country":"GY","name":"Number 69","lat":"5.945923","lng":"-57.167946"},{"country":"GY","name":"Friendship","lat":"5.945923","lng":"-57.167946"},{"country":"GY","name":"Number 61","lat":"5.995761","lng":"-57.161258"},{"country":"GY","name":"Mary and Eliza","lat":"5.898712","lng":"-57.146741"},{"country":"GY","name":"Eliza and Mary","lat":"5.898712","lng":"-57.146741"},{"country":"GY","name":"Mary & Eliza","lat":"5.898712","lng":"-57.146741"},{"country":"GY","name":"Number 78","lat":"5.898712","lng":"-57.146741"},{"country":"GY","name":"Number 64","lat":"5.979299","lng":"-57.157851"},{"country":"GY","name":"Babylon","lat":"5.979299","lng":"-57.157851"},{"country":"GY","name":"Hossororo","lat":"8.17588","lng":"-59.80311"},{"country":"GY","name":"Issororo","lat":"8.17588","lng":"-59.80311"},{"country":"GY","name":"Diamond","lat":"6.722736","lng":"-58.177121"},{"country":"GY","name":"Great Diamond","lat":"6.722736","lng":"-58.177121"},{"country":"GY","name":"Big Diamond","lat":"6.722736","lng":"-58.177121"},{"country":"GY","name":"Number 66","lat":"5.966202","lng":"-57.161416"},{"country":"GY","name":"Number 65","lat":"5.973876","lng":"-57.156282"},{"country":"GY","name":"New Market","lat":"5.973876","lng":"-57.156282"},{"country":"GY","name":"Number 67","lat":"5.963281","lng":"-57.15489"},{"country":"GY","name":"Pickersgil","lat":"7.257614","lng":"-58.721936"},{"country":"GY","name":"Gold Mine","lat":"6.539914","lng":"-58.618526"},{"country":"GY","name":"Saxsacali","lat":"6.577817","lng":"-58.610907"},{"country":"GY","name":"Primrose Hill","lat":"6.577817","lng":"-58.610907"},{"country":"GY","name":"Saxacalli","lat":"6.577817","lng":"-58.610907"},{"country":"GY","name":"Post Ampa","lat":"6.500928","lng":"-58.578417"},{"country":"GY","name":"Helena Number 1","lat":"6.678731","lng":"-57.934724"},{"country":"GY","name":"Vreed en Hoop","lat":"6.809266","lng":"-58.19798"},{"country":"GY","name":"Schoonoord","lat":"6.784997","lng":"-58.19533"},{"country":"GY","name":"Hooboo","lat":"6.819371","lng":"-58.467432"},{"country":"GY","name":"Hyde Park and Grove","lat":"6.846282","lng":"-58.428849"},{"country":"GY","name":"Baramanna","lat":"7.838412","lng":"-59.216114"},{"country":"GY","name":"Barimanni","lat":"7.838412","lng":"-59.216114"},{"country":"GY","name":"Baramani","lat":"7.838412","lng":"-59.216114"},{"country":"GY","name":"Batchelor\u2019s Adventure","lat":"6.912682","lng":"-58.421642"},{"country":"GY","name":"Waterloo","lat":"6.912682","lng":"-58.421642"},{"country":"GY","name":"Tarlogie Farm","lat":"6.181611","lng":"-57.238845"},{"country":"GY","name":"Sand Hills","lat":"5.8","lng":"-57.75"},{"country":"GY","name":"Hittia Settlement","lat":"5.8","lng":"-57.75"},{"country":"GY","name":"Puwa","lat":"4.516667","lng":"-59.983333"},{"country":"GY","name":"Muriakundi","lat":"7.166667","lng":"-60.133333"},{"country":"GY","name":"Santa F\u00e9 Ranch","lat":"3.783333","lng":"-59.6"},{"country":"GY","name":"Paruima","lat":"5.8","lng":"-61.05"},{"country":"GY","name":"Paricaranal","lat":"3.566667","lng":"-59.583333"},{"country":"GY","name":"Skeldon Place","lat":"5.883333","lng":"-57.133333"},{"country":"GY","name":"Number 80","lat":"5.883333","lng":"-57.133333"},{"country":"GY","name":"Sisipelin","lat":"4.65","lng":"-59.55"},{"country":"GY","name":"Kwamatta","lat":"3.816667","lng":"-59.333333"},{"country":"GY","name":"Kwaiwatta Village","lat":"3.816667","lng":"-59.333333"},{"country":"GY","name":"Kwaimatta","lat":"3.816667","lng":"-59.333333"},{"country":"GY","name":"Ipish\u00e1u","lat":"4.883333","lng":"-60.016667"},{"country":"GY","name":"Ipichau","lat":"4.883333","lng":"-60.016667"},{"country":"GY","name":"Kurikebaru","lat":"4.75","lng":"-59.883333"},{"country":"GY","name":"Kurikebary","lat":"4.75","lng":"-59.883333"},{"country":"GY","name":"Kurukabaru","lat":"4.75","lng":"-59.883333"},{"country":"GY","name":"Anwai","lat":"3.95","lng":"-59.133333"},{"country":"GY","name":"Orealla Mission","lat":"5.316667","lng":"-57.333333"},{"country":"GY","name":"Oreala","lat":"5.316667","lng":"-57.333333"},{"country":"GY","name":"Saint Mary","lat":"5.2","lng":"-59.016667"},{"country":"GY","name":"Massara Village","lat":"3.9","lng":"-59.3"},{"country":"GY","name":"MacDonald","lat":"3.516667","lng":"-59.55"},{"country":"GY","name":"Saint Bedes","lat":"7.566667","lng":"-59.466667"},{"country":"GY","name":"Kaywaek Village","lat":"5.933333","lng":"-60.633333"},{"country":"GY","name":"Kaywaek","lat":"5.933333","lng":"-60.633333"},{"country":"GY","name":"Wariwiau Village","lat":"2.716667","lng":"-59.2"},{"country":"GY","name":"Acquero","lat":"7.65","lng":"-58.933333"},{"country":"GY","name":"Aqueero","lat":"7.65","lng":"-58.933333"},{"country":"GY","name":"Village Burisanawa","lat":"2.35","lng":"-59.35"},{"country":"GY","name":"Glasgow","lat":"6.516667","lng":"-58.283333"},{"country":"GY","name":"Juanita","lat":"7.95","lng":"-60.216667"},{"country":"GY","name":"Muriwa Village","lat":"3.05","lng":"-59.666667"},{"country":"GY","name":"Eldorado Village","lat":"6.509259","lng":"-57.702208"},{"country":"GY","name":"Lowood","lat":"6.425257","lng":"-58.287638"},{"country":"GY","name":"Hai Maruni","lat":"6.425257","lng":"-58.287638"},{"country":"GY","name":"Number 12","lat":"6.356581","lng":"-57.583141"},{"country":"GY","name":"Bagostown","lat":"6.77247","lng":"-58.175617"},{"country":"GY","name":"Plaisance Village","lat":"6.80227","lng":"-58.094843"},{"country":"GY","name":"Amstel","lat":"6.857423","lng":"-58.252002"},{"country":"GY","name":"Den Amstel Village","lat":"6.857423","lng":"-58.252002"},{"country":"GY","name":"Zealandia","lat":"7.011463","lng":"-58.444628"},{"country":"GY","name":"Number 60","lat":"5.998099","lng":"-57.167071"},{"country":"GY","name":"Number 63","lat":"5.984689","lng":"-57.159059"},{"country":"GY","name":"Benab","lat":"5.984689","lng":"-57.159059"},{"country":"GY","name":"Rose Hall Town","lat":"6.255775","lng":"-57.355016"},{"country":"GY","name":"Rose Hall Village","lat":"6.255775","lng":"-57.355016"},{"country":"GY","name":"Fyrish","lat":"6.275028","lng":"-57.386832"},{"country":"GY","name":"Fyrish Village","lat":"6.275028","lng":"-57.386832"},{"country":"GY","name":"Cane Field","lat":"6.246243","lng":"-57.483584"},{"country":"GY","name":"Rosignal","lat":"6.270953","lng":"-57.536973"},{"country":"GY","name":"Saint John","lat":"6.387395","lng":"-57.615285"},{"country":"GY","name":"Bush Lot Village","lat":"6.207194","lng":"-57.264826"},{"country":"GY","name":"Alnes","lat":"6.22451","lng":"-57.28862"},{"country":"GY","name":"Ankersville","lat":"6.241228","lng":"-57.348718"},{"country":"GY","name":"Beribissibali","lat":"6.655637","lng":"-58.56458"},{"country":"GY","name":"Beribissiballi","lat":"6.655637","lng":"-58.56458"},{"country":"GY","name":"Berebisibali","lat":"6.655637","lng":"-58.56458"},{"country":"GY","name":"Berebisiballi","lat":"6.655637","lng":"-58.56458"},{"country":"GY","name":"Agricola Village","lat":"6.779961","lng":"-58.167738"},{"country":"GY","name":"Port Mourant Village","lat":"6.24604","lng":"-57.333603"},{"country":"GY","name":"Georgetown","lat":"6.8","lng":"-58.15"},{"country":"GY","name":"Demerara","lat":"6.8","lng":"-58.15"},{"country":"GY","name":"Issororo","lat":"7.254743","lng":"-58.880829"},{"country":"GY","name":"Parishara Village","lat":"3.454224","lng":"-59.572998"},{"country":"GY","name":"Village Nappita","lat":"3.414664","lng":"-59.575975"}]