[{"country":"HT","name":"Saint-Louis du Nord","lat":"19.85","lng":"-72.666667"},{"country":"HT","name":"Artibonite","lat":"19.333333","lng":"-72.5"},{"country":"HT","name":"Centre","lat":"19","lng":"-72"},{"country":"HT","name":"Grand\u2019Anse","lat":"18.5","lng":"-74.083333"},{"country":"HT","name":"Nippes","lat":"18.416667","lng":"-73.333333"},{"country":"HT","name":"Nord","lat":"19.6","lng":"-72.3"},{"country":"HT","name":"Nord-Est","lat":"19.5","lng":"-71.883333"},{"country":"HT","name":"Nord-Ouest","lat":"19.833333","lng":"-73"},{"country":"HT","name":"Ouest","lat":"18.533333","lng":"-72.266667"},{"country":"HT","name":"Sud","lat":"18.3","lng":"-73.733333"},{"country":"HT","name":"Sud-Est","lat":"18.3","lng":"-72.4"},{"country":"HT","name":"Mirebalais","lat":"18.883333","lng":"-72.133333"},{"country":"HT","name":"Port-de-Paix","lat":"19.833333","lng":"-72.883333"},{"country":"HT","name":"Port-au-Prince","lat":"18.539167","lng":"-72.335"},{"country":"HT","name":"Gros Morne","lat":"19.65","lng":"-72.85"},{"country":"HT","name":"Lascahobas","lat":"18.833333","lng":"-71.883333"},{"country":"HT","name":"Limb\u00e9","lat":"19.666667","lng":"-72.416667"},{"country":"HT","name":"Saint-Marc","lat":"19","lng":"-72.5"},{"country":"HT","name":"Cap-Ha\u00eftien","lat":"19.666667","lng":"-72.15"},{"country":"HT","name":"Bainet","lat":"18.25","lng":"-72.85"},{"country":"HT","name":"L\u00e9og\u00e2ne","lat":"18.416667","lng":"-72.75"},{"country":"HT","name":"Plaisance","lat":"19.666667","lng":"-72.55"},{"country":"HT","name":"Trou du Nord","lat":"19.55","lng":"-71.983333"},{"country":"HT","name":"Acul du Nord","lat":"19.666667","lng":"-72.283333"},{"country":"HT","name":"Borgne","lat":"19.75","lng":"-72.5"},{"country":"HT","name":"Mirago\u00e2ne","lat":"18.366667","lng":"-73.166667"},{"country":"HT","name":"Chardonni\u00e8res","lat":"18.366667","lng":"-74.25"},{"country":"HT","name":"Croix des Bouquets","lat":"18.483333","lng":"-72.016667"},{"country":"HT","name":"Grande Rivi\u00e8re du Nord","lat":"19.516667","lng":"-72.166667"},{"country":"HT","name":"Hinche","lat":"19.133333","lng":"-72.066667"},{"country":"HT","name":"Jacmel","lat":"18.333333","lng":"-72.5"},{"country":"HT","name":"Arcahaie","lat":"18.833333","lng":"-72.416667"},{"country":"HT","name":"Aquin","lat":"18.283333","lng":"-73.383333"},{"country":"HT","name":"Belle-Anse","lat":"18.25","lng":"-72"},{"country":"HT","name":"Cerca La Source","lat":"19.116667","lng":"-71.75"},{"country":"HT","name":"Coteaux","lat":"18.25","lng":"-74"},{"country":"HT","name":"Cayes","lat":"18.3","lng":"-73.833333"},{"country":"HT","name":"M\u00f4le Saint-Nicolas","lat":"19.75","lng":"-73.25"},{"country":"HT","name":"Fort Libert\u00e9","lat":"19.566667","lng":"-71.833333"},{"country":"HT","name":"Port-Salut","lat":"18.133333","lng":"-73.9"},{"country":"HT","name":"Valli\u00e8res","lat":"19.366667","lng":"-71.9"},{"country":"HT","name":"Ouanaminthe","lat":"19.483333","lng":"-71.766667"},{"country":"HT","name":"Saint-Rapha\u00ebl","lat":"19.416667","lng":"-72.183333"},{"country":"HT","name":"La Gon\u00e2ve","lat":"18.85","lng":"-73.05"},{"country":"HT","name":"Saint-Michel","lat":"19.333333","lng":"-72.366667"},{"country":"HT","name":"Dessalines","lat":"19.166667","lng":"-72.416667"},{"country":"HT","name":"Port-au-Prince","lat":"18.5","lng":"-72.366667"},{"country":"HT","name":"Gona\u00efves","lat":"19.5","lng":"-72.666667"},{"country":"HT","name":"Corail","lat":"18.55","lng":"-73.933333"},{"country":"HT","name":"Anse d\u2019Hainault","lat":"18.516667","lng":"-74.366667"},{"country":"HT","name":"J\u00e9r\u00e9mie","lat":"18.583333","lng":"-74.2"},{"country":"HT","name":"Anse-\u00e0-Veau","lat":"18.416667","lng":"-73.5"}]