[{"country":"ID","name":"Sotabar","lat":"-6.902315","lng":"113.536783"},{"country":"ID","name":"Sidenreng-Rapang","lat":"-4","lng":"119.833333"},{"country":"ID","name":"Timor Tengah Selatan","lat":"-9.833333","lng":"124.166667"},{"country":"ID","name":"Samigaluh","lat":"-7.666667","lng":"110.166667"},{"country":"ID","name":"Palu","lat":"-.883333","lng":"119.883333"},{"country":"ID","name":"Tanjung Jabung","lat":"-.816667","lng":"103.466667"},{"country":"ID","name":"Purworejo","lat":"-7.689167","lng":"109.96"},{"country":"ID","name":"Pandegelang","lat":"-6.666667","lng":"105.666667"},{"country":"ID","name":"Surakarta","lat":"-7.534722","lng":"110.827222"},{"country":"ID","name":"Surabaya","lat":"-7","lng":"112.583333"},{"country":"ID","name":"Sumedang","lat":"-6.776667","lng":"107.977778"},{"country":"ID","name":"Sukabumi","lat":"-6.923056","lng":"106.926944"},{"country":"ID","name":"Pangkalpinang","lat":"-2.133333","lng":"106.133333"},{"country":"ID","name":"Jambi","lat":"-1.6","lng":"103.616667"},{"country":"ID","name":"Jambi","lat":"-1.6","lng":"103.616667"},{"country":"ID","name":"Maluku Utara","lat":"1.5","lng":"128"},{"country":"ID","name":"Kendari","lat":"-3.945","lng":"122.498889"},{"country":"ID","name":"Indramayu","lat":"-6.448056","lng":"108.191944"},{"country":"ID","name":"Majalengka","lat":"-6.758889","lng":"108.249444"},{"country":"ID","name":"Pulobambu","lat":"-6.118611","lng":"107.155"},{"country":"ID","name":"Kota Bogor Utara","lat":".75","lng":"122.25"},{"country":"ID","name":"Bojonggede","lat":"-6.498889","lng":"106.755"},{"country":"ID","name":"Bogor","lat":"-6.591944","lng":"106.795833"},{"country":"ID","name":"Bogor","lat":"-6.586944","lng":"106.766944"},{"country":"ID","name":"Gunung Kidul","lat":"-7.836111","lng":"110.592778"},{"country":"ID","name":"Bandar","lat":"3.516667","lng":"97.8"},{"country":"ID","name":"Sopeng","lat":"-4.5","lng":"119.833333"},{"country":"ID","name":"Cimahi","lat":"-6.883333","lng":"107.533333"},{"country":"ID","name":"Batang","lat":"-7","lng":"109.916667"},{"country":"ID","name":"Purwakarta","lat":"-6.600556","lng":"107.426389"},{"country":"ID","name":"Pacitan","lat":"-8.092222","lng":"111.181389"},{"country":"ID","name":"Lumajang","lat":"-8.083333","lng":"113.083333"},{"country":"ID","name":"Bandung","lat":"-6.996667","lng":"107.4975"},{"country":"ID","name":"Kiaracondong","lat":"-6.921944","lng":"107.65"},{"country":"ID","name":"Balau","lat":"-5.383333","lng":"105.25"},{"country":"ID","name":"Boyolali","lat":"-7.833333","lng":"110.25"},{"country":"ID","name":"Halmahera Tengah","lat":"0","lng":"128"},{"country":"ID","name":"Barito Utara","lat":"-.95","lng":"114.883333"},{"country":"ID","name":"Barito Selatan","lat":"-1.7","lng":"114.8"},{"country":"ID","name":"Bantul","lat":"-7.834444","lng":"110.516667"},{"country":"ID","name":"Banjarmasin","lat":"-3.333333","lng":"114.6"},{"country":"ID","name":"Banjarbaru","lat":"-3.416667","lng":"114.833333"},{"country":"ID","name":"Pauhambar","lat":"-.655356","lng":"100.212794"},{"country":"ID","name":"Sungaisarik","lat":"-.573581","lng":"100.224645"},{"country":"ID","name":"Kampungladang","lat":"-.541917","lng":"100.170435"},{"country":"ID","name":"Lubukalung","lat":"-.686239","lng":"100.286127"},{"country":"ID","name":"Kotatua","lat":"-.345135","lng":"100.362409"},{"country":"ID","name":"Sulitair","lat":"-.612584","lng":"100.64788"},{"country":"ID","name":"Solok","lat":"-.791834","lng":"100.659315"},{"country":"ID","name":"Sungayang","lat":"-.407559","lng":"100.597176"},{"country":"ID","name":"Gunung Talang","lat":"-.905658","lng":"100.627087"},{"country":"ID","name":"Singkarak","lat":"-.690894","lng":"100.60335"},{"country":"ID","name":"Sirukam","lat":"-.887108","lng":"100.759504"},{"country":"ID","name":"Tanjungpati","lat":"-.16046","lng":"100.67997"},{"country":"ID","name":"Tanjunggadang","lat":"-.301259","lng":"100.738405"},{"country":"ID","name":"Salimpaung","lat":"-.352305","lng":"100.548842"},{"country":"ID","name":"Simabur","lat":"-.464481","lng":"100.528171"},{"country":"ID","name":"Talawi","lat":"-.597448","lng":"100.739792"},{"country":"ID","name":"Saruaso","lat":"-.483104","lng":"100.637655"},{"country":"ID","name":"Rambatan","lat":"-.492144","lng":"100.54544"},{"country":"ID","name":"Surian","lat":"-1.25587","lng":"100.881291"},{"country":"ID","name":"Tabing","lat":"-.872028","lng":"100.342787"},{"country":"ID","name":"Sungailimau","lat":"-.516379","lng":"100.061707"},{"country":"ID","name":"Pariaman","lat":"-.61898","lng":"100.119969"},{"country":"ID","name":"Palembaian","lat":"-.183333","lng":"100.233333"},{"country":"ID","name":"Padangpanjang","lat":"-.467207","lng":"100.402265"},{"country":"ID","name":"Padang","lat":"-.953154","lng":"100.367659"},{"country":"ID","name":"Padang","lat":"-.953154","lng":"100.367659"},{"country":"ID","name":"Matur","lat":"-.278773","lng":"100.28802"},{"country":"ID","name":"Maninjau","lat":"-.300591","lng":"100.226711"},{"country":"ID","name":"Lubukbergalung","lat":"-.960755","lng":"100.400112"},{"country":"ID","name":"Lubukalung","lat":"-.683209","lng":"100.318561"},{"country":"ID","name":"Bukittinggi","lat":"-.309068","lng":"100.370552"},{"country":"ID","name":"Bukittinggi","lat":"-.309068","lng":"100.370552"},{"country":"ID","name":"Bonjol","lat":"-.01785","lng":"100.227476"},{"country":"ID","name":"Baso","lat":"-.280673","lng":"100.453621"},{"country":"ID","name":"Agam","lat":"-.195508","lng":"100.184211"},{"country":"ID","name":"Tiku","lat":"-.395796","lng":"99.923074"},{"country":"ID","name":"Pasarbaru","lat":"-1.305104","lng":"100.509953"},{"country":"ID","name":"Alahanpanjang","lat":"-1.074911","lng":"100.793541"},{"country":"ID","name":"Semamung","lat":"-8.6515","lng":"117.4288"},{"country":"ID","name":"Moyo Hulu","lat":"-8.6517","lng":"117.4052"},{"country":"ID","name":"Semamung","lat":"-8.671","lng":"117.4124"},{"country":"ID","name":"Sebasang","lat":"-8.6533","lng":"117.4512"},{"country":"ID","name":"Batutering","lat":"-8.662","lng":"117.4889"},{"country":"ID","name":"Batutering","lat":"-8.6664","lng":"117.4795"},{"country":"ID","name":"Seteluk","lat":"-8.625487","lng":"116.86674"},{"country":"ID","name":"Sebasang","lat":"-8.6502","lng":"117.4461"},{"country":"ID","name":"Taliwang","lat":"-8.7335","lng":"116.8666"},{"country":"ID","name":"Taliwang","lat":"-8.7449","lng":"116.8532"},{"country":"ID","name":"Mapinkebak","lat":"-8.5496","lng":"116.9417"},{"country":"ID","name":"Gontar","lat":"-8.502","lng":"116.9692"},{"country":"ID","name":"Dalam","lat":"-8.5067","lng":"116.9886"},{"country":"ID","name":"Luar","lat":"-8.5164","lng":"116.9844"},{"country":"ID","name":"Baru","lat":"-8.5283","lng":"116.9809"},{"country":"ID","name":"Mapinrea","lat":"-8.5596","lng":"116.9463"},{"country":"ID","name":"Kalimango","lat":"-8.5489","lng":"116.9947"},{"country":"ID","name":"Lekong","lat":"-8.5541","lng":"116.9704"},{"country":"ID","name":"Gontar","lat":"-8.5112","lng":"116.9775"},{"country":"ID","name":"Mapinrea","lat":"-8.5793","lng":"116.9496"},{"country":"ID","name":"Baru","lat":"-8.5229","lng":"116.9928"},{"country":"ID","name":"Labuhanmapin","lat":"-8.5277","lng":"116.9227"},{"country":"ID","name":"Luar","lat":"-8.519","lng":"116.9933"},{"country":"ID","name":"Mapinkebak","lat":"-8.5559","lng":"116.9151"},{"country":"ID","name":"Seteluk Atas","lat":"-8.6109","lng":"116.9016"},{"country":"ID","name":"Kalimango","lat":"-8.522123","lng":"116.995399"},{"country":"ID","name":"Alas","lat":"-8.5146","lng":"116.9935"},{"country":"ID","name":"Dalam","lat":"-8.5155","lng":"116.9953"},{"country":"ID","name":"Juranalas","lat":"-8.522957","lng":"116.997275"},{"country":"ID","name":"Batujai","lat":"-8.7253","lng":"116.2403"},{"country":"ID","name":"Kediri","lat":"-8.6395","lng":"116.164"},{"country":"ID","name":"Beleke","lat":"-8.6627","lng":"116.1347"},{"country":"ID","name":"Ampanlolat","lat":"-8.7198","lng":"116.1983"},{"country":"ID","name":"Kelungkung","lat":"-8.5602","lng":"117.325"},{"country":"ID","name":"Karang Kuripan","lat":"-8.6347","lng":"116.154"},{"country":"ID","name":"Perina","lat":"-8.6475","lng":"116.2431"},{"country":"ID","name":"Ketara","lat":"-8.8763","lng":"116.253"},{"country":"ID","name":"Jonggat","lat":"-8.6719","lng":"116.2219"},{"country":"ID","name":"Bagikpolak","lat":"-8.6273","lng":"116.1347"},{"country":"ID","name":"Kute","lat":"-8.8832","lng":"116.2854"},{"country":"ID","name":"Pendaleman","lat":"-8.6844","lng":"116.2404"},{"country":"ID","name":"Sumbawa","lat":"-8.5145","lng":"117.3717"},{"country":"ID","name":"Jeding","lat":"-7.9171","lng":"114.1447"},{"country":"ID","name":"Karangkebon Timur","lat":"-8.62691","lng":"116.137516"},{"country":"ID","name":"Batutulis","lat":"-8.6911","lng":"116.2139"},{"country":"ID","name":"Bilebante","lat":"-8.6261","lng":"116.1843"},{"country":"ID","name":"Bagu","lat":"-8.6252","lng":"116.2022"},{"country":"ID","name":"Rumak","lat":"-8.6466","lng":"116.1362"},{"country":"ID","name":"Kute","lat":"-8.892","lng":"116.2776"},{"country":"ID","name":"Jelantik","lat":"-8.6667","lng":"116.2144"},{"country":"ID","name":"Ubung","lat":"-8.652","lng":"116.1976"},{"country":"ID","name":"Labulia","lat":"-8.6911","lng":"116.1848"},{"country":"ID","name":"Sukarara","lat":"-8.7009","lng":"116.2144"},{"country":"ID","name":"Pelat","lat":"-8.5319","lng":"117.3571"},{"country":"ID","name":"Kayumas","lat":"-7.9098","lng":"114.1485"},{"country":"ID","name":"Kuripan","lat":"-8.6841","lng":"116.1625"},{"country":"ID","name":"Kedunglo","lat":"-7.8986","lng":"114.1948"},{"country":"ID","name":"Bantal","lat":"-7.894","lng":"114.2346"},{"country":"ID","name":"Ungga","lat":"-8.7153","lng":"116.1986"},{"country":"ID","name":"Ranggagata","lat":"-8.7238","lng":"116.1818"},{"country":"ID","name":"Pengenjek","lat":"-8.6356","lng":"116.2487"},{"country":"ID","name":"Jagaraga","lat":"-8.6569","lng":"116.161"},{"country":"ID","name":"Kediri","lat":"-8.6553","lng":"116.1608"},{"country":"ID","name":"Dasangeres","lat":"-8.7031","lng":"116.1445"},{"country":"ID","name":"Ranggagata","lat":"-8.7224","lng":"116.1847"},{"country":"ID","name":"Batudulang","lat":"-8.5884","lng":"117.2746"},{"country":"ID","name":"Darek","lat":"-8.7367","lng":"116.2114"},{"country":"ID","name":"Bonjeruk","lat":"-8.6478","lng":"116.2248"},{"country":"ID","name":"Batutulis","lat":"-8.6814","lng":"116.2065"},{"country":"ID","name":"Karangdalam","lat":"-8.7384","lng":"116.2431"},{"country":"ID","name":"Nyerot","lat":"-8.6826","lng":"116.2254"},{"country":"ID","name":"Blong Daye","lat":"-8.6931","lng":"116.2257"},{"country":"ID","name":"Krajan","lat":"-8.0017","lng":"113.2635"},{"country":"ID","name":"Kebonan","lat":"-8.0289","lng":"113.2516"},{"country":"ID","name":"Krajan Satu","lat":"-8.0131","lng":"113.2955"},{"country":"ID","name":"Krajan","lat":"-8.0134","lng":"113.2792"},{"country":"ID","name":"Krajan Dua","lat":"-8.025","lng":"113.2508"},{"country":"ID","name":"Banyuputih Lor","lat":"-8.0998","lng":"113.2818"},{"country":"ID","name":"Klakah","lat":"-8.0012","lng":"113.2533"},{"country":"ID","name":"Ranupakis","lat":"-8.0098","lng":"113.2658"},{"country":"ID","name":"Kromot","lat":"-8.043","lng":"113.3029"},{"country":"ID","name":"Krajan Satu","lat":"-8.087","lng":"113.2608"},{"country":"ID","name":"Klakah","lat":"-8.005","lng":"113.2627"},{"country":"ID","name":"Kalidilem","lat":"-8.0985","lng":"113.3155"},{"country":"ID","name":"Duren","lat":"-8.019","lng":"113.2803"},{"country":"ID","name":"Randuagung","lat":"-8.072","lng":"113.3032"},{"country":"ID","name":"Kalijeruk","lat":"-8.0653","lng":"113.339"},{"country":"ID","name":"Sumbergebang","lat":"-8.071","lng":"113.3245"},{"country":"ID","name":"Jatiroto","lat":"-8.1218","lng":"113.3637"},{"country":"ID","name":"Randuagung","lat":"-8.055","lng":"113.3169"},{"country":"ID","name":"Sumberweringin","lat":"-8.0118","lng":"113.3027"},{"country":"ID","name":"Curahklapa","lat":"-8.0975","lng":"113.3194"},{"country":"ID","name":"Selak","lat":"-8.0199","lng":"113.3271"},{"country":"ID","name":"Banyuputih Kidul","lat":"-8.1247","lng":"113.2909"},{"country":"ID","name":"Kalipenggung","lat":"-8.0394","lng":"113.3421"},{"country":"ID","name":"Buwek","lat":"-8.0348","lng":"113.2977"},{"country":"ID","name":"Kudus","lat":"-8.0347","lng":"113.2652"},{"country":"ID","name":"Ledoktempuro","lat":"-8.056","lng":"113.294"},{"country":"ID","name":"Krajan","lat":"-8.0581","lng":"113.3651"},{"country":"ID","name":"Krajan Satu","lat":"-8.0737","lng":"113.3341"},{"country":"ID","name":"Krajan","lat":"-8.0936","lng":"113.3697"},{"country":"ID","name":"Ranulogong","lat":"-8.0536","lng":"113.3145"},{"country":"ID","name":"Krajan Wetan","lat":"-8.1104","lng":"113.2577"},{"country":"ID","name":"Pejarakan","lat":"-8.0592","lng":"113.2711"},{"country":"ID","name":"Jamintoro","lat":"-8.06","lng":"113.3565"},{"country":"ID","name":"Pondoktelo","lat":"-8.1054","lng":"113.2827"},{"country":"ID","name":"Gedangmas","lat":"-8.0729","lng":"113.3206"},{"country":"ID","name":"Umbul","lat":"-8.0805","lng":"113.2726"},{"country":"ID","name":"Randuagung","lat":"-8.0778","lng":"113.3"},{"country":"ID","name":"Tunjung","lat":"-8.0811","lng":"113.3365"},{"country":"ID","name":"Bondoyudo","lat":"-8.0927","lng":"113.2501"},{"country":"ID","name":"Stasiun","lat":"-8.0413","lng":"113.2789"},{"country":"ID","name":"Krajan Satu","lat":"-8.0976","lng":"113.2702"},{"country":"ID","name":"Krajan Satu","lat":"-8.1227","lng":"113.2649"},{"country":"ID","name":"Selokgondang","lat":"-8.107","lng":"113.2556"},{"country":"ID","name":"Uranggantung","lat":"-8.1219","lng":"113.261"},{"country":"ID","name":"Ampelgading","lat":"-8.2411","lng":"112.891"},{"country":"ID","name":"Pronojiwo","lat":"-8.1846","lng":"112.9564"},{"country":"ID","name":"Tamansari","lat":"-8.1314","lng":"112.8795"},{"country":"ID","name":"Supiturang","lat":"-8.1433","lng":"112.9733"},{"country":"ID","name":"Sumbermujur","lat":"-8.1373","lng":"112.9994"},{"country":"ID","name":"Pronojiwo","lat":"-8.1727","lng":"112.9305"},{"country":"ID","name":"Orooroombo","lat":"-8.1719","lng":"112.969"},{"country":"ID","name":"Masamba","lat":"-2.5537","lng":"120.3279"},{"country":"ID","name":"Luwu","lat":"-2.5911","lng":"120.3066"},{"country":"ID","name":"Sumberurip","lat":"-8.1854","lng":"112.9567"},{"country":"ID","name":"Sidomulyo","lat":"-8.1972","lng":"112.9172"},{"country":"ID","name":"Paguyaman","lat":".6403","lng":"122.52"},{"country":"ID","name":"Argoyuwono","lat":"-8.1774","lng":"112.8931"},{"country":"ID","name":"Tritomoyo","lat":"-8.2244","lng":"112.8916"},{"country":"ID","name":"Tirtomarto","lat":"-8.2458","lng":"112.8837"},{"country":"ID","name":"Tamanayu","lat":"-8.238","lng":"112.9491"},{"country":"ID","name":"Malangke","lat":"-2.7933","lng":"120.3743"},{"country":"ID","name":"Sidorengo","lat":"-8.2288","lng":"112.9114"},{"country":"ID","name":"Sukamaju","lat":"-2.6098","lng":"120.4664"},{"country":"ID","name":"Molobulahe","lat":".6326","lng":"122.5748"},{"country":"ID","name":"Gorontalo","lat":".7339","lng":"122.5245"},{"country":"ID","name":"Jumapolo","lat":"-7.694444","lng":"111.004722"},{"country":"ID","name":"Jumapolo","lat":"-7.703056","lng":"111.001111"},{"country":"ID","name":"Sidomulyo","lat":".6496","lng":"122.6152"},{"country":"ID","name":"Moyo Hilir","lat":"-8.5025","lng":"117.5162"},{"country":"ID","name":"Lapelopok","lat":"-8.6114","lng":"117.5913"},{"country":"ID","name":"Kakiang","lat":"-8.5117","lng":"117.58"},{"country":"ID","name":"Lopok","lat":"-8.6005","lng":"117.5418"},{"country":"ID","name":"Dete","lat":"-8.5928","lng":"117.591"},{"country":"ID","name":"Tetebatu","lat":"-8.5535","lng":"116.4198"},{"country":"ID","name":"Ploso","lat":"-7.713889","lng":"111.010833"},{"country":"ID","name":"Banyuputih","lat":"-7.8129","lng":"114.3393"},{"country":"ID","name":"Sumberanyar","lat":"-7.8077","lng":"114.3601"},{"country":"ID","name":"Sumberejo","lat":"-7.7962","lng":"114.2573"},{"country":"ID","name":"Perian Selatan","lat":"-8.5641","lng":"116.393"},{"country":"ID","name":"Kerato","lat":"-8.5042","lng":"117.4038"},{"country":"ID","name":"Brangbara","lat":"-8.5029","lng":"117.4221"},{"country":"ID","name":"Pekat","lat":"-8.5076","lng":"117.4274"},{"country":"ID","name":"Seketeng","lat":"-8.506","lng":"117.4405"},{"country":"ID","name":"Ngeru","lat":"-8.5171","lng":"117.5158"},{"country":"ID","name":"Terara","lat":"-8.5894","lng":"116.3963"},{"country":"ID","name":"Sikur","lat":"-8.5821","lng":"116.4182"},{"country":"ID","name":"Masbagik","lat":"-8.5428","lng":"116.4516"},{"country":"ID","name":"Wajegeseng","lat":"-8.5175","lng":"116.3761"},{"country":"ID","name":"Tetebatu","lat":"-8.5056","lng":"116.4106"},{"country":"ID","name":"Kembangkuning","lat":"-8.5142","lng":"116.4223"},{"country":"ID","name":"Jurit","lat":"-8.5116","lng":"116.4365"},{"country":"ID","name":"Pengadangan","lat":"-8.5056","lng":"116.452"},{"country":"ID","name":"Lenek Daya","lat":"-8.5064","lng":"116.4703"},{"country":"ID","name":"Keroak","lat":"-8.5705","lng":"116.498"},{"country":"ID","name":"Puyung","lat":"-8.6881","lng":"116.244"},{"country":"ID","name":"Kediri","lat":"-8.6343","lng":"116.1515"},{"country":"ID","name":"Poto","lat":"-8.5084","lng":"117.4718"},{"country":"ID","name":"Berare","lat":"-8.5107","lng":"117.4976"},{"country":"ID","name":"Samapuin","lat":"-8.5134","lng":"117.4216"},{"country":"ID","name":"Jorok","lat":"-8.5256","lng":"117.4198"},{"country":"ID","name":"Boak","lat":"-8.5495","lng":"117.4484"},{"country":"ID","name":"Kerekeh","lat":"-8.5613","lng":"117.3952"},{"country":"ID","name":"Serading","lat":"-8.571","lng":"117.4947"},{"country":"ID","name":"Pernek","lat":"-8.584","lng":"117.4304"},{"country":"ID","name":"Mokong","lat":"-8.6131","lng":"117.387"},{"country":"ID","name":"Perian","lat":"-8.5366","lng":"116.3883"},{"country":"ID","name":"Pringgajurang","lat":"-8.5627","lng":"116.4074"},{"country":"ID","name":"Rempungtimur Utara","lat":"-8.6118","lng":"116.4991"},{"country":"ID","name":"Danger Utara","lat":"-8.6121","lng":"116.4594"},{"country":"ID","name":"Batubulan","lat":"-8.5961","lng":"117.4677"},{"country":"ID","name":"Montongbetok","lat":"-8.5739","lng":"116.3995"},{"country":"ID","name":"Lendangnangka","lat":"-8.5761","lng":"116.4375"},{"country":"ID","name":"Jenggik","lat":"-8.5914","lng":"116.3824"},{"country":"ID","name":"Kilang","lat":"-8.6068","lng":"116.3947"},{"country":"ID","name":"Loyok","lat":"-8.6122","lng":"116.4277"},{"country":"ID","name":"Kesik","lat":"-8.6163","lng":"116.4418"},{"country":"ID","name":"Celep","lat":"-7.5075","lng":"111.0025"},{"country":"ID","name":"Terusa","lat":"-8.4884","lng":"117.031"},{"country":"ID","name":"Danger","lat":"-8.6082","lng":"116.4546"},{"country":"ID","name":"Kalabeso","lat":"-8.4709","lng":"117.061"},{"country":"ID","name":"Masbagik Utara","lat":"-8.6127","lng":"116.4744"},{"country":"ID","name":"Masbagik Timur","lat":"-8.6191","lng":"116.4894"},{"country":"ID","name":"Rempung","lat":"-8.6127","lng":"116.4974"},{"country":"ID","name":"Pringgasela","lat":"-8.5924","lng":"116.4789"},{"country":"ID","name":"Karangbaru","lat":"-8.6212","lng":"116.4759"},{"country":"ID","name":"Timba Lauk","lat":"-8.621","lng":"116.4446"},{"country":"ID","name":"Masbagik","lat":"-8.622","lng":"116.4773"},{"country":"ID","name":"Kotaraja","lat":"-8.584","lng":"116.4187"},{"country":"ID","name":"Delingan","lat":"-7.597778","lng":"111.006111"},{"country":"ID","name":"Gubuk Daya","lat":"-8.5859","lng":"116.4821"},{"country":"ID","name":"Bangekdewa","lat":"-8.7476","lng":"116.1921"},{"country":"ID","name":"Karang Daye","lat":"-8.7448","lng":"116.2413"},{"country":"ID","name":"Penunjak","lat":"-8.7452","lng":"116.24"},{"country":"ID","name":"Kelungkung","lat":"-8.5518","lng":"117.3368"},{"country":"ID","name":"Cungapmimbo","lat":"-7.7794","lng":"114.2878"},{"country":"ID","name":"Gubukjero Timuk","lat":"-8.5605","lng":"116.4792"},{"country":"ID","name":"Sumberanyar","lat":"-7.7824","lng":"114.2997"},{"country":"ID","name":"Sepolong Timur","lat":"-8.585","lng":"116.4539"},{"country":"ID","name":"Bawen","lat":"-7.228889","lng":"110.433611"},{"country":"ID","name":"Kampungmasjid","lat":"-8.5984","lng":"116.4498"},{"country":"ID","name":"Gayamdompo","lat":"-7.6175","lng":"111.005556"},{"country":"ID","name":"Bringin","lat":"-7.245","lng":"110.516667"},{"country":"ID","name":"Pakis","lat":"-7.248611","lng":"110.534444"},{"country":"ID","name":"Sendang","lat":"-7.238611","lng":"110.558611"},{"country":"ID","name":"Wonokerto","lat":"-7.238889","lng":"110.575556"},{"country":"ID","name":"Dayanpeken","lat":"-8.592","lng":"116.4209"},{"country":"ID","name":"Mojogedang","lat":"-7.55","lng":"111.007222"},{"country":"ID","name":"Mujur","lat":"-8.6036","lng":"116.4012"},{"country":"ID","name":"Jatipuro","lat":"-7.741667","lng":"111.029722"},{"country":"ID","name":"Semongkat","lat":"-8.5721","lng":"117.3193"},{"country":"ID","name":"Batudulang","lat":"-8.5873","lng":"117.2809"},{"country":"ID","name":"Moyo","lat":"-8.5413","lng":"117.5073"},{"country":"ID","name":"Lopokloka","lat":"-8.608","lng":"117.5475"},{"country":"ID","name":"Lopok","lat":"-8.608","lng":"117.5475"},{"country":"ID","name":"Labuhanburung","lat":"-8.4422","lng":"117.0418"},{"country":"ID","name":"Labuhanbajo","lat":"-8.3969","lng":"117.0796"},{"country":"ID","name":"Satowebrang","lat":"-8.4371","lng":"117.0894"},{"country":"ID","name":"Pukat","lat":"-8.3905","lng":"117.1043"},{"country":"ID","name":"Dalamdesa Selatan","lat":"-8.5938","lng":"116.4115"},{"country":"ID","name":"Jatisuko","lat":"-7.731944","lng":"111.006667"},{"country":"ID","name":"Permas","lat":"-8.7376","lng":"116.2078"},{"country":"ID","name":"Balepanjang","lat":"-8.000556","lng":"110.920278"},{"country":"ID","name":"Gebang","lat":"-7.651667","lng":"109.996389"},{"country":"ID","name":"Boro Kulon","lat":"-7.740556","lng":"109.998611"},{"country":"ID","name":"Gintungan","lat":"-7.685","lng":"109.997222"},{"country":"ID","name":"Gesi","lat":"-7.338611","lng":"111.009444"},{"country":"ID","name":"Batuwarno","lat":"-7.993056","lng":"111.008333"},{"country":"ID","name":"Giriwoyo","lat":"-8.04","lng":"110.929722"},{"country":"ID","name":"Banyukuning","lat":"-7.246667","lng":"110.345278"},{"country":"ID","name":"Bantal","lat":"-7.234722","lng":"110.621944"},{"country":"ID","name":"Bengle","lat":"-7.243333","lng":"110.663611"},{"country":"ID","name":"Krobokan","lat":"-7.236944","lng":"110.703611"},{"country":"ID","name":"Karangjambe","lat":"-7.373889","lng":"109.615"},{"country":"ID","name":"Sidarata","lat":"-7.363611","lng":"109.593611"},{"country":"ID","name":"Panunggalan","lat":"-7.366111","lng":"109.523611"},{"country":"ID","name":"Larangan","lat":"-7.3725","lng":"109.505833"},{"country":"ID","name":"Wlahar","lat":"-7.346111","lng":"109.502222"},{"country":"ID","name":"Klapa","lat":"-7.337222","lng":"109.535556"},{"country":"ID","name":"Kecepit","lat":"-7.353611","lng":"109.558611"},{"country":"ID","name":"Karangsari","lat":"-7.340833","lng":"109.567222"},{"country":"ID","name":"Jembangan","lat":"-7.303333","lng":"109.581111"},{"country":"ID","name":"Kemiriombo","lat":"-7.4525","lng":"109.856667"},{"country":"ID","name":"Punung","lat":"-8.128611","lng":"110.998333"},{"country":"ID","name":"Donorojo","lat":"-8.158889","lng":"110.929167"},{"country":"ID","name":"Selandaka","lat":"-7.626389","lng":"109.368611"},{"country":"ID","name":"Bajing","lat":"-7.625833","lng":"109.262222"},{"country":"ID","name":"Pucung Lor","lat":"-7.628333","lng":"109.277222"},{"country":"ID","name":"Sikonco","lat":"-7.6325","lng":"109.299722"},{"country":"ID","name":"Gumiwang","lat":"-7.382778","lng":"109.796389"},{"country":"ID","name":"Sukoharjo","lat":"-7.399444","lng":"109.795278"},{"country":"ID","name":"Mergosari","lat":"-7.408056","lng":"109.813611"},{"country":"ID","name":"Pucung Wetan","lat":"-7.375833","lng":"109.833889"},{"country":"ID","name":"Kajeksan","lat":"-7.390833","lng":"109.8325"},{"country":"ID","name":"Wonokerto","lat":"-7.414167","lng":"109.827222"},{"country":"ID","name":"Leksono","lat":"-7.407778","lng":"109.8525"},{"country":"ID","name":"Jonggolsari","lat":"-7.389722","lng":"109.852222"},{"country":"ID","name":"Sidayu","lat":"-7.684722","lng":"109.2575"},{"country":"ID","name":"Jepara Wetan","lat":"-7.663333","lng":"109.252778"},{"country":"ID","name":"Binangun","lat":"-7.663333","lng":"109.268333"},{"country":"ID","name":"Alangamba","lat":"-7.663889","lng":"109.278889"},{"country":"ID","name":"Pasuruhan","lat":"-7.668889","lng":"109.290278"},{"country":"ID","name":"Kamojing","lat":"-7.661667","lng":"109.298333"},{"country":"ID","name":"Danasri","lat":"-7.645278","lng":"109.306111"},{"country":"ID","name":"Pesawahan","lat":"-7.671389","lng":"109.306944"},{"country":"ID","name":"Karangputat","lat":"-7.659167","lng":"109.317222"},{"country":"ID","name":"Danasri Lor","lat":"-7.638056","lng":"109.322778"},{"country":"ID","name":"Karanggedang","lat":"-7.637778","lng":"109.362778"},{"country":"ID","name":"Kuntili","lat":"-7.626944","lng":"109.343611"},{"country":"ID","name":"Banjareja","lat":"-7.684444","lng":"109.370278"},{"country":"ID","name":"Kendal","lat":"-8.140833","lng":"110.999167"},{"country":"ID","name":"Tambak","lat":"-7.595833","lng":"109.426667"},{"country":"ID","name":"Sumpiuh","lat":"-7.589444","lng":"109.379722"},{"country":"ID","name":"Purbalingga","lat":"-7.398333","lng":"109.389722"},{"country":"ID","name":"Besani","lat":"-7.406111","lng":"109.863056"},{"country":"ID","name":"Gunungtawang","lat":"-7.419722","lng":"109.873889"},{"country":"ID","name":"Sawangan","lat":"-7.435","lng":"109.835556"},{"country":"ID","name":"Randegan","lat":"-7.425833","lng":"109.819167"},{"country":"ID","name":"Prigi","lat":"-7.413056","lng":"109.778333"},{"country":"ID","name":"Kemiri","lat":"-7.408333","lng":"109.758611"},{"country":"ID","name":"Pesodongan","lat":"-7.453889","lng":"109.759167"},{"country":"ID","name":"Lamuk","lat":"-7.458611","lng":"109.785833"},{"country":"ID","name":"Tanggulangin","lat":"-7.766944","lng":"109.611944"},{"country":"ID","name":"Gebangsari","lat":"-7.750278","lng":"109.615833"},{"country":"ID","name":"Bomo","lat":"-8.168056","lng":"110.977222"},{"country":"ID","name":"Piton","lat":"-8.156667","lng":"110.991111"},{"country":"ID","name":"Klepo","lat":"-8.152778","lng":"110.933889"},{"country":"ID","name":"Sekar","lat":"-8.133056","lng":"110.970833"},{"country":"ID","name":"Wonoharjo","lat":"-7.564722","lng":"109.439167"},{"country":"ID","name":"Wagirpandan","lat":"-7.576667","lng":"109.426667"},{"country":"ID","name":"Watuagung","lat":"-7.568333","lng":"109.408611"},{"country":"ID","name":"Giyanti","lat":"-7.562222","lng":"109.460278"},{"country":"ID","name":"Tunjungseto","lat":"-7.575278","lng":"109.481667"},{"country":"ID","name":"Kalibeji","lat":"-7.591667","lng":"109.491944"},{"country":"ID","name":"Selokerto","lat":"-7.609167","lng":"109.494722"},{"country":"ID","name":"Semondo","lat":"-7.615278","lng":"109.499722"},{"country":"ID","name":"Wonoyoso","lat":"-7.624167","lng":"109.491389"},{"country":"ID","name":"Semampir","lat":"-7.622222","lng":"109.485"},{"country":"ID","name":"Kradenan","lat":"-7.611667","lng":"109.376667"},{"country":"ID","name":"Karanganyar","lat":"-7.671667","lng":"109.164167"},{"country":"ID","name":"Adipala","lat":"-7.661389","lng":"109.1525"},{"country":"ID","name":"Bunton","lat":"-7.681389","lng":"109.143333"},{"country":"ID","name":"Wlahar","lat":"-7.668333","lng":"109.131667"},{"country":"ID","name":"Grujugan","lat":"-7.612222","lng":"109.27"},{"country":"ID","name":"Mujur","lat":"-7.613333","lng":"109.253056"},{"country":"ID","name":"Binangun","lat":"-7.5275","lng":"109.251667"},{"country":"ID","name":"Buntu","lat":"-7.593333","lng":"109.251944"},{"country":"ID","name":"Banjarpanepen","lat":"-7.562778","lng":"109.374444"},{"country":"ID","name":"Nusamangir","lat":"-7.614444","lng":"109.304722"},{"country":"ID","name":"Pingit","lat":"-7.418889","lng":"109.516111"},{"country":"ID","name":"Karangnangka","lat":"-7.427778","lng":"109.503889"},{"country":"ID","name":"Situwangi","lat":"-7.436389","lng":"109.511944"},{"country":"ID","name":"Mandiraja Wetan","lat":"-7.4475","lng":"109.528333"},{"country":"ID","name":"Purwanegara","lat":"-7.435","lng":"109.557778"},{"country":"ID","name":"Kutayasa","lat":"-7.432778","lng":"109.61"},{"country":"ID","name":"Wiramastra","lat":"-7.454444","lng":"109.617222"},{"country":"ID","name":"Petir","lat":"-7.493611","lng":"109.591944"},{"country":"ID","name":"Kebakalan","lat":"-7.458889","lng":"109.527222"},{"country":"ID","name":"Mandiraja Kulon","lat":"-7.454167","lng":"109.519444"},{"country":"ID","name":"Banjarnegara","lat":"-7.351111","lng":"109.5875"},{"country":"ID","name":"Jepara Kulon","lat":"-7.667778","lng":"109.233889"},{"country":"ID","name":"Glempangpasir","lat":"-7.681944","lng":"109.204167"},{"country":"ID","name":"Jati","lat":"-7.6625","lng":"109.201667"},{"country":"ID","name":"Danaraja","lat":"-7.529444","lng":"109.306111"},{"country":"ID","name":"Rembang","lat":"-7.271389","lng":"109.508056"},{"country":"ID","name":"Bener Wetan","lat":"-7.78","lng":"109.753889"},{"country":"ID","name":"Miritpetikusan","lat":"-7.8025","lng":"109.766111"},{"country":"ID","name":"Blengor Wetan","lat":"-7.787778","lng":"109.769444"},{"country":"ID","name":"Tlogopragoto","lat":"-7.8075","lng":"109.791667"},{"country":"ID","name":"Selotumpeng","lat":"-7.795","lng":"109.801389"},{"country":"ID","name":"Lembupurwo","lat":"-7.813333","lng":"109.805"},{"country":"ID","name":"Wergonayan","lat":"-7.798611","lng":"109.814722"},{"country":"ID","name":"Rowo","lat":"-7.806667","lng":"109.829167"},{"country":"ID","name":"Pasaranom","lat":"-7.821389","lng":"109.860278"},{"country":"ID","name":"Dudu Kulon","lat":"-7.808611","lng":"109.87"},{"country":"ID","name":"Rowodadi","lat":"-7.789167","lng":"109.866111"},{"country":"ID","name":"Bendungan","lat":"-7.786111","lng":"109.856667"},{"country":"ID","name":"Sumbersari","lat":"-7.774722","lng":"109.856389"},{"country":"ID","name":"Tanjunganom","lat":"-7.767222","lng":"109.843333"},{"country":"ID","name":"Ngeposari","lat":"-8.006667","lng":"110.6725"},{"country":"ID","name":"Sidorejo","lat":"-8.000278","lng":"110.6975"},{"country":"ID","name":"Bedoyo","lat":"-8.0225","lng":"110.7375"},{"country":"ID","name":"Pucanganom","lat":"-8.043889","lng":"110.728333"},{"country":"ID","name":"Candirejo","lat":"-8.063056","lng":"110.669722"},{"country":"ID","name":"Petir","lat":"-8.083333","lng":"110.730833"},{"country":"ID","name":"Mertasinga","lat":"-7.677222","lng":"109.056667"},{"country":"ID","name":"Gumilir","lat":"-7.686111","lng":"109.046111"},{"country":"ID","name":"Kebonmanis","lat":"-7.695","lng":"109.035"},{"country":"ID","name":"Jangrana","lat":"-7.640278","lng":"109.058889"},{"country":"ID","name":"Buluspesantren","lat":"-7.750278","lng":"109.691389"},{"country":"ID","name":"Indrosari","lat":"-7.750833","lng":"109.701944"},{"country":"ID","name":"Gondanglegi","lat":"-7.763611","lng":"109.708611"},{"country":"ID","name":"Sidoluhur","lat":"-7.765833","lng":"109.746111"},{"country":"ID","name":"Bener Kulon","lat":"-7.782222","lng":"109.744444"},{"country":"ID","name":"Petangkuran","lat":"-7.795556","lng":"109.737222"},{"country":"ID","name":"Kenoyojayan","lat":"-7.789722","lng":"109.716389"},{"country":"ID","name":"Kaliori","lat":"-7.500278","lng":"109.291111"},{"country":"ID","name":"Sudagaran","lat":"-7.518056","lng":"109.293333"},{"country":"ID","name":"Sokawera","lat":"-7.526111","lng":"109.311111"},{"country":"ID","name":"Srowot","lat":"-7.508889","lng":"109.321389"},{"country":"ID","name":"Kanding","lat":"-7.518611","lng":"109.3475"},{"country":"ID","name":"Kemawi","lat":"-7.533333","lng":"109.370278"},{"country":"ID","name":"Klinting","lat":"-7.540556","lng":"109.34"},{"country":"ID","name":"Tanggeran","lat":"-7.547222","lng":"109.318889"},{"country":"ID","name":"Kedunggede","lat":"-7.534722","lng":"109.285"},{"country":"ID","name":"Tritih Kulon","lat":"-7.655833","lng":"109.027222"},{"country":"ID","name":"Gunungsimping","lat":"-7.702778","lng":"109.025278"},{"country":"ID","name":"Plempukankembaran","lat":"-7.781111","lng":"109.705278"},{"country":"ID","name":"Singosari","lat":"-7.754722","lng":"109.732778"},{"country":"ID","name":"Sinungrejo","lat":"-7.752778","lng":"109.743056"},{"country":"ID","name":"Adipala","lat":"-7.655278","lng":"109.179444"},{"country":"ID","name":"Dudu Wetan","lat":"-7.812778","lng":"109.874722"},{"country":"ID","name":"Semanu","lat":"-8.033889","lng":"110.651944"},{"country":"ID","name":"Tlogorejo","lat":"-7.761944","lng":"109.816944"},{"country":"ID","name":"Sirnoboyo","lat":"-7.76","lng":"109.798056"},{"country":"ID","name":"Pekutan","lat":"-7.758333","lng":"109.7775"},{"country":"ID","name":"Wirogaten","lat":"-7.766944","lng":"109.765278"},{"country":"ID","name":"Rowosari","lat":"-7.767222","lng":"109.812222"},{"country":"ID","name":"Tlogodepok","lat":"-7.808611","lng":"109.778056"},{"country":"ID","name":"Wareng","lat":"-7.769167","lng":"109.875"},{"country":"ID","name":"Kedungsri","lat":"-7.751667","lng":"109.849167"},{"country":"ID","name":"Sruwuhdukuh","lat":"-7.750833","lng":"109.843611"},{"country":"ID","name":"Klirong","lat":"-7.726111","lng":"109.638889"},{"country":"ID","name":"Kalikajar","lat":"-7.376944","lng":"109.381389"},{"country":"ID","name":"Selanegara","lat":"-7.378611","lng":"109.42"},{"country":"ID","name":"Kamulyan","lat":"-7.6075","lng":"109.401944"},{"country":"ID","name":"Purwodadi","lat":"-7.606111","lng":"109.424444"},{"country":"ID","name":"Sukomulyo","lat":"-7.592222","lng":"109.470278"},{"country":"ID","name":"Sered","lat":"-7.368611","lng":"109.712778"},{"country":"ID","name":"Karangkemiri","lat":"-7.374444","lng":"109.644722"},{"country":"ID","name":"Wanakarsa","lat":"-7.373333","lng":"109.634167"},{"country":"ID","name":"Banjarmangu","lat":"-7.338611","lng":"109.695"},{"country":"ID","name":"Wanadadi","lat":"-7.361667","lng":"109.658333"},{"country":"ID","name":"Madukara","lat":"-7.366111","lng":"109.738889"},{"country":"ID","name":"Sidakaya","lat":"-7.728333","lng":"109.015833"},{"country":"ID","name":"Tegalreja","lat":"-7.722222","lng":"109.006944"},{"country":"ID","name":"Paseh","lat":"-7.342222","lng":"109.666667"},{"country":"ID","name":"Kandangwangi","lat":"-7.362222","lng":"109.652778"},{"country":"ID","name":"Karangjati","lat":"-7.583056","lng":"109.221944"},{"country":"ID","name":"Ketanggung","lat":"-7.598333","lng":"109.194167"},{"country":"ID","name":"Paketingan","lat":"-7.590556","lng":"109.185833"},{"country":"ID","name":"Klopogodo","lat":"-7.596389","lng":"109.535"},{"country":"ID","name":"Wonosigro","lat":"-7.593889","lng":"109.525556"},{"country":"ID","name":"Gombong","lat":"-7.607222","lng":"109.515833"},{"country":"ID","name":"Wonokriyo","lat":"-7.611111","lng":"109.508333"},{"country":"ID","name":"Gumelar Lor","lat":"-7.610833","lng":"109.384444"},{"country":"ID","name":"Gunturharjo","lat":"-8.189722","lng":"110.88"},{"country":"ID","name":"Gendayakan","lat":"-8.146111","lng":"110.884167"},{"country":"ID","name":"Sawahan","lat":"-8.177222","lng":"110.919167"},{"country":"ID","name":"Widoro","lat":"-8.195","lng":"110.911389"},{"country":"ID","name":"Kalak","lat":"-8.193333","lng":"110.933333"},{"country":"ID","name":"Banjar Kulon","lat":"-7.373611","lng":"109.681389"},{"country":"ID","name":"Petambakan","lat":"-7.374722","lng":"109.691667"},{"country":"ID","name":"Blitar","lat":"-7.371111","lng":"109.701944"},{"country":"ID","name":"Rakitan","lat":"-7.360556","lng":"109.703889"},{"country":"ID","name":"Kendaga","lat":"-7.330278","lng":"109.697778"},{"country":"ID","name":"Prendengan","lat":"-7.304444","lng":"109.694167"},{"country":"ID","name":"Pagerpelah","lat":"-7.283889","lng":"109.696111"},{"country":"ID","name":"Sampang","lat":"-7.283333","lng":"109.722778"},{"country":"ID","name":"Gumelar","lat":"-7.296667","lng":"109.730833"},{"country":"ID","name":"Purwadadi","lat":"-7.280556","lng":"109.738889"},{"country":"ID","name":"Paweden","lat":"-7.306389","lng":"109.717222"},{"country":"ID","name":"Nagasari","lat":"-7.329722","lng":"109.744722"},{"country":"ID","name":"Gununggiana","lat":"-7.350833","lng":"109.743056"},{"country":"ID","name":"Pakelen","lat":"-7.337778","lng":"109.731667"},{"country":"ID","name":"Sumberejo","lat":"-7.6","lng":"109.796944"},{"country":"ID","name":"Pamriyan","lat":"-7.583333","lng":"109.847778"},{"country":"ID","name":"Sendangdalem","lat":"-7.614722","lng":"109.773889"},{"country":"ID","name":"Kemranggen","lat":"-7.575","lng":"109.871111"},{"country":"ID","name":"Padureso","lat":"-7.614722","lng":"109.806111"},{"country":"ID","name":"Panerusan","lat":"-7.565","lng":"109.829722"},{"country":"ID","name":"Bulupayung","lat":"-7.589167","lng":"109.131944"},{"country":"ID","name":"Losari","lat":"-7.564722","lng":"109.155556"},{"country":"ID","name":"Panisihan","lat":"-7.589167","lng":"109.159444"},{"country":"ID","name":"Sampang","lat":"-7.565556","lng":"109.198611"},{"country":"ID","name":"Randegan","lat":"-7.569167","lng":"109.232778"},{"country":"ID","name":"Sawangan","lat":"-7.551944","lng":"109.225278"},{"country":"ID","name":"Karangsari","lat":"-7.566389","lng":"109.249444"},{"country":"ID","name":"Cindaga","lat":"-7.5475","lng":"109.187778"},{"country":"ID","name":"Rawalo","lat":"-7.534167","lng":"109.177778"},{"country":"ID","name":"Adisara","lat":"-7.544722","lng":"109.128611"},{"country":"ID","name":"Margasana","lat":"-7.531111","lng":"109.1375"},{"country":"ID","name":"Sanggreman","lat":"-7.507222","lng":"109.137778"},{"country":"ID","name":"Karangpetir","lat":"-7.629722","lng":"109.395833"},{"country":"ID","name":"Gebangsari","lat":"-7.640556","lng":"109.406944"},{"country":"ID","name":"Rowokele","lat":"-7.635278","lng":"109.426389"},{"country":"ID","name":"Tugu","lat":"-7.644444","lng":"109.451667"},{"country":"ID","name":"Margosono","lat":"-7.632778","lng":"109.484167"},{"country":"ID","name":"Rogodono","lat":"-7.646667","lng":"109.483056"},{"country":"ID","name":"Banyumudal","lat":"-7.646944","lng":"109.471667"},{"country":"ID","name":"Kalisari","lat":"-7.667222","lng":"109.451111"},{"country":"ID","name":"Pringtutul","lat":"-7.650556","lng":"109.428333"},{"country":"ID","name":"Redisari","lat":"-7.661667","lng":"109.425"},{"country":"ID","name":"Wangunwen","lat":"-7.682222","lng":"109.416667"},{"country":"ID","name":"Kedungweru","lat":"-7.6525","lng":"109.3925"},{"country":"ID","name":"Binangun","lat":"-7.256667","lng":"109.715278"},{"country":"ID","name":"Gunungwuled","lat":"-7.282778","lng":"109.561111"},{"country":"ID","name":"Grenggeng","lat":"-7.602222","lng":"109.551111"},{"country":"ID","name":"Sempol","lat":"-7.387222","lng":"109.766667"},{"country":"ID","name":"Plodongan","lat":"-7.380833","lng":"109.776389"},{"country":"ID","name":"Wanacipta","lat":"-7.396111","lng":"109.754722"},{"country":"ID","name":"Gembongan","lat":"-7.399722","lng":"109.765"},{"country":"ID","name":"Karangmanggu","lat":"-7.406389","lng":"109.751389"},{"country":"ID","name":"Karangsembung","lat":"-7.682778","lng":"109.350833"},{"country":"ID","name":"Karangtawang","lat":"-7.692222","lng":"109.324167"},{"country":"ID","name":"Pagubugan","lat":"-7.690556","lng":"109.314167"},{"country":"ID","name":"Widarapayung Wetan","lat":"-7.685556","lng":"109.268333"},{"country":"ID","name":"Pucungkerep","lat":"-7.461667","lng":"109.8025"},{"country":"ID","name":"Gambaran","lat":"-7.457222","lng":"109.8225"},{"country":"ID","name":"Beji","lat":"-7.306667","lng":"109.678333"},{"country":"ID","name":"Kertayasa","lat":"-7.457222","lng":"109.500556"},{"country":"ID","name":"Kaliwungu","lat":"-7.489722","lng":"109.505556"},{"country":"ID","name":"Somawangi","lat":"-7.484722","lng":"109.516389"},{"country":"ID","name":"Bandingan","lat":"-7.387222","lng":"109.622222"},{"country":"ID","name":"Purwodadi","lat":"-8.1525","lng":"110.6775"},{"country":"ID","name":"Balong","lat":"-8.160556","lng":"110.700833"},{"country":"ID","name":"Jepitu","lat":"-8.166667","lng":"110.721389"},{"country":"ID","name":"Kebumen","lat":"-7.684444","lng":"109.6825"},{"country":"ID","name":"Sidoagung","lat":"-7.6225","lng":"109.599722"},{"country":"ID","name":"Nangkod","lat":"-7.385833","lng":"109.531111"},{"country":"ID","name":"Sambong","lat":"-7.383611","lng":"109.551389"},{"country":"ID","name":"Pracimantoro","lat":"-8.057778","lng":"110.797778"},{"country":"ID","name":"Giritontro","lat":"-8.078056","lng":"110.866667"},{"country":"ID","name":"Waluyorejo","lat":"-7.754722","lng":"109.533056"},{"country":"ID","name":"Sidoharjo","lat":"-7.761667","lng":"109.551111"},{"country":"ID","name":"Puliharjo","lat":"-7.751667","lng":"109.555278"},{"country":"ID","name":"Munggu","lat":"-7.753889","lng":"109.584167"},{"country":"ID","name":"Tegalretno","lat":"-7.769722","lng":"109.599167"},{"country":"ID","name":"Grugu","lat":"-7.476667","lng":"109.826944"},{"country":"ID","name":"Ngadisono","lat":"-7.499444","lng":"109.825833"},{"country":"ID","name":"Medono","lat":"-7.499444","lng":"109.853056"},{"country":"ID","name":"Bendungan","lat":"-7.496667","lng":"109.870556"},{"country":"ID","name":"Sukoreno","lat":"-7.4625","lng":"109.873889"},{"country":"ID","name":"Tanjunganom","lat":"-7.458333","lng":"109.836667"},{"country":"ID","name":"Pakikiran","lat":"-7.513611","lng":"109.378333"},{"country":"ID","name":"Panerusan Wetan","lat":"-7.514444","lng":"109.395556"},{"country":"ID","name":"Gumelem Kulon","lat":"-7.521389","lng":"109.406111"},{"country":"ID","name":"Gumelem Wetan","lat":"-7.510556","lng":"109.423056"},{"country":"ID","name":"Berta","lat":"-7.503333","lng":"109.441389"},{"country":"ID","name":"Sirkandi","lat":"-7.500278","lng":"109.452222"},{"country":"ID","name":"Adireja Wetan","lat":"-7.651389","lng":"109.169722"},{"country":"ID","name":"Adiraja","lat":"-7.656111","lng":"109.178889"},{"country":"ID","name":"Pesanggrahan","lat":"-7.639722","lng":"109.23"},{"country":"ID","name":"Kroya","lat":"-7.632778","lng":"109.240278"},{"country":"ID","name":"Binangun","lat":"-7.676111","lng":"109.300278"},{"country":"ID","name":"Kejobong","lat":"-7.395278","lng":"109.503333"},{"country":"ID","name":"Tribuana","lat":"-7.380833","lng":"109.572222"},{"country":"ID","name":"Badamita","lat":"-7.401389","lng":"109.559722"},{"country":"ID","name":"Lengkong","lat":"-7.396944","lng":"109.576111"},{"country":"ID","name":"Tapen","lat":"-7.393056","lng":"109.598611"},{"country":"ID","name":"Luwung","lat":"-7.401389","lng":"109.587778"},{"country":"ID","name":"Joho","lat":"-7.404167","lng":"109.599722"},{"country":"ID","name":"Tanjunganom","lat":"-7.4125","lng":"109.573333"},{"country":"ID","name":"Bandingan","lat":"-7.4125","lng":"109.539722"},{"country":"ID","name":"Adipasir","lat":"-7.426944","lng":"109.540278"},{"country":"ID","name":"Wero","lat":"-7.606389","lng":"109.526667"},{"country":"ID","name":"Karangkemiri","lat":"-7.622222","lng":"109.570833"},{"country":"ID","name":"Sumampir","lat":"-7.291667","lng":"109.5125"},{"country":"ID","name":"Pasegeran","lat":"-7.257778","lng":"109.579722"},{"country":"ID","name":"Beji","lat":"-7.252778","lng":"109.61"},{"country":"ID","name":"Pandanarum","lat":"-7.283056","lng":"109.606389"},{"country":"ID","name":"Bodaskarangjati","lat":"-7.314722","lng":"109.508333"},{"country":"ID","name":"Patukgawemulyo","lat":"-7.783333","lng":"109.81"},{"country":"ID","name":"Sitibentar","lat":"-7.791667","lng":"109.782222"},{"country":"ID","name":"Kertodoso","lat":"-7.774444","lng":"109.790833"},{"country":"ID","name":"Mangunranan","lat":"-7.766667","lng":"109.782778"},{"country":"ID","name":"Patukrejomulyo","lat":"-7.781944","lng":"109.798611"},{"country":"ID","name":"Langenrejo","lat":"-7.770556","lng":"109.864722"},{"country":"ID","name":"Kedungsari","lat":"-7.759167","lng":"109.852778"},{"country":"ID","name":"Tanggulangin","lat":"-7.775556","lng":"109.628889"},{"country":"ID","name":"Pageralang","lat":"-7.575278","lng":"109.287778"},{"country":"ID","name":"Alasmalang","lat":"-7.5825","lng":"109.306944"},{"country":"ID","name":"Karangsalam","lat":"-7.563333","lng":"109.322778"},{"country":"ID","name":"Selanegara","lat":"-7.598889","lng":"109.369167"},{"country":"ID","name":"Sumpiuh","lat":"-7.620278","lng":"109.373889"},{"country":"ID","name":"Pandak","lat":"-7.621389","lng":"109.337778"},{"country":"ID","name":"Sibrama","lat":"-7.612222","lng":"109.325833"},{"country":"ID","name":"Kecila","lat":"-7.597778","lng":"109.317222"},{"country":"ID","name":"Karangjati","lat":"-7.599722","lng":"109.303889"},{"country":"ID","name":"Sirau","lat":"-7.616389","lng":"109.284167"},{"country":"ID","name":"Pagedangan","lat":"-7.741111","lng":"109.741111"},{"country":"ID","name":"Melikan","lat":"-8.107222","lng":"110.776667"},{"country":"ID","name":"Karangwuni","lat":"-8.054444","lng":"110.766944"},{"country":"ID","name":"Gedong","lat":"-8.064722","lng":"110.789444"},{"country":"ID","name":"Sambiroto","lat":"-8.070556","lng":"110.828889"},{"country":"ID","name":"Banaran","lat":"-8.039167","lng":"110.853333"},{"country":"ID","name":"Sedayu","lat":"-8.045833","lng":"110.820556"},{"country":"ID","name":"Lebak","lat":"-8.034167","lng":"110.8"},{"country":"ID","name":"Trukan","lat":"-8.030278","lng":"110.836667"},{"country":"ID","name":"Kesugihan Kidul","lat":"-7.631111","lng":"109.114444"},{"country":"ID","name":"Slarang","lat":"-7.666389","lng":"109.103611"},{"country":"ID","name":"Kalisabuk","lat":"-7.641667","lng":"109.096111"},{"country":"ID","name":"Jlegong","lat":"-7.268056","lng":"109.703611"},{"country":"ID","name":"Ambal","lat":"-7.271389","lng":"109.715833"},{"country":"ID","name":"Pesuruan","lat":"-7.275278","lng":"109.681389"},{"country":"ID","name":"Mlaya","lat":"-7.285","lng":"109.628333"},{"country":"ID","name":"Tlaga","lat":"-7.308611","lng":"109.642222"},{"country":"ID","name":"Sijenggung","lat":"-7.297778","lng":"109.662778"},{"country":"ID","name":"Lemahjaya","lat":"-7.346667","lng":"109.648611"},{"country":"ID","name":"Pandan Lor","lat":"-7.766389","lng":"109.639167"},{"country":"ID","name":"Waluyo","lat":"-7.7625","lng":"109.679167"},{"country":"ID","name":"Setrojenar","lat":"-7.779722","lng":"109.666667"},{"country":"ID","name":"Brecong","lat":"-7.782778","lng":"109.683889"},{"country":"ID","name":"Rakit","lat":"-7.413889","lng":"109.557778"},{"country":"ID","name":"Tambakprogaten","lat":"-7.762778","lng":"109.631667"},{"country":"ID","name":"Leksono","lat":"-7.383056","lng":"109.831944"},{"country":"ID","name":"Kaliwiro","lat":"-7.476389","lng":"109.851667"},{"country":"ID","name":"Candirenggo","lat":"-7.687222","lng":"109.398611"},{"country":"ID","name":"Ayah","lat":"-7.714167","lng":"109.394722"},{"country":"ID","name":"Tlogosari","lat":"-7.702778","lng":"109.4175"},{"country":"ID","name":"Watukelir","lat":"-7.708056","lng":"109.446111"},{"country":"ID","name":"Pakuran","lat":"-7.69","lng":"109.462778"},{"country":"ID","name":"Buayan","lat":"-7.684167","lng":"109.484722"},{"country":"ID","name":"Kamulyan","lat":"-7.695833","lng":"109.492222"},{"country":"ID","name":"Wonodadi","lat":"-7.720833","lng":"109.457778"},{"country":"ID","name":"Weton Kulon","lat":"-7.729722","lng":"109.491667"},{"country":"ID","name":"Tambakmulyo","lat":"-7.748889","lng":"109.493333"},{"country":"ID","name":"Jladri","lat":"-7.740278","lng":"109.465278"},{"country":"ID","name":"Argopeni","lat":"-7.743333","lng":"109.400833"},{"country":"ID","name":"Nusadadi","lat":"-7.651389","lng":"109.376389"},{"country":"ID","name":"Rowodadi","lat":"-7.766944","lng":"109.857222"},{"country":"ID","name":"Wonorejo Wetan","lat":"-7.753611","lng":"109.840833"},{"country":"ID","name":"Wonorejo Kulon","lat":"-7.752222","lng":"109.834722"},{"country":"ID","name":"Balorejo","lat":"-7.760833","lng":"109.821389"},{"country":"ID","name":"Plangkapan","lat":"-7.633056","lng":"109.381944"},{"country":"ID","name":"Karangkemiri","lat":"-7.621667","lng":"109.133333"},{"country":"ID","name":"Karangreja","lat":"-7.623611","lng":"109.1425"},{"country":"ID","name":"Kemukus","lat":"-7.622778","lng":"109.518611"},{"country":"ID","name":"Kalitengah","lat":"-7.623056","lng":"109.509444"},{"country":"ID","name":"Susukan","lat":"-7.507222","lng":"109.419167"},{"country":"ID","name":"Kajoran","lat":"-7.591667","lng":"109.604722"},{"country":"ID","name":"Karangrena","lat":"-7.606389","lng":"109.127778"},{"country":"ID","name":"Klapagada","lat":"-7.620833","lng":"109.1525"},{"country":"ID","name":"Maos Lor","lat":"-7.598611","lng":"109.154722"},{"country":"ID","name":"Mernek","lat":"-7.615","lng":"109.183889"},{"country":"ID","name":"Gentasari","lat":"-7.605","lng":"109.224167"},{"country":"ID","name":"Mujur Lor","lat":"-7.602222","lng":"109.249444"},{"country":"ID","name":"Paberasan","lat":"-7.59","lng":"109.234167"},{"country":"ID","name":"Panikel","lat":"-7.640833","lng":"108.875556"},{"country":"ID","name":"Binangun","lat":"-7.65","lng":"108.898056"},{"country":"ID","name":"Ujungmanik","lat":"-7.645","lng":"108.9525"},{"country":"ID","name":"Brebeg","lat":"-7.634722","lng":"108.996111"},{"country":"ID","name":"Kutawaru","lat":"-7.685833","lng":"108.979167"},{"country":"ID","name":"Tambakreja","lat":"-7.736389","lng":"108.895833"},{"country":"ID","name":"Kagok","lat":"-6.965","lng":"108.298056"},{"country":"ID","name":"Panyindangan","lat":"-6.953889","lng":"108.318333"},{"country":"ID","name":"Sindangpala","lat":"-6.965278","lng":"108.322222"},{"country":"ID","name":"Kareo","lat":"-6.952778","lng":"108.326111"},{"country":"ID","name":"Padamara","lat":"-7.383056","lng":"109.318611"},{"country":"ID","name":"Karangjambe","lat":"-7.391111","lng":"109.328889"},{"country":"ID","name":"Babakan","lat":"-7.394167","lng":"109.342222"},{"country":"ID","name":"Kandanggampang","lat":"-7.390278","lng":"109.352222"},{"country":"ID","name":"Klapasawit","lat":"-7.401389","lng":"109.333889"},{"country":"ID","name":"Karangsentul","lat":"-7.386111","lng":"109.347778"},{"country":"ID","name":"Manduraga","lat":"-7.417778","lng":"109.324722"},{"country":"ID","name":"Kalimanah Kulon","lat":"-7.418611","lng":"109.338056"},{"country":"ID","name":"Banjaranyar","lat":"-7.429722","lng":"109.321389"},{"country":"ID","name":"Lemberang","lat":"-7.433333","lng":"109.308611"},{"country":"ID","name":"Sokawera","lat":"-7.393889","lng":"109.319722"},{"country":"ID","name":"Karangpucung","lat":"-7.3925","lng":"108.907778"},{"country":"ID","name":"Bumiharjo","lat":"-7.693056","lng":"109.624722"},{"country":"ID","name":"Banjarwinangun","lat":"-7.701944","lng":"109.61"},{"country":"ID","name":"Kritig","lat":"-7.707778","lng":"109.604444"},{"country":"ID","name":"Tanjungsari","lat":"-7.723611","lng":"109.617778"},{"country":"ID","name":"Kebonsari","lat":"-7.726944","lng":"109.596667"},{"country":"ID","name":"Nampudadi","lat":"-7.713333","lng":"109.594444"},{"country":"ID","name":"Punung","lat":"-8.132778","lng":"111.013611"},{"country":"ID","name":"Mendolo Kidul","lat":"-8.139722","lng":"111.036389"},{"country":"ID","name":"Pelem","lat":"-8.125556","lng":"111.0575"},{"country":"ID","name":"Bolosingo","lat":"-8.143889","lng":"111.118889"},{"country":"ID","name":"Panggok","lat":"-8.150278","lng":"111.106667"},{"country":"ID","name":"Semanten","lat":"-8.166111","lng":"111.117778"},{"country":"ID","name":"Tonjong","lat":"-7.183889","lng":"109.010833"},{"country":"ID","name":"Pepedan","lat":"-7.180833","lng":"109.021667"},{"country":"ID","name":"Kalijurang","lat":"-7.221667","lng":"109.003889"},{"country":"ID","name":"Adisana","lat":"-7.239722","lng":"109.029444"},{"country":"ID","name":"Plompong","lat":"-7.231667","lng":"109.060556"},{"country":"ID","name":"Kaligiri","lat":"-7.213056","lng":"109.1"},{"country":"ID","name":"Tonjong","lat":"-7.186667","lng":"109.015278"},{"country":"ID","name":"Sirampog","lat":"-7.234722","lng":"109.1175"},{"country":"ID","name":"Klesem","lat":"-8.258056","lng":"111.179444"},{"country":"ID","name":"Katipugal","lat":"-8.256111","lng":"111.163889"},{"country":"ID","name":"Kalipelus","lat":"-8.26","lng":"111.149167"},{"country":"ID","name":"Mandiraja","lat":"-7.472222","lng":"109.513333"},{"country":"ID","name":"Sidamulih","lat":"-7.505556","lng":"109.173333"},{"country":"ID","name":"Mandirancan","lat":"-7.503333","lng":"109.230278"},{"country":"ID","name":"Krandegan","lat":"-7.735278","lng":"109.554444"},{"country":"ID","name":"Kaleng","lat":"-7.741667","lng":"109.544722"},{"country":"ID","name":"Grogolpenatus","lat":"-7.740556","lng":"109.599722"},{"country":"ID","name":"Tambaksari","lat":"-7.683333","lng":"109.5"},{"country":"ID","name":"Banjarejo","lat":"-7.742778","lng":"109.508056"},{"country":"ID","name":"Sitiadi","lat":"-7.726944","lng":"109.524722"},{"country":"ID","name":"Gunungmujil","lat":"-7.6275","lng":"109.500556"},{"country":"ID","name":"Bubakan","lat":"-8.139167","lng":"111.276944"},{"country":"ID","name":"Bungur","lat":"-8.173056","lng":"111.282778"},{"country":"ID","name":"Wonosidi","lat":"-8.145278","lng":"111.328611"},{"country":"ID","name":"Ngumbul","lat":"-8.160278","lng":"111.3075"},{"country":"ID","name":"Wonodadi Kulon","lat":"-8.170556","lng":"111.365556"},{"country":"ID","name":"Nogosari","lat":"-8.173889","lng":"111.343889"},{"country":"ID","name":"Kluwih","lat":"-8.189722","lng":"111.294167"},{"country":"ID","name":"Jetak","lat":"-8.238611","lng":"111.253333"},{"country":"ID","name":"Hadiluwih","lat":"-8.238889","lng":"111.3025"},{"country":"ID","name":"Tanjungpuro","lat":"-8.229722","lng":"111.318333"},{"country":"ID","name":"Rejosari","lat":"-7.730556","lng":"109.734722"},{"country":"ID","name":"Mekarsari","lat":"-7.721944","lng":"109.745556"},{"country":"ID","name":"Kutowinangun","lat":"-7.720278","lng":"109.7375"},{"country":"ID","name":"Ampih","lat":"-7.742222","lng":"109.706667"},{"country":"ID","name":"Kloposawit","lat":"-7.725278","lng":"109.693611"},{"country":"ID","name":"Ambalkumolo","lat":"-7.748333","lng":"109.656111"},{"country":"ID","name":"Kedungsari","lat":"-7.748889","lng":"109.645"},{"country":"ID","name":"Ranterejo","lat":"-7.727222","lng":"109.655"},{"country":"ID","name":"Rantewringin","lat":"-7.733889","lng":"109.661389"},{"country":"ID","name":"Krakal","lat":"-7.605278","lng":"109.701389"},{"country":"ID","name":"Pencil","lat":"-7.603056","lng":"109.682778"},{"country":"ID","name":"Somagede","lat":"-7.521667","lng":"109.355278"},{"country":"ID","name":"Kalilandak","lat":"-7.468333","lng":"109.445833"},{"country":"ID","name":"Kroya","lat":"-7.623333","lng":"109.252222"},{"country":"ID","name":"Kemranjen","lat":"-7.588056","lng":"109.322778"},{"country":"ID","name":"Sindureja","lat":"-7.386389","lng":"109.445278"},{"country":"ID","name":"Pengadegan","lat":"-7.377778","lng":"109.463333"},{"country":"ID","name":"Pangempon","lat":"-7.389722","lng":"109.495"},{"country":"ID","name":"Penolih","lat":"-7.393333","lng":"109.428889"},{"country":"ID","name":"Tayem","lat":"-7.393889","lng":"108.903889"},{"country":"ID","name":"Karangpucung","lat":"-7.408889","lng":"108.889167"},{"country":"ID","name":"Sindangbarang","lat":"-7.433333","lng":"108.906667"},{"country":"ID","name":"Tayem Timur","lat":"-7.4075","lng":"108.923056"},{"country":"ID","name":"Cilangkap","lat":"-7.393333","lng":"108.967222"},{"country":"ID","name":"Simbang","lat":"-7.471944","lng":"109.488611"},{"country":"ID","name":"Derik","lat":"-7.498333","lng":"109.431667"},{"country":"ID","name":"Susukan","lat":"-7.49","lng":"109.399167"},{"country":"ID","name":"Panerusan Kulon","lat":"-7.498611","lng":"109.381944"},{"country":"ID","name":"Nangkasawit","lat":"-7.401667","lng":"109.478056"},{"country":"ID","name":"Bukateja","lat":"-7.42","lng":"109.424722"},{"country":"ID","name":"Kedunglegok","lat":"-7.463611","lng":"109.397222"},{"country":"ID","name":"Kedawung","lat":"-7.483056","lng":"109.413611"},{"country":"ID","name":"Krenceng","lat":"-7.411111","lng":"109.464722"},{"country":"ID","name":"Parungkamal","lat":"-7.511389","lng":"109.017778"},{"country":"ID","name":"Klapagading Kulon","lat":"-7.53","lng":"109.058056"},{"country":"ID","name":"Tinggarjaya","lat":"-7.5325","lng":"109.091667"},{"country":"ID","name":"Gerduren","lat":"-7.511389","lng":"109.089722"},{"country":"ID","name":"Tunjung","lat":"-7.521667","lng":"109.108056"},{"country":"ID","name":"Gentawangi","lat":"-7.523611","lng":"109.124167"},{"country":"ID","name":"Pekuncen","lat":"-7.566667","lng":"109.116111"},{"country":"ID","name":"Pangadegan","lat":"-7.555","lng":"109.070833"},{"country":"ID","name":"Sumberejo","lat":"-8.180278","lng":"111.086389"},{"country":"ID","name":"Sedeng","lat":"-8.178611","lng":"111.072778"},{"country":"ID","name":"Ngadirejan","lat":"-8.175","lng":"111.054167"},{"country":"ID","name":"Bangunsari","lat":"-8.195556","lng":"111.080278"},{"country":"ID","name":"Menadi","lat":"-8.193889","lng":"111.122778"},{"country":"ID","name":"Arjowinangun","lat":"-8.198056","lng":"111.12"},{"country":"ID","name":"Tanjungrejo","lat":"-7.729722","lng":"109.67"},{"country":"ID","name":"Jerukagung","lat":"-7.733333","lng":"109.646389"},{"country":"ID","name":"Karangglonggong","lat":"-7.723056","lng":"109.647222"},{"country":"ID","name":"Wotbuwono","lat":"-7.715","lng":"109.652778"},{"country":"ID","name":"Mengkowo","lat":"-7.715833","lng":"109.684167"},{"country":"ID","name":"Gesikan","lat":"-7.709722","lng":"109.691944"},{"country":"ID","name":"Panekan","lat":"-8.010278","lng":"110.838889"},{"country":"ID","name":"Baleharjo","lat":"-8.011111","lng":"110.856667"},{"country":"ID","name":"Semugih","lat":"-8.068333","lng":"110.753889"},{"country":"ID","name":"Seling","lat":"-7.603056","lng":"109.666389"},{"country":"ID","name":"Pandansari","lat":"-7.619444","lng":"109.629722"},{"country":"ID","name":"Prigi","lat":"-7.623333","lng":"109.638333"},{"country":"ID","name":"Condongcampur","lat":"-7.598056","lng":"109.627222"},{"country":"ID","name":"Peniron","lat":"-7.5875","lng":"109.651944"},{"country":"ID","name":"Watulawang","lat":"-7.580833","lng":"109.629722"},{"country":"ID","name":"Widoro","lat":"-7.614722","lng":"109.664722"},{"country":"ID","name":"Sadang","lat":"-7.525833","lng":"109.723056"},{"country":"ID","name":"Sokanandi","lat":"-7.393056","lng":"109.720833"},{"country":"ID","name":"Sokayasa","lat":"-7.405","lng":"109.724722"},{"country":"ID","name":"Semampir","lat":"-7.403056","lng":"109.671389"},{"country":"ID","name":"Gunungjati","lat":"-7.452222","lng":"109.670833"},{"country":"ID","name":"Bungkanel","lat":"-7.287222","lng":"109.400833"},{"country":"ID","name":"Kebunderan","lat":"-7.294167","lng":"109.395833"},{"country":"ID","name":"Lumpang","lat":"-7.291667","lng":"109.3875"},{"country":"ID","name":"Banjarsari","lat":"-7.29","lng":"109.379722"},{"country":"ID","name":"Banjarkerta","lat":"-7.308333","lng":"109.400278"},{"country":"ID","name":"Karangmalang","lat":"-7.312222","lng":"109.391111"},{"country":"ID","name":"Kalapacung","lat":"-7.311944","lng":"109.380833"},{"country":"ID","name":"Jambudesa","lat":"-7.293611","lng":"109.416111"},{"country":"ID","name":"Adiarsa","lat":"-7.283611","lng":"109.427778"},{"country":"ID","name":"Baleraksa","lat":"-7.294722","lng":"109.455"},{"country":"ID","name":"Grantung","lat":"-7.325278","lng":"109.477778"},{"country":"ID","name":"Pepedan","lat":"-7.329167","lng":"109.456667"},{"country":"ID","name":"Karangtengah","lat":"-7.311111","lng":"109.442778"},{"country":"ID","name":"Donosari","lat":"-7.612222","lng":"109.615833"},{"country":"ID","name":"Cilacap Utara","lat":"-7.673611","lng":"109.0375"},{"country":"ID","name":"Duren","lat":"-7.484722","lng":"109.6525"},{"country":"ID","name":"Kedunggong","lat":"-7.475833","lng":"109.745833"},{"country":"ID","name":"Masaran","lat":"-7.417778","lng":"109.646667"},{"country":"ID","name":"Pagedongan","lat":"-7.440278","lng":"109.690278"},{"country":"ID","name":"Kebutuhduwur","lat":"-7.463889","lng":"109.695"},{"country":"ID","name":"Pesangkalan","lat":"-7.451389","lng":"109.725833"},{"country":"ID","name":"Kebondalem","lat":"-7.472222","lng":"109.625833"},{"country":"ID","name":"Randegan","lat":"-7.535556","lng":"109.027778"},{"country":"ID","name":"Karangkemiri","lat":"-7.5675","lng":"109.048611"},{"country":"ID","name":"Jeruklegi Kulon","lat":"-7.6025","lng":"109.010278"},{"country":"ID","name":"Ciwuni","lat":"-7.592778","lng":"109.077778"},{"country":"ID","name":"Karangjengkol","lat":"-7.600278","lng":"109.0925"},{"country":"ID","name":"Rejasari","lat":"-7.418889","lng":"109.211667"},{"country":"ID","name":"Kober","lat":"-7.414167","lng":"109.221389"},{"country":"ID","name":"Karangsalam Kidul","lat":"-7.403611","lng":"109.213611"},{"country":"ID","name":"Bobosan","lat":"-7.404167","lng":"109.222778"},{"country":"ID","name":"Kebocoran","lat":"-7.388611","lng":"109.210833"},{"country":"ID","name":"Kutasari","lat":"-7.384444","lng":"109.231111"},{"country":"ID","name":"Pabuaran","lat":"-7.390278","lng":"109.242222"},{"country":"ID","name":"Purwokerto Lor","lat":"-7.421389","lng":"109.245833"},{"country":"ID","name":"Kranji","lat":"-7.426944","lng":"109.236389"},{"country":"ID","name":"Argosari","lat":"-7.727222","lng":"109.428611"},{"country":"ID","name":"Kutayasa","lat":"-7.385","lng":"109.745833"},{"country":"ID","name":"Kedawung","lat":"-7.682222","lng":"109.646111"},{"country":"ID","name":"Kebumen","lat":"-7.671389","lng":"109.661667"},{"country":"ID","name":"Kembaran","lat":"-7.674167","lng":"109.674444"},{"country":"ID","name":"Sumberdadi","lat":"-7.677778","lng":"109.688056"},{"country":"ID","name":"Candimulyo","lat":"-7.671944","lng":"109.694722"},{"country":"ID","name":"Tanahsari","lat":"-7.675278","lng":"109.709167"},{"country":"ID","name":"Kemangkon","lat":"-7.448611","lng":"109.386111"},{"country":"ID","name":"Karangmoncol","lat":"-7.272222","lng":"109.479444"},{"country":"ID","name":"Paguyangan","lat":"-7.282222","lng":"109.0525"},{"country":"ID","name":"Kedungmenjangan","lat":"-7.400278","lng":"109.374722"},{"country":"ID","name":"Purwokerto Kulon","lat":"-7.432778","lng":"109.244167"},{"country":"ID","name":"Kedungwuluh","lat":"-7.423056","lng":"109.225833"},{"country":"ID","name":"Soka Tengah","lat":"-7.129444","lng":"109.123056"},{"country":"ID","name":"Bukateja","lat":"-7.427778","lng":"109.454167"},{"country":"ID","name":"Karanganyar","lat":"-7.573889","lng":"109.8125"},{"country":"ID","name":"Bobotsari","lat":"-7.293056","lng":"109.380556"},{"country":"ID","name":"Buluspesantren","lat":"-7.748611","lng":"109.685"},{"country":"ID","name":"Sadang Wetan","lat":"-7.500833","lng":"109.748889"},{"country":"ID","name":"Semali","lat":"-7.565833","lng":"109.531667"},{"country":"ID","name":"Bonosari","lat":"-7.565","lng":"109.514444"},{"country":"ID","name":"Lerepkebumen","lat":"-7.675","lng":"109.731667"},{"country":"ID","name":"Tirtomoyo","lat":"-7.656111","lng":"109.741667"},{"country":"ID","name":"Tlogowulung","lat":"-7.638333","lng":"109.731944"},{"country":"ID","name":"Surotrunan","lat":"-7.655556","lng":"109.708611"},{"country":"ID","name":"Seliling","lat":"-7.646111","lng":"109.707778"},{"country":"ID","name":"Kalijerek","lat":"-7.6625","lng":"109.688333"},{"country":"ID","name":"Kawedusan","lat":"-7.665556","lng":"109.673611"},{"country":"ID","name":"Jatimulyo","lat":"-7.658611","lng":"109.674444"},{"country":"ID","name":"Sampang","lat":"-7.57","lng":"109.214167"},{"country":"ID","name":"Purwokerto Selatan","lat":"-7.443611","lng":"109.241389"},{"country":"ID","name":"Ketro","lat":"-8.168333","lng":"111.198333"},{"country":"ID","name":"Pagutan","lat":"-8.1425","lng":"111.162222"},{"country":"ID","name":"Gasang","lat":"-8.136667","lng":"111.247778"},{"country":"ID","name":"Jatigunung","lat":"-8.171389","lng":"111.2425"},{"country":"ID","name":"Wonoanti","lat":"-8.195","lng":"111.226111"},{"country":"ID","name":"Nglaran","lat":"-8.218889","lng":"111.237222"},{"country":"ID","name":"Ketepung","lat":"-8.169167","lng":"111.153333"},{"country":"ID","name":"Gunungsari","lat":"-8.142222","lng":"111.1475"},{"country":"ID","name":"Tambakrejo","lat":"-8.145278","lng":"111.1325"},{"country":"ID","name":"Banjarsari","lat":"-8.161111","lng":"111.130833"},{"country":"ID","name":"Mentoro","lat":"-8.195556","lng":"111.1325"},{"country":"ID","name":"Sumbang","lat":"-7.371944","lng":"109.271944"},{"country":"ID","name":"Jompo Kulon","lat":"-7.435278","lng":"109.330833"},{"country":"ID","name":"Jompo","lat":"-7.439722","lng":"109.336389"},{"country":"ID","name":"Blater","lat":"-7.426111","lng":"109.333611"},{"country":"ID","name":"Gambarsari","lat":"-7.432778","lng":"109.361389"},{"country":"ID","name":"Toyareka","lat":"-7.426667","lng":"109.370833"},{"country":"ID","name":"Kalimanah Wetan","lat":"-7.413333","lng":"109.343611"},{"country":"ID","name":"Bojong","lat":"-7.412778","lng":"109.374444"},{"country":"ID","name":"Penambongan","lat":"-7.401111","lng":"109.368056"},{"country":"ID","name":"Karangmanyar","lat":"-7.402222","lng":"109.361667"},{"country":"ID","name":"Purbalingga Lor","lat":"-7.386389","lng":"109.357778"},{"country":"ID","name":"Wirasana","lat":"-7.380833","lng":"109.367778"},{"country":"ID","name":"Muntang","lat":"-7.445833","lng":"109.363333"},{"country":"ID","name":"Kebumen","lat":"-7.639167","lng":"109.660556"},{"country":"ID","name":"Glingganggang","lat":"-8.018333","lng":"110.771111"},{"country":"ID","name":"Karangjongkeng","lat":"-7.157222","lng":"109.014722"},{"country":"ID","name":"Purbayasa","lat":"-7.157222","lng":"109.028056"},{"country":"ID","name":"Watujaya","lat":"-7.154722","lng":"109.037778"},{"country":"ID","name":"Kutayu","lat":"-7.161944","lng":"109.053611"},{"country":"ID","name":"Raja Wetan","lat":"-7.144167","lng":"109.070833"},{"country":"ID","name":"Jejeg","lat":"-7.150278","lng":"109.091667"},{"country":"ID","name":"Pagerkasih","lat":"-7.147222","lng":"109.101111"},{"country":"ID","name":"Cempaka","lat":"-7.180833","lng":"109.066667"},{"country":"ID","name":"Cintamanik","lat":"-7.19","lng":"109.083889"},{"country":"ID","name":"Begawat","lat":"-7.181944","lng":"109.101944"},{"country":"ID","name":"Manggis","lat":"-7.208889","lng":"109.051389"},{"country":"ID","name":"Buniwah","lat":"-7.196944","lng":"109.051111"},{"country":"ID","name":"Linggapura","lat":"-7.196111","lng":"109.029722"},{"country":"ID","name":"Kuwarasan","lat":"-7.655833","lng":"109.523611"},{"country":"ID","name":"Karanglewas","lat":"-7.41","lng":"109.186389"},{"country":"ID","name":"Bobotsari","lat":"-7.305833","lng":"109.364444"},{"country":"ID","name":"Pekuncen","lat":"-7.295833","lng":"109.369444"},{"country":"ID","name":"Dagan","lat":"-7.28","lng":"109.362222"},{"country":"ID","name":"Tlahab Kidul","lat":"-7.253333","lng":"109.3475"},{"country":"ID","name":"Bojongsari","lat":"-7.346667","lng":"109.352222"},{"country":"ID","name":"Onje","lat":"-7.335833","lng":"109.3725"},{"country":"ID","name":"Gembong","lat":"-7.365278","lng":"109.358889"},{"country":"ID","name":"Brobot","lat":"-7.370833","lng":"109.354167"},{"country":"ID","name":"Candinata","lat":"-7.308889","lng":"109.289167"},{"country":"ID","name":"Banjarsari Wetan","lat":"-7.348611","lng":"109.258333"},{"country":"ID","name":"Kretek","lat":"-7.285278","lng":"109.040278"},{"country":"ID","name":"Wanatirta","lat":"-7.292778","lng":"109.066944"},{"country":"ID","name":"Pasiraman Lor","lat":"-7.364722","lng":"109.091389"},{"country":"ID","name":"Karangtengah","lat":"-7.3575","lng":"109.123611"},{"country":"ID","name":"Pandansari","lat":"-7.271667","lng":"109.123611"},{"country":"ID","name":"Wanareja","lat":"-7.250833","lng":"109.0925"},{"country":"ID","name":"Cipetung","lat":"-7.254444","lng":"109.078333"},{"country":"ID","name":"Candiwulan","lat":"-7.274722","lng":"109.257222"},{"country":"ID","name":"Bumisari","lat":"-7.277778","lng":"109.283889"},{"country":"ID","name":"Sangkanayu","lat":"-7.272222","lng":"109.321944"},{"country":"ID","name":"Campakoah","lat":"-7.288056","lng":"109.321389"},{"country":"ID","name":"Tlagayasa","lat":"-7.275","lng":"109.341389"},{"country":"ID","name":"Gunungkarang","lat":"-7.289444","lng":"109.353333"},{"country":"ID","name":"Lambur","lat":"-7.308889","lng":"109.355556"},{"country":"ID","name":"Pagerandong","lat":"-7.305","lng":"109.328333"},{"country":"ID","name":"Pekalongan","lat":"-7.323611","lng":"109.326389"},{"country":"ID","name":"Karangcegak","lat":"-7.321944","lng":"109.289444"},{"country":"ID","name":"Gandasuli","lat":"-7.313333","lng":"109.368611"},{"country":"ID","name":"Ciberem","lat":"-7.357222","lng":"109.280833"},{"country":"ID","name":"Cikedondong","lat":"-7.496111","lng":"108.911111"},{"country":"ID","name":"Pegandekan","lat":"-7.454722","lng":"109.368889"},{"country":"ID","name":"Kalialang","lat":"-7.46","lng":"109.341944"},{"country":"ID","name":"Karangtengah","lat":"-7.444722","lng":"109.348056"},{"country":"ID","name":"Banjarsari Kidul","lat":"-7.444444","lng":"109.326111"},{"country":"ID","name":"Purwokerto","lat":"-7.443333","lng":"109.249167"},{"country":"ID","name":"Patikraja","lat":"-7.476667","lng":"109.210833"},{"country":"ID","name":"Ajibarang","lat":"-7.424444","lng":"109.091111"},{"country":"ID","name":"Sendangsari","lat":"-8.017778","lng":"111.010278"},{"country":"ID","name":"Pidekso","lat":"-8.044167","lng":"111.000278"},{"country":"ID","name":"Ngambarsari","lat":"-8.025556","lng":"111.054167"},{"country":"ID","name":"Klahang","lat":"-7.443333","lng":"109.313333"},{"country":"ID","name":"Kedongdong","lat":"-7.445556","lng":"109.289444"},{"country":"ID","name":"Bojongsari","lat":"-7.419722","lng":"109.282222"},{"country":"ID","name":"Purwokerto Wetan","lat":"-7.424722","lng":"109.256389"},{"country":"ID","name":"Purwokerto Kidul","lat":"-7.434444","lng":"109.253889"},{"country":"ID","name":"Berkoh","lat":"-7.436389","lng":"109.263333"},{"country":"ID","name":"Karangrau","lat":"-7.451389","lng":"109.260278"},{"country":"ID","name":"Karangnanas","lat":"-7.456667","lng":"109.265278"},{"country":"ID","name":"Pekaja","lat":"-7.476389","lng":"109.278056"},{"country":"ID","name":"Dadapan","lat":"-8.225","lng":"111.061111"},{"country":"ID","name":"Poko","lat":"-8.233056","lng":"111.042222"},{"country":"ID","name":"Pringkuku","lat":"-8.194167","lng":"111.011667"},{"country":"ID","name":"Pucangsewu","lat":"-8.18","lng":"111.098611"},{"country":"ID","name":"Pacitan","lat":"-8.185","lng":"111.105556"},{"country":"ID","name":"Baleharjo","lat":"-8.199444","lng":"111.100556"},{"country":"ID","name":"Ploso","lat":"-8.212778","lng":"111.101389"},{"country":"ID","name":"Karangbolong","lat":"-7.753889","lng":"109.458889"},{"country":"ID","name":"Srati","lat":"-7.754722","lng":"109.423333"},{"country":"ID","name":"Karangduwur","lat":"-7.756111","lng":"109.408889"},{"country":"ID","name":"Sambong","lat":"-8.155278","lng":"111.096389"},{"country":"ID","name":"Adimulyo","lat":"-7.693333","lng":"109.561111"},{"country":"ID","name":"Limbangan","lat":"-7.371944","lng":"109.765556"},{"country":"ID","name":"Kalibening","lat":"-7.350556","lng":"109.815278"},{"country":"ID","name":"Tlogo","lat":"-7.358889","lng":"109.8375"},{"country":"ID","name":"Wonoroto","lat":"-7.329722","lng":"109.8525"},{"country":"ID","name":"Durensawit","lat":"-7.370833","lng":"109.873889"},{"country":"ID","name":"Kuripan","lat":"-7.345556","lng":"109.861944"},{"country":"ID","name":"Gunturmadu","lat":"-7.332222","lng":"109.869167"},{"country":"ID","name":"Kalitlaga","lat":"-7.306111","lng":"109.786944"},{"country":"ID","name":"Kebasen","lat":"-7.533889","lng":"109.229722"},{"country":"ID","name":"Purwanegara","lat":"-7.466667","lng":"109.580833"},{"country":"ID","name":"Purwoharjo","lat":"-8.03","lng":"111.122222"},{"country":"ID","name":"Kebonsari","lat":"-8.051667","lng":"111.079167"},{"country":"ID","name":"Gondosari","lat":"-8.098889","lng":"111.078611"},{"country":"ID","name":"Gedongrejo","lat":"-8.059444","lng":"111.005833"},{"country":"ID","name":"Ploso","lat":"-8.085833","lng":"111.047778"},{"country":"ID","name":"Mantren","lat":"-8.1125","lng":"111.011389"},{"country":"ID","name":"Baturaden","lat":"-7.302778","lng":"109.224444"},{"country":"ID","name":"Cilongok","lat":"-7.373333","lng":"109.155833"},{"country":"ID","name":"Kawungcarang","lat":"-7.379722","lng":"109.256944"},{"country":"ID","name":"Karanggintung","lat":"-7.381111","lng":"109.250278"},{"country":"ID","name":"Tambaksari Kidul","lat":"-7.399444","lng":"109.263889"},{"country":"ID","name":"Arcawinangun","lat":"-7.416389","lng":"109.259444"},{"country":"ID","name":"Dukuhwaluh","lat":"-7.410556","lng":"109.27"},{"country":"ID","name":"Bantarwuni","lat":"-7.395","lng":"109.272778"},{"country":"ID","name":"Sumbang","lat":"-7.375278","lng":"109.280278"},{"country":"ID","name":"Karangcegak","lat":"-7.385833","lng":"109.284444"},{"country":"ID","name":"Kembaran","lat":"-7.411389","lng":"109.289167"},{"country":"ID","name":"Karanggayam","lat":"-7.473056","lng":"108.995556"},{"country":"ID","name":"Kedunggede","lat":"-7.446944","lng":"108.942778"},{"country":"ID","name":"Cingebul","lat":"-7.455","lng":"108.915278"},{"country":"ID","name":"Cidora","lat":"-7.494722","lng":"108.975"},{"country":"ID","name":"Bengbulang","lat":"-7.376111","lng":"108.935833"},{"country":"ID","name":"Srusuhjuru Tengah","lat":"-7.728333","lng":"109.5175"},{"country":"ID","name":"Purwoharjo","lat":"-7.732778","lng":"109.531111"},{"country":"ID","name":"Tukinggedong","lat":"-7.733333","lng":"109.537778"},{"country":"ID","name":"Sugiwaras","lat":"-7.7","lng":"109.546389"},{"country":"ID","name":"Joho","lat":"-7.688611","lng":"109.568056"},{"country":"ID","name":"Tepakyang","lat":"-7.696667","lng":"109.559444"},{"country":"ID","name":"Arjowinangun","lat":"-7.720833","lng":"109.561111"},{"country":"ID","name":"Podourip","lat":"-7.702222","lng":"109.588056"},{"country":"ID","name":"Wojosari","lat":"-7.700556","lng":"109.580278"},{"country":"ID","name":"Menganti","lat":"-7.681944","lng":"109.596667"},{"country":"ID","name":"Logede","lat":"-7.683889","lng":"109.623056"},{"country":"ID","name":"Ngadirojo","lat":"-8.214722","lng":"111.331944"},{"country":"ID","name":"Cokrokembang","lat":"-8.201667","lng":"111.323889"},{"country":"ID","name":"Bodag","lat":"-8.189444","lng":"111.3125"},{"country":"ID","name":"Wonodadi Wetan","lat":"-8.188889","lng":"111.362778"},{"country":"ID","name":"Pager Kidul","lat":"-8.244444","lng":"111.338889"},{"country":"ID","name":"Ngadirojo","lat":"-8.213056","lng":"111.304444"},{"country":"ID","name":"Rancamaya","lat":"-7.388056","lng":"109.144444"},{"country":"ID","name":"Babakan","lat":"-7.3825","lng":"109.180833"},{"country":"ID","name":"Singasari","lat":"-7.394167","lng":"109.177222"},{"country":"ID","name":"Dawuhan Kulon","lat":"-7.379444","lng":"109.191667"},{"country":"ID","name":"Langgonsari","lat":"-7.401667","lng":"109.169722"},{"country":"ID","name":"Pageraji","lat":"-7.414722","lng":"109.159167"},{"country":"ID","name":"Sudimara","lat":"-7.426944","lng":"109.143889"},{"country":"ID","name":"Pejogol","lat":"-7.430556","lng":"109.175278"},{"country":"ID","name":"Karangtengah","lat":"-8.019444","lng":"111.081389"},{"country":"ID","name":"Waru","lat":"-7.256944","lng":"108.875556"},{"country":"ID","name":"Karangpari","lat":"-7.259722","lng":"108.907778"},{"country":"ID","name":"Talaga","lat":"-7.278889","lng":"108.921111"},{"country":"ID","name":"Karangsari","lat":"-7.302222","lng":"108.902222"},{"country":"ID","name":"Cibentang","lat":"-7.282222","lng":"108.934167"},{"country":"ID","name":"Gumelar","lat":"-7.368611","lng":"108.989444"},{"country":"ID","name":"Sidamulya","lat":"-7.344722","lng":"108.955556"},{"country":"ID","name":"Ciruyung","lat":"-7.349444","lng":"108.93"},{"country":"ID","name":"Surusunda","lat":"-7.3675","lng":"108.907778"},{"country":"ID","name":"Laren","lat":"-7.266667","lng":"108.995"},{"country":"ID","name":"Jatilawang","lat":"-7.542778","lng":"109.131111"},{"country":"ID","name":"Pucung","lat":"-8.167778","lng":"110.785"},{"country":"ID","name":"Sumberagung","lat":"-8.140833","lng":"110.801111"},{"country":"ID","name":"Songbledeg","lat":"-8.153611","lng":"110.83"},{"country":"ID","name":"Sidomulyo","lat":"-7.768889","lng":"109.848889"},{"country":"ID","name":"Karangjati","lat":"-7.484722","lng":"109.431944"},{"country":"ID","name":"Brecek","lat":"-7.395278","lng":"109.400833"},{"country":"ID","name":"Penaruban","lat":"-7.385833","lng":"109.378889"},{"country":"ID","name":"Jatisaba","lat":"-7.399722","lng":"109.388056"},{"country":"ID","name":"Toyoreja","lat":"-7.415556","lng":"109.389722"},{"country":"ID","name":"Lamongan","lat":"-7.407222","lng":"109.395556"},{"country":"ID","name":"Tejasari","lat":"-7.408611","lng":"109.405833"},{"country":"ID","name":"Sokanegara","lat":"-7.414444","lng":"109.451667"},{"country":"ID","name":"Kutawis","lat":"-7.421667","lng":"109.4975"},{"country":"ID","name":"Kebutuh","lat":"-7.424167","lng":"109.475"},{"country":"ID","name":"Majasari","lat":"-7.435278","lng":"109.423611"},{"country":"ID","name":"Majasem","lat":"-7.4325","lng":"109.398611"},{"country":"ID","name":"Bakulan","lat":"-7.445556","lng":"109.383889"},{"country":"ID","name":"Tidu","lat":"-7.445556","lng":"109.406111"},{"country":"ID","name":"Wirasaba","lat":"-7.456944","lng":"109.416111"},{"country":"ID","name":"Donorojo","lat":"-7.523056","lng":"109.502222"},{"country":"ID","name":"Somagede","lat":"-7.522222","lng":"109.561111"},{"country":"ID","name":"Glontor","lat":"-7.525556","lng":"109.601111"},{"country":"ID","name":"Keleng","lat":"-7.588333","lng":"109.106111"},{"country":"ID","name":"Pesanggrahan","lat":"-7.589167","lng":"109.118056"},{"country":"ID","name":"Tamansari","lat":"-7.434167","lng":"109.190833"},{"country":"ID","name":"Jipang","lat":"-7.403333","lng":"109.188056"},{"country":"ID","name":"Pasir Wetan","lat":"-7.408056","lng":"109.206944"},{"country":"ID","name":"Karanglewas Lor","lat":"-7.421667","lng":"109.198611"},{"country":"ID","name":"Sebara","lat":"-7.513333","lng":"109.708333"},{"country":"ID","name":"Totogan","lat":"-7.516667","lng":"109.672778"},{"country":"ID","name":"Kalibening","lat":"-7.536389","lng":"109.635833"},{"country":"ID","name":"Logandu","lat":"-7.561111","lng":"109.636944"},{"country":"ID","name":"Karangsambung","lat":"-7.543889","lng":"109.675278"},{"country":"ID","name":"Wadasmalang","lat":"-7.559167","lng":"109.727778"},{"country":"ID","name":"Pujotirto","lat":"-7.595278","lng":"109.744167"},{"country":"ID","name":"Wonokromo","lat":"-7.621667","lng":"109.729167"},{"country":"ID","name":"Kenteng","lat":"-7.545833","lng":"109.539167"},{"country":"ID","name":"Cipawon","lat":"-7.441111","lng":"109.4575"},{"country":"ID","name":"Karangcengis","lat":"-7.438333","lng":"109.476389"},{"country":"ID","name":"Panggisari","lat":"-7.450278","lng":"109.483889"},{"country":"ID","name":"Condong","lat":"-7.302222","lng":"109.434722"},{"country":"ID","name":"Kasih","lat":"-7.31","lng":"109.4275"},{"country":"ID","name":"Kertanegara","lat":"-7.323333","lng":"109.432778"},{"country":"ID","name":"Tetel","lat":"-7.353333","lng":"109.457778"},{"country":"ID","name":"Sidareja","lat":"-7.354722","lng":"109.4475"},{"country":"ID","name":"Tumanggal","lat":"-7.35","lng":"109.483611"},{"country":"ID","name":"Tangkisan","lat":"-7.329722","lng":"109.39"},{"country":"ID","name":"Sindang","lat":"-7.343611","lng":"109.394444"},{"country":"ID","name":"Kaliori","lat":"-7.336944","lng":"109.417222"},{"country":"ID","name":"Arenan","lat":"-7.360278","lng":"109.408333"},{"country":"ID","name":"Sidanegara","lat":"-7.361667","lng":"109.421944"},{"country":"ID","name":"Slinga","lat":"-7.362778","lng":"109.390556"},{"country":"ID","name":"Gambirmanis","lat":"-8.111667","lng":"110.846111"},{"country":"ID","name":"Joho","lat":"-8.115833","lng":"110.799722"},{"country":"ID","name":"Kembangan","lat":"-7.449722","lng":"109.433333"},{"country":"ID","name":"Kaliwinasuh","lat":"-7.453889","lng":"109.465833"},{"country":"ID","name":"Purwasaba","lat":"-7.471944","lng":"109.474444"},{"country":"ID","name":"Bantarwaru","lat":"-7.375833","lng":"109.717778"},{"country":"ID","name":"Jenggawur","lat":"-7.386667","lng":"109.673333"},{"country":"ID","name":"Semarang","lat":"-7.402222","lng":"109.700556"},{"country":"ID","name":"Gemuruh","lat":"-7.404167","lng":"109.650278"},{"country":"ID","name":"Pucang","lat":"-7.394722","lng":"109.659722"},{"country":"ID","name":"Rejasa","lat":"-7.386389","lng":"109.689444"},{"country":"ID","name":"Tlagawera","lat":"-7.427222","lng":"109.728889"},{"country":"ID","name":"Karangtengah","lat":"-7.406389","lng":"109.685"},{"country":"ID","name":"Limbasari","lat":"-7.258333","lng":"109.38"},{"country":"ID","name":"Darma","lat":"-7.263889","lng":"109.43"},{"country":"ID","name":"Langkap","lat":"-7.267778","lng":"109.440278"},{"country":"ID","name":"Kramat","lat":"-7.253333","lng":"109.451667"},{"country":"ID","name":"Johunut","lat":"-8.136667","lng":"110.856944"},{"country":"ID","name":"Paranggupito","lat":"-8.1825","lng":"110.848611"},{"country":"ID","name":"Sambiharjo","lat":"-8.161111","lng":"110.874444"},{"country":"ID","name":"Jerukmudel","lat":"-8.148333","lng":"110.774722"},{"country":"ID","name":"Gudangharjo","lat":"-8.191389","lng":"110.874722"},{"country":"ID","name":"Puring","lat":"-7.726111","lng":"109.5375"},{"country":"ID","name":"Kedungwringin","lat":"-7.444722","lng":"109.220278"},{"country":"ID","name":"Karangpucung","lat":"-7.446111","lng":"109.235833"},{"country":"ID","name":"Karangklesem","lat":"-7.454167","lng":"109.238333"},{"country":"ID","name":"Tejuk","lat":"-7.457778","lng":"109.248889"},{"country":"ID","name":"Karanganyar","lat":"-7.456944","lng":"109.206389"},{"country":"ID","name":"Panusupan","lat":"-7.453889","lng":"109.169444"},{"country":"ID","name":"Sawangan Kidul","lat":"-7.467778","lng":"109.172778"},{"country":"ID","name":"Karangendep","lat":"-7.481389","lng":"109.186111"},{"country":"ID","name":"Karangsari","lat":"-7.654167","lng":"109.665278"},{"country":"ID","name":"Gemeksekti","lat":"-7.653333","lng":"109.650278"},{"country":"ID","name":"Karangpoh","lat":"-7.651667","lng":"109.639722"},{"country":"ID","name":"Aditirto","lat":"-7.661389","lng":"109.629722"},{"country":"ID","name":"Pengempon","lat":"-7.6375","lng":"109.63"},{"country":"ID","name":"Wangon","lat":"-7.403333","lng":"109.678611"},{"country":"ID","name":"Watuurip","lat":"-7.434167","lng":"109.635278"},{"country":"ID","name":"Kuwarisan","lat":"-7.715","lng":"109.728889"},{"country":"ID","name":"Tanjungsari","lat":"-7.702778","lng":"109.743611"},{"country":"ID","name":"Pesalakan","lat":"-7.691944","lng":"109.728333"},{"country":"ID","name":"Tunjungseto","lat":"-7.705278","lng":"109.718889"},{"country":"ID","name":"Pekunden","lat":"-7.704167","lng":"109.713889"},{"country":"ID","name":"Argopeni","lat":"-7.694722","lng":"109.711944"},{"country":"ID","name":"Adikarso","lat":"-7.694444","lng":"109.674167"},{"country":"ID","name":"Selang","lat":"-7.688056","lng":"109.679444"},{"country":"ID","name":"Kalirejo","lat":"-7.686111","lng":"109.6875"},{"country":"ID","name":"Kedungwinangun","lat":"-7.699722","lng":"109.653056"},{"country":"ID","name":"Podoluhur","lat":"-7.6975","lng":"109.643056"},{"country":"ID","name":"Karanggambas","lat":"-7.365556","lng":"109.308889"},{"country":"ID","name":"Karangreja","lat":"-7.349444","lng":"109.3075"},{"country":"ID","name":"Limbangan","lat":"-7.348611","lng":"109.292778"},{"country":"ID","name":"Kutasari","lat":"-7.352778","lng":"109.324167"},{"country":"ID","name":"Munjul","lat":"-7.3625","lng":"109.335"},{"country":"ID","name":"Karangklesem","lat":"-7.358889","lng":"109.316667"},{"country":"ID","name":"Samudra","lat":"-7.346667","lng":"109.002222"},{"country":"ID","name":"Petahunan","lat":"-7.37","lng":"109.036111"},{"country":"ID","name":"Semedo","lat":"-7.364444","lng":"109.051944"},{"country":"ID","name":"karangkemiri","lat":"-7.349167","lng":"109.058056"},{"country":"ID","name":"Kranggan","lat":"-7.339722","lng":"109.070833"},{"country":"ID","name":"Pagojengan","lat":"-7.275556","lng":"109.017778"},{"country":"ID","name":"Negaradaha","lat":"-7.269444","lng":"109.027778"},{"country":"ID","name":"Kalierang","lat":"-7.259167","lng":"109.021389"},{"country":"ID","name":"Langkap","lat":"-7.252778","lng":"109.029167"},{"country":"ID","name":"Kesugihan","lat":"-7.62","lng":"109.1125"},{"country":"ID","name":"Karangmangu","lat":"-7.478611","lng":"109.141111"},{"country":"ID","name":"Kedungwuluh Kidul","lat":"-7.471667","lng":"109.203889"},{"country":"ID","name":"Patikraja","lat":"-7.484167","lng":"109.226667"},{"country":"ID","name":"Karanglewas Kidul","lat":"-7.428056","lng":"109.203056"},{"country":"ID","name":"Kaligintung","lat":"-7.621111","lng":"109.840556"},{"country":"ID","name":"Kalidadap","lat":"-7.5025","lng":"109.779722"},{"country":"ID","name":"Gumelar","lat":"-7.515556","lng":"109.851389"},{"country":"ID","name":"Cangkring","lat":"-7.515556","lng":"109.758611"},{"country":"ID","name":"Somogede","lat":"-7.527778","lng":"109.782778"},{"country":"ID","name":"Tirip","lat":"-7.536667","lng":"109.832778"},{"country":"ID","name":"Wadaslintang","lat":"-7.55","lng":"109.812778"},{"country":"ID","name":"Kemangguan","lat":"-7.630278","lng":"109.666944"},{"country":"ID","name":"Karangkembang","lat":"-7.641944","lng":"109.688611"},{"country":"ID","name":"Kutosari","lat":"-7.664722","lng":"109.645278"},{"country":"ID","name":"Pejagoan","lat":"-7.627222","lng":"109.645"},{"country":"ID","name":"Penimbun","lat":"-7.573056","lng":"109.564167"},{"country":"ID","name":"Gadungrejo","lat":"-7.713611","lng":"109.629167"},{"country":"ID","name":"Tanjungsari","lat":"-7.718611","lng":"109.664444"},{"country":"ID","name":"Gunungsari","lat":"-7.541667","lng":"109.607778"},{"country":"ID","name":"Pagebangan","lat":"-7.561111","lng":"109.602778"},{"country":"ID","name":"Alian","lat":"-7.64","lng":"109.723333"},{"country":"ID","name":"Karanganyar","lat":"-8.235","lng":"111.157222"},{"country":"ID","name":"Gembuk","lat":"-8.207778","lng":"111.2"},{"country":"ID","name":"Mantren","lat":"-8.225","lng":"111.198056"},{"country":"ID","name":"Worawari","lat":"-8.242222","lng":"111.218056"},{"country":"ID","name":"Kebonagung","lat":"-8.221944","lng":"111.158611"},{"country":"ID","name":"Kebandungan","lat":"-7.126111","lng":"108.930556"},{"country":"ID","name":"Sindangwangi","lat":"-7.163889","lng":"108.8975"},{"country":"ID","name":"Jeruklegi","lat":"-7.587778","lng":"109.045556"},{"country":"ID","name":"Maos","lat":"-7.598889","lng":"109.181111"},{"country":"ID","name":"Kaligayam","lat":"-7.13","lng":"109.003611"},{"country":"ID","name":"Prigi","lat":"-7.372222","lng":"109.319722"},{"country":"ID","name":"Dawuhan","lat":"-7.368056","lng":"109.326944"},{"country":"ID","name":"Karanglewas","lat":"-7.368333","lng":"109.341944"},{"country":"ID","name":"Beji","lat":"-7.343056","lng":"109.340278"},{"country":"ID","name":"Sumingkir","lat":"-7.34","lng":"109.329167"},{"country":"ID","name":"Karangnangka","lat":"-7.326667","lng":"109.348333"},{"country":"ID","name":"Mrebet","lat":"-7.316389","lng":"109.348333"},{"country":"ID","name":"Terlaya","lat":"-7.205833","lng":"108.875278"},{"country":"ID","name":"Jipang","lat":"-7.199722","lng":"108.901667"},{"country":"ID","name":"Bantarwaru","lat":"-7.194167","lng":"108.927778"},{"country":"ID","name":"Galuh Timur","lat":"-7.191667","lng":"108.9925"},{"country":"ID","name":"Bumiayu","lat":"-7.249444","lng":"108.996944"},{"country":"ID","name":"Kalinusu","lat":"-7.218611","lng":"108.960278"},{"country":"ID","name":"Bantarkawung","lat":"-7.220833","lng":"108.919722"},{"country":"ID","name":"Sindang","lat":"-6.3","lng":"108.275"},{"country":"ID","name":"Sirnoboyo","lat":"-8.019722","lng":"110.878611"},{"country":"ID","name":"Sendangagung","lat":"-8.012222","lng":"110.915"},{"country":"ID","name":"Giritontro","lat":"-8.103611","lng":"110.894167"},{"country":"ID","name":"Giriwoyo","lat":"-8.028333","lng":"110.940556"},{"country":"ID","name":"Tukulrejo","lat":"-8.030278","lng":"110.986667"},{"country":"ID","name":"Ngancar","lat":"-8.051111","lng":"110.963889"},{"country":"ID","name":"Tirtosuworo","lat":"-8.0525","lng":"110.917222"},{"country":"ID","name":"Pucanganom","lat":"-8.047778","lng":"110.875833"},{"country":"ID","name":"Giritontro","lat":"-8.071944","lng":"110.882778"},{"country":"ID","name":"Cipicung","lat":"-6.893056","lng":"108.276667"},{"country":"ID","name":"Maja Utara","lat":"-6.883056","lng":"108.3"},{"country":"ID","name":"Sukasari Kaler","lat":"-6.905556","lng":"108.326389"},{"country":"ID","name":"Sadasari","lat":"-6.896944","lng":"108.318056"},{"country":"ID","name":"Anggrawati","lat":"-6.904167","lng":"108.283333"},{"country":"ID","name":"Sagara","lat":"-6.918056","lng":"108.312778"},{"country":"ID","name":"Wanahayu","lat":"-6.926389","lng":"108.302222"},{"country":"ID","name":"Wlahar Kulon","lat":"-7.491944","lng":"109.265556"},{"country":"ID","name":"Wlahar Wetan","lat":"-7.499444","lng":"109.273333"},{"country":"ID","name":"Sokawera Kidul","lat":"-7.490278","lng":"109.2525"},{"country":"ID","name":"Wiradadi","lat":"-7.466667","lng":"109.263333"},{"country":"ID","name":"Sokaraja Tengah","lat":"-7.462222","lng":"109.291111"},{"country":"ID","name":"Kalibagor","lat":"-7.477222","lng":"109.299167"},{"country":"ID","name":"Pajerukan","lat":"-7.476111","lng":"109.31"},{"country":"ID","name":"Plana","lat":"-7.488889","lng":"109.353611"},{"country":"ID","name":"Pelumutan","lat":"-7.479444","lng":"109.366944"},{"country":"ID","name":"Padamara","lat":"-7.381111","lng":"109.339444"},{"country":"ID","name":"Kalibagor","lat":"-7.49","lng":"109.31"},{"country":"ID","name":"Somakaton","lat":"-7.499167","lng":"109.343611"},{"country":"ID","name":"Purwokerto Timur","lat":"-7.421667","lng":"109.250556"},{"country":"ID","name":"Kalitinggar","lat":"-7.380278","lng":"109.308056"},{"country":"ID","name":"Kawunganten","lat":"-7.585833","lng":"108.952222"},{"country":"ID","name":"Cilacap","lat":"-7.574167","lng":"108.988611"},{"country":"ID","name":"Cigugur","lat":"-6.944722","lng":"108.439722"},{"country":"ID","name":"Kuningan","lat":"-6.975","lng":"108.488889"},{"country":"ID","name":"Kedondong","lat":"-6.651667","lng":"108.371111"},{"country":"ID","name":"Wiyong","lat":"-6.663056","lng":"108.365"},{"country":"ID","name":"Kedungkencana","lat":"-6.628611","lng":"108.329167"},{"country":"ID","name":"Pangkalanpari","lat":"-6.629444","lng":"108.271667"},{"country":"ID","name":"Bantarwaru","lat":"-6.6475","lng":"108.292778"},{"country":"ID","name":"Leuweunghapit","lat":"-6.647222","lng":"108.309722"},{"country":"ID","name":"Ligung Lor","lat":"-6.654722","lng":"108.275278"},{"country":"ID","name":"Wanasalam","lat":"-6.65","lng":"108.268611"},{"country":"ID","name":"Radegan Wetan","lat":"-6.651111","lng":"108.253611"},{"country":"ID","name":"Putridalem","lat":"-6.639444","lng":"108.251389"},{"country":"ID","name":"Gandawesi","lat":"-6.690278","lng":"108.265833"},{"country":"ID","name":"Lojikobong","lat":"-6.67","lng":"108.3175"},{"country":"ID","name":"Panjalin Lor","lat":"-6.684444","lng":"108.346667"},{"country":"ID","name":"Babakan","lat":"-6.686111","lng":"108.368611"},{"country":"ID","name":"Panjalin Kidul","lat":"-6.696667","lng":"108.358056"},{"country":"ID","name":"Banjaran","lat":"-6.708333","lng":"108.3475"},{"country":"ID","name":"Bakal","lat":"-7.218333","lng":"109.886667"},{"country":"ID","name":"Sembungan","lat":"-7.24","lng":"109.9175"},{"country":"ID","name":"Serang","lat":"-7.248056","lng":"109.94"},{"country":"ID","name":"Bawang","lat":"-7.141389","lng":"109.914722"},{"country":"ID","name":"Sukorejo","lat":"-7.1375","lng":"109.988889"},{"country":"ID","name":"Tambi Lor","lat":"-6.475833","lng":"108.350833"},{"country":"ID","name":"Sleman Lor","lat":"-6.465278","lng":"108.328056"},{"country":"ID","name":"Sliyeg","lat":"-6.465556","lng":"108.355"},{"country":"ID","name":"Pule","lat":"-7.850833","lng":"111.174722"},{"country":"ID","name":"Sidorejo","lat":"-7.851667","lng":"111.149722"},{"country":"ID","name":"Sugihan","lat":"-7.871667","lng":"111.138611"},{"country":"ID","name":"Miricinde","lat":"-7.831389","lng":"111.240833"},{"country":"ID","name":"Purwantoro","lat":"-7.833611","lng":"111.225556"},{"country":"ID","name":"Laranganjambe","lat":"-6.508056","lng":"108.389167"},{"country":"ID","name":"Ciawi","lat":"-6.693889","lng":"108.438333"},{"country":"ID","name":"Danawinangun","lat":"-6.696389","lng":"108.446111"},{"country":"ID","name":"Jamblang","lat":"-6.696389","lng":"108.451667"},{"country":"ID","name":"Sukagengan Lor","lat":"-6.707778","lng":"108.4575"},{"country":"ID","name":"Purbawinangun","lat":"-6.712778","lng":"108.466389"},{"country":"ID","name":"Marikangen","lat":"-6.717778","lng":"108.473056"},{"country":"ID","name":"Panembahan","lat":"-6.698333","lng":"108.496111"},{"country":"ID","name":"Tegalwangi","lat":"-6.7075","lng":"108.491389"},{"country":"ID","name":"Megucilik","lat":"-6.717778","lng":"108.498333"},{"country":"ID","name":"Karangsari","lat":"-6.728611","lng":"108.479167"},{"country":"ID","name":"Pamijahan","lat":"-6.728611","lng":"108.471944"},{"country":"ID","name":"Gelarmendala","lat":"-6.381389","lng":"108.348333"},{"country":"ID","name":"Pekandanganjaya","lat":"-6.375833","lng":"108.334722"},{"country":"ID","name":"Larangan","lat":"-6.401944","lng":"108.256944"},{"country":"ID","name":"Waru","lat":"-6.418611","lng":"108.262222"},{"country":"ID","name":"Sindangkerta","lat":"-6.386111","lng":"108.279722"},{"country":"ID","name":"Krasak","lat":"-6.4125","lng":"108.311944"},{"country":"ID","name":"Lobener Lor","lat":"-6.396667","lng":"108.3075"},{"country":"ID","name":"Longok","lat":"-6.401944","lng":"108.345278"},{"country":"ID","name":"Jungjang","lat":"-6.647222","lng":"108.418333"},{"country":"ID","name":"Kebonturi","lat":"-6.655833","lng":"108.412222"},{"country":"ID","name":"Jungjang Wetan","lat":"-6.646111","lng":"108.433611"},{"country":"ID","name":"Kalianyar","lat":"-6.636944","lng":"108.435"},{"country":"ID","name":"Panguragan Kulon","lat":"-6.627222","lng":"108.445"},{"country":"ID","name":"Panguragan Wetan","lat":"-6.627778","lng":"108.466944"},{"country":"ID","name":"Gujeg","lat":"-6.636389","lng":"108.468889"},{"country":"ID","name":"Bakung Lor","lat":"-6.645833","lng":"108.490833"},{"country":"ID","name":"Danamulya","lat":"-6.675278","lng":"108.488333"},{"country":"ID","name":"Orimalang","lat":"-6.669722","lng":"108.4775"},{"country":"ID","name":"Brenggolo","lat":"-7.916111","lng":"111.162778"},{"country":"ID","name":"Ngromo","lat":"-7.947222","lng":"111.210556"},{"country":"ID","name":"Bugelan","lat":"-7.922222","lng":"111.199722"},{"country":"ID","name":"Padarangin","lat":"-7.885","lng":"111.192778"},{"country":"ID","name":"Plosorejo","lat":"-7.917778","lng":"111.228333"},{"country":"ID","name":"Jeruk","lat":"-7.964722","lng":"111.238333"},{"country":"ID","name":"Sempu","lat":"-7.995278","lng":"111.22"},{"country":"ID","name":"Kismantoro","lat":"-7.897222","lng":"111.2325"},{"country":"ID","name":"Cigadung","lat":"-6.984722","lng":"108.464167"},{"country":"ID","name":"Sukamulya","lat":"-6.977778","lng":"108.459444"},{"country":"ID","name":"Jambar","lat":"-6.991667","lng":"108.427222"},{"country":"ID","name":"Ciherang","lat":"-6.983333","lng":"108.43"},{"country":"ID","name":"Bakom","lat":"-6.995556","lng":"108.410833"},{"country":"ID","name":"Payung","lat":"-6.854722","lng":"108.387222"},{"country":"ID","name":"Ujungsemi","lat":"-6.581389","lng":"108.385278"},{"country":"ID","name":"Kaliwedi Lor","lat":"-6.589722","lng":"108.381944"},{"country":"ID","name":"Wargabinangun","lat":"-6.575278","lng":"108.394722"},{"country":"ID","name":"Karangsambung","lat":"-6.603611","lng":"108.391111"},{"country":"ID","name":"Tegalgubug Lor","lat":"-6.622222","lng":"108.391389"},{"country":"ID","name":"Kalideres","lat":"-6.615","lng":"108.407222"},{"country":"ID","name":"Bayalangu Lor","lat":"-6.608889","lng":"108.438056"},{"country":"ID","name":"Wiroko","lat":"-7.963889","lng":"111.084444"},{"country":"ID","name":"Deplih","lat":"-7.976944","lng":"111.077778"},{"country":"ID","name":"Hargorejo","lat":"-7.956944","lng":"111.115556"},{"country":"ID","name":"Temboro","lat":"-7.991667","lng":"111.056389"},{"country":"ID","name":"Tegiri","lat":"-7.993611","lng":"111.026389"},{"country":"ID","name":"Batuwarno","lat":"-7.9875","lng":"111.004444"},{"country":"ID","name":"Sumbakeling","lat":"-6.823611","lng":"108.499167"},{"country":"ID","name":"Pancalang","lat":"-6.821667","lng":"108.489444"},{"country":"ID","name":"Sukasari","lat":"-6.816111","lng":"108.461389"},{"country":"ID","name":"Sukahaji","lat":"-6.8175","lng":"108.310278"},{"country":"ID","name":"Rajagaluh","lat":"-6.813889","lng":"108.366944"},{"country":"ID","name":"Cipanas","lat":"-6.754444","lng":"108.379444"},{"country":"ID","name":"Jerukleueut","lat":"-6.784444","lng":"108.381667"},{"country":"ID","name":"Lengkong Wetan","lat":"-6.78","lng":"108.396111"},{"country":"ID","name":"Bobos","lat":"-6.781111","lng":"108.403056"},{"country":"ID","name":"Cikalahang","lat":"-6.781667","lng":"108.411667"},{"country":"ID","name":"Dukupuntang","lat":"-6.768611","lng":"108.414444"},{"country":"ID","name":"Cikeduk","lat":"-6.755833","lng":"108.434444"},{"country":"ID","name":"Sindangmekar","lat":"-6.7575","lng":"108.443611"},{"country":"ID","name":"Mandala","lat":"-6.778333","lng":"108.426944"},{"country":"ID","name":"Padamatang","lat":"-6.788056","lng":"108.435833"},{"country":"ID","name":"Loyang","lat":"-6.536389","lng":"108.142778"},{"country":"ID","name":"Amis","lat":"-6.554722","lng":"108.173611"},{"country":"ID","name":"Tunggulpayung","lat":"-6.531667","lng":"108.216111"},{"country":"ID","name":"Rancasari","lat":"-6.515278","lng":"108.236111"},{"country":"ID","name":"Mulyasari","lat":"-6.529167","lng":"108.245278"},{"country":"ID","name":"Pilangsari","lat":"-6.598611","lng":"108.220278"},{"country":"ID","name":"Jatiraga","lat":"-6.624444","lng":"108.245833"},{"country":"ID","name":"Jatitujuh","lat":"-6.624444","lng":"108.235278"},{"country":"ID","name":"Majasari","lat":"-6.460556","lng":"108.343611"},{"country":"ID","name":"Sliyeg Lor","lat":"-6.439167","lng":"108.3475"},{"country":"ID","name":"Tugu Kidul","lat":"-6.436944","lng":"108.361111"},{"country":"ID","name":"Banjaran","lat":"-6.875278","lng":"108.295833"},{"country":"ID","name":"Lurah","lat":"-6.725556","lng":"108.463333"},{"country":"ID","name":"Keduanan","lat":"-6.726111","lng":"108.454167"},{"country":"ID","name":"Wanasaba Kidul","lat":"-6.766667","lng":"108.4975"},{"country":"ID","name":"Rajagaluh Kidul","lat":"-6.794167","lng":"108.344722"},{"country":"ID","name":"Tanjungsari","lat":"-6.796944","lng":"108.325278"},{"country":"ID","name":"Gunungkuning","lat":"-6.816111","lng":"108.326667"},{"country":"ID","name":"Palabuan","lat":"-6.799722","lng":"108.289444"},{"country":"ID","name":"Cikoneng","lat":"-6.812778","lng":"108.281944"},{"country":"ID","name":"Pinangraja","lat":"-6.797222","lng":"108.277778"},{"country":"ID","name":"Cigasong","lat":"-6.843889","lng":"108.259722"},{"country":"ID","name":"Simpeureum","lat":"-6.838333","lng":"108.264167"},{"country":"ID","name":"Tenjolayar","lat":"-6.839167","lng":"108.2775"},{"country":"ID","name":"Padahanten","lat":"-6.840278","lng":"108.292778"},{"country":"ID","name":"Sudimampir Lor","lat":"-6.4025","lng":"108.373333"},{"country":"ID","name":"Jatisawit","lat":"-6.426111","lng":"108.301389"},{"country":"ID","name":"Hegarmanah","lat":"-6.9725","lng":"108.321667"},{"country":"ID","name":"Talaga Kulon","lat":"-6.985","lng":"108.306389"},{"country":"ID","name":"Sukaperna","lat":"-6.974167","lng":"108.3025"},{"country":"ID","name":"Mekarraharja","lat":"-6.978056","lng":"108.288889"},{"country":"ID","name":"Cikidang","lat":"-6.956389","lng":"108.256389"},{"country":"ID","name":"Salawangi","lat":"-6.985278","lng":"108.276111"},{"country":"ID","name":"Maja","lat":"-6.898611","lng":"108.287778"},{"country":"ID","name":"Argapura","lat":"-6.893333","lng":"108.361667"},{"country":"ID","name":"Cipulus","lat":"-6.972778","lng":"108.381667"},{"country":"ID","name":"Situsari","lat":"-6.975","lng":"108.400556"},