[{"country":"IE","name":"Trim","lat":"53.555","lng":"-6.791667"},{"country":"IE","name":"Baile \u00c1tha Troim","lat":"53.555","lng":"-6.791667"},{"country":"IE","name":"Baile \u00c1tha Cliath","lat":"53.333056","lng":"-6.248889"},{"country":"IE","name":"Dublin","lat":"53.333056","lng":"-6.248889"},{"country":"IE","name":"Tr\u00e1 L\u00ed","lat":"52.266667","lng":"-9.716667"},{"country":"IE","name":"Tralee","lat":"52.266667","lng":"-9.716667"},{"country":"IE","name":"Leifear","lat":"54.831944","lng":"-7.483611"},{"country":"IE","name":"Lifford","lat":"54.831944","lng":"-7.483611"},{"country":"IE","name":"Cavan","lat":"53.990833","lng":"-7.360556"},{"country":"IE","name":"An Cabh\u00e1n","lat":"53.990833","lng":"-7.360556"},{"country":"IE","name":"Cluain Meala","lat":"52.355","lng":"-7.703889"},{"country":"IE","name":"Clonmel","lat":"52.355","lng":"-7.703889"},{"country":"IE","name":"Roscommon","lat":"53.633333","lng":"-8.183333"},{"country":"IE","name":"Ros Com\u00e1in","lat":"53.633333","lng":"-8.183333"},{"country":"IE","name":"Castlebar","lat":"53.85","lng":"-9.3"},{"country":"IE","name":"Caisle\u00e1n an Bharraigh","lat":"53.85","lng":"-9.3"},{"country":"IE","name":"Gaillimh","lat":"53.271944","lng":"-9.048889"},{"country":"IE","name":"Galway","lat":"53.271944","lng":"-9.048889"},{"country":"IE","name":"Glenglassra","lat":"54.313333","lng":"-9.503333"},{"country":"IE","name":"Nenagh","lat":"52.861944","lng":"-8.196667"},{"country":"IE","name":"An tAonach","lat":"52.861944","lng":"-8.196667"},{"country":"IE","name":"Baile \u00c1tha Cliath Theas","lat":"53.30592","lng":"-6.540848"},{"country":"IE","name":"South Dublin","lat":"53.30592","lng":"-6.540848"},{"country":"IE","name":"D\u00fan Laoghaire-R\u00e1th an D\u00fain","lat":"53.158713","lng":"-6.115793"},{"country":"IE","name":"D\u00fan Laoghaire-Rathdown","lat":"53.158713","lng":"-6.115793"},{"country":"IE","name":"Galway","lat":"53.290723","lng":"-9.04559"},{"country":"IE","name":"Gaillimh","lat":"53.290723","lng":"-9.04559"},{"country":"IE","name":"Gaillimh","lat":"53.377932","lng":"-8.754611"},{"country":"IE","name":"Galway","lat":"53.377932","lng":"-8.754611"},{"country":"IE","name":"Baile \u00c1tha Cliath","lat":"53.363157","lng":"-6.093874"},{"country":"IE","name":"Dublin","lat":"53.363157","lng":"-6.093874"},{"country":"IE","name":"Sligeach","lat":"54.266667","lng":"-8.483333"},{"country":"IE","name":"Sligo","lat":"54.266667","lng":"-8.483333"},{"country":"IE","name":"Luimneach","lat":"52.664722","lng":"-8.623056"},{"country":"IE","name":"Limerick","lat":"52.664722","lng":"-8.623056"},{"country":"IE","name":"Dundalk","lat":"54","lng":"-6.416667"},{"country":"IE","name":"D\u00fan Dealgan","lat":"54","lng":"-6.416667"},{"country":"IE","name":"Port L\u00e1irge","lat":"52.258333","lng":"-7.111944"},{"country":"IE","name":"Waterford","lat":"52.258333","lng":"-7.111944"},{"country":"IE","name":"An Muileann gCearr","lat":"53.533333","lng":"-7.35"},{"country":"IE","name":"Mullingar","lat":"53.533333","lng":"-7.35"},{"country":"IE","name":"Naas","lat":"53.215833","lng":"-6.666944"},{"country":"IE","name":"An N\u00e1s","lat":"53.215833","lng":"-6.666944"},{"country":"IE","name":"Port Laoise","lat":"53.032222","lng":"-7.3"},{"country":"IE","name":"An Longfort","lat":"53.733333","lng":"-7.8"},{"country":"IE","name":"Longford","lat":"53.733333","lng":"-7.8"},{"country":"IE","name":"Cill Chainnigh","lat":"52.654167","lng":"-7.252222"},{"country":"IE","name":"Kilkenny","lat":"52.654167","lng":"-7.252222"},{"country":"IE","name":"Tullamore","lat":"53.273889","lng":"-7.488889"},{"country":"IE","name":"Tulach Mh\u00f3r","lat":"53.273889","lng":"-7.488889"},{"country":"IE","name":"Carlow","lat":"52.840833","lng":"-6.926111"},{"country":"IE","name":"Ceatharlach","lat":"52.840833","lng":"-6.926111"},{"country":"IE","name":"Cill Mhant\u00e1in","lat":"52.975","lng":"-6.049444"},{"country":"IE","name":"Wicklow","lat":"52.975","lng":"-6.049444"},{"country":"IE","name":"Cora Droma R\u00faisc","lat":"53.946944","lng":"-8.09"},{"country":"IE","name":"Carrick on Shannon","lat":"53.946944","lng":"-8.09"},{"country":"IE","name":"Loch Garman","lat":"52.334167","lng":"-6.4575"},{"country":"IE","name":"Wexford","lat":"52.334167","lng":"-6.4575"},{"country":"IE","name":"Ennis","lat":"52.843611","lng":"-8.986389"},{"country":"IE","name":"Inis","lat":"52.843611","lng":"-8.986389"},{"country":"IE","name":"Corcaigh","lat":"51.898611","lng":"-8.495833"},{"country":"IE","name":"Cork","lat":"51.898611","lng":"-8.495833"},{"country":"IE","name":"D\u00fan na nGall","lat":"54.916667","lng":"-8"},{"country":"IE","name":"Donegal","lat":"54.916667","lng":"-8"},{"country":"IE","name":"Corcaigh","lat":"51.897555","lng":"-8.467727"},{"country":"IE","name":"Cork","lat":"51.897555","lng":"-8.467727"},{"country":"IE","name":"Louth","lat":"53.833333","lng":"-6.5"},{"country":"IE","name":"L\u00fa","lat":"53.833333","lng":"-6.5"},{"country":"IE","name":"Mayo","lat":"53.9","lng":"-9.25"},{"country":"IE","name":"Maigh Eo","lat":"53.9","lng":"-9.25"},{"country":"IE","name":"Meath","lat":"53.666667","lng":"-6.666667"},{"country":"IE","name":"An Mh\u00ed","lat":"53.666667","lng":"-6.666667"},{"country":"IE","name":"Muineach\u00e1n","lat":"54.25","lng":"-7"},{"country":"IE","name":"Monaghan","lat":"54.25","lng":"-7"},{"country":"IE","name":"North Tipperary","lat":"52.833878","lng":"-8.068028"},{"country":"IE","name":"Tiobraid \u00c1rann Thuaidh","lat":"52.833878","lng":"-8.068028"},{"country":"IE","name":"U\u00edbh Fhail\u00ed","lat":"53.25","lng":"-7.5"},{"country":"IE","name":"Offaly","lat":"53.25","lng":"-7.5"},{"country":"IE","name":"Ros Com\u00e1in","lat":"53.75","lng":"-8.25"},{"country":"IE","name":"Roscommon","lat":"53.75","lng":"-8.25"},{"country":"IE","name":"Sligeach","lat":"54.25","lng":"-8.666667"},{"country":"IE","name":"Sligo","lat":"54.25","lng":"-8.666667"},{"country":"IE","name":"South Tipperary","lat":"52.466863","lng":"-7.884521"},{"country":"IE","name":"Tiobraid \u00c1rann Theas","lat":"52.466863","lng":"-7.884521"},{"country":"IE","name":"Port L\u00e1irge","lat":"52.241824","lng":"-7.108426"},{"country":"IE","name":"Waterford","lat":"52.241824","lng":"-7.108426"},{"country":"IE","name":"Port L\u00e1irge","lat":"52.25","lng":"-7.5"},{"country":"IE","name":"Waterford","lat":"52.25","lng":"-7.5"},{"country":"IE","name":"An Iarmh\u00ed","lat":"53.5","lng":"-7.5"},{"country":"IE","name":"Westmeath","lat":"53.5","lng":"-7.5"},{"country":"IE","name":"Loch Garman","lat":"52.5","lng":"-6.666667"},{"country":"IE","name":"Wexford","lat":"52.5","lng":"-6.666667"},{"country":"IE","name":"Cill Mhant\u00e1in","lat":"53","lng":"-6.416667"},{"country":"IE","name":"Wicklow","lat":"53","lng":"-6.416667"},{"country":"IE","name":"Cavan","lat":"53.916667","lng":"-7.25"},{"country":"IE","name":"An Cabh\u00e1n","lat":"53.916667","lng":"-7.25"},{"country":"IE","name":"Carlow","lat":"52.666667","lng":"-6.833333"},{"country":"IE","name":"Ceatharlach","lat":"52.666667","lng":"-6.833333"},{"country":"IE","name":"An Cl\u00e1r","lat":"52.833333","lng":"-9"},{"country":"IE","name":"Clare","lat":"52.833333","lng":"-9"},{"country":"IE","name":"Cill Dara","lat":"53.166667","lng":"-6.75"},{"country":"IE","name":"Kildare","lat":"53.166667","lng":"-6.75"},{"country":"IE","name":"Ciarra\u00ed","lat":"52.166667","lng":"-9.75"},{"country":"IE","name":"Kerry","lat":"52.166667","lng":"-9.75"},{"country":"IE","name":"Cill Chainnigh","lat":"52.583333","lng":"-7.25"},{"country":"IE","name":"Kilkenny","lat":"52.583333","lng":"-7.25"},{"country":"IE","name":"Laois","lat":"53","lng":"-7.4"},{"country":"IE","name":"Laois","lat":"53","lng":"-7.4"},{"country":"IE","name":"Leitrim","lat":"54.116667","lng":"-8"},{"country":"IE","name":"Liatroim","lat":"54.116667","lng":"-8"},{"country":"IE","name":"Limerick","lat":"52.5","lng":"-8.75"},{"country":"IE","name":"Luimneach","lat":"52.5","lng":"-8.75"},{"country":"IE","name":"Limerick","lat":"52.668065","lng":"-8.650239"},{"country":"IE","name":"Luimneach","lat":"52.668065","lng":"-8.650239"},{"country":"IE","name":"An Longfort","lat":"53.666667","lng":"-7.75"},{"country":"IE","name":"Longford","lat":"53.666667","lng":"-7.75"},{"country":"IE","name":"Fingal","lat":"53.522678","lng":"-6.078036"},{"country":"IE","name":"Fine Gall","lat":"53.522678","lng":"-6.078036"},{"country":"IE","name":"Corcaigh","lat":"52.059026","lng":"-8.884195"},{"country":"IE","name":"Cork","lat":"52.059026","lng":"-8.884195"}]