[{"country":"IL","name":"H\u0331efa","lat":"32.833333","lng":"35"},{"country":"IL","name":"Ashqelon","lat":"31.666667","lng":"34.75"},{"country":"IL","name":"\u2018Akko","lat":"32.916667","lng":"35.25"},{"country":"IL","name":"\u05e0\u05e6\u05e8\u05ea","lat":"32.699253","lng":"35.30483"},{"country":"IL","name":"Na\u1e95erat","lat":"32.699253","lng":"35.30483"},{"country":"IL","name":"Nazareth","lat":"32.699253","lng":"35.30483"},{"country":"IL","name":"\u05ea\u05dc \u05d0\u05d1\u05d9\u05d1-\u05d9\u05e4\u05d5","lat":"32.050334","lng":"34.772404"},{"country":"IL","name":"Tel Aviv-Yafo","lat":"32.050334","lng":"34.772404"},{"country":"IL","name":"\u05d7\u05d9\u05e4\u05d4","lat":"32.818409","lng":"34.9885"},{"country":"IL","name":"H\u0331efa","lat":"32.818409","lng":"34.9885"},{"country":"IL","name":"Haifa","lat":"32.818409","lng":"34.9885"},{"country":"IL","name":"Beersheba","lat":"31.251641","lng":"34.786281"},{"country":"IL","name":"\u05d1\u05d0\u05e8 \u05e9\u05d1\u05e2","lat":"31.251641","lng":"34.786281"},{"country":"IL","name":"Be\u2019\u00e9r Sheva\u2018","lat":"31.251641","lng":"34.786281"},{"country":"IL","name":"\u05e8\u05de\u05dc\u05d4","lat":"31.929228","lng":"34.865633"},{"country":"IL","name":"Ramla","lat":"31.929228","lng":"34.865633"},{"country":"IL","name":"Central","lat":"32.083333","lng":"34.916667"},{"country":"IL","name":"HaMerkaz","lat":"32.083333","lng":"34.916667"},{"country":"IL","name":"\u05d4\u05de\u05e8\u05db\u05d6","lat":"32.083333","lng":"34.916667"},{"country":"IL","name":"Southern","lat":"30.666667","lng":"34.833333"},{"country":"IL","name":"HaDarom","lat":"30.666667","lng":"34.833333"},{"country":"IL","name":"\u05d4\u05d3\u05e8\u05d5\u05dd","lat":"30.666667","lng":"34.833333"},{"country":"IL","name":"Northern","lat":"32.833333","lng":"35.333333"},{"country":"IL","name":"Ha\u1e94afon","lat":"32.833333","lng":"35.333333"},{"country":"IL","name":"\u05d4\u05e6\u05e4\u05d5\u05df","lat":"32.833333","lng":"35.333333"},{"country":"IL","name":"Haifa","lat":"32.583333","lng":"35"},{"country":"IL","name":"H\u0331efa","lat":"32.583333","lng":"35"},{"country":"IL","name":"\u05d7\u05d9\u05e4\u05d4","lat":"32.583333","lng":"35"},{"country":"IL","name":"Jerusalem","lat":"31.75","lng":"35"},{"country":"IL","name":"Yerushalayim","lat":"31.75","lng":"35"},{"country":"IL","name":"\u05d9\u05e8\u05d5\u05e9\u05dc\u05d9\u05dd","lat":"31.75","lng":"35"},{"country":"IL","name":"Tel Aviv","lat":"32.084139","lng":"34.799946"},{"country":"IL","name":"Tel Aviv","lat":"32.084139","lng":"34.799946"},{"country":"IL","name":"\u05ea\u05dc \u05d0\u05d1\u05d9\u05d1","lat":"32.084139","lng":"34.799946"}]