[{"country":"JE","name":"Saint Helier","lat":"49.183333","lng":"-2.1"},{"country":"JE","name":"La Ville au Bas","lat":"49.226389","lng":"-2.212222"},{"country":"JE","name":"Gouray","lat":"49.2","lng":"-2.033333"},{"country":"JE","name":"Ville \u00e8s Quenvais","lat":"49.201944","lng":"-2.200278"},{"country":"JE","name":"La Ville des Quennevais","lat":"49.201944","lng":"-2.200278"},{"country":"JE","name":"Ville des Quenvais","lat":"49.201944","lng":"-2.200278"},{"country":"JE","name":"Saint Aubyn","lat":"49.1875","lng":"-2.170556"},{"country":"JE","name":"Rozel Seigneurie","lat":"49.236389","lng":"-2.046111"},{"country":"JE","name":"L\u2019Etac","lat":"49.236111","lng":"-2.233889"},{"country":"JE","name":"Saint Peter Church","lat":"49.212222","lng":"-2.183611"},{"country":"JE","name":"Saint Peter","lat":"49.212222","lng":"-2.183611"},{"country":"JE","name":"Saint Peter\u2019s","lat":"49.212222","lng":"-2.183611"},{"country":"JE","name":"Saint John\u2019s","lat":"49.245556","lng":"-2.138611"},{"country":"JE","name":"Saint Jean","lat":"49.245556","lng":"-2.138611"},{"country":"JE","name":"St. John\u2019s Church","lat":"49.245556","lng":"-2.138611"},{"country":"JE","name":"Saint John","lat":"49.245556","lng":"-2.138611"},{"country":"JE","name":"La Ville \u00e8s Nouaux","lat":"49.194722","lng":"-2.128611"},{"country":"JE","name":"La Ville Bagot","lat":"49.243611","lng":"-2.2075"},{"country":"JE","name":"Le Mont Ficquet","lat":"49.179722","lng":"-2.214167"},{"country":"JE","name":"Mount Mado","lat":"49.246944","lng":"-2.124167"},{"country":"JE","name":"Le Mont Mado","lat":"49.246944","lng":"-2.124167"},{"country":"JE","name":"La Perruqe","lat":"49.251667","lng":"-2.144167"}]