[{"country":"LU","name":"K\u00e4erjeng","lat":"49.583115","lng":"5.898916"},{"country":"LU","name":"Garnich","lat":"49.613998","lng":"5.936554"},{"country":"LU","name":"Mamer","lat":"49.629681","lng":"6.008453"},{"country":"LU","name":"Bissen","lat":"49.790541","lng":"6.056359"},{"country":"LU","name":"Schieren","lat":"49.827001","lng":"6.112745"},{"country":"LU","name":"Bettendorf","lat":"49.868972","lng":"6.206862"},{"country":"LU","name":"Reisdorf","lat":"49.866428","lng":"6.270455"},{"country":"LU","name":"Vall\u00e9e de l\u2019Ernz","lat":"49.821489","lng":"6.217461"},{"country":"LU","name":"Beaufort","lat":"49.83548","lng":"6.293349"},{"country":"LU","name":"Berdorf","lat":"49.820217","lng":"6.353974"},{"country":"LU","name":"Waldbillig","lat":"49.797748","lng":"6.283598"},{"country":"LU","name":"Consdorf","lat":"49.779094","lng":"6.330657"},{"country":"LU","name":"Bech","lat":"49.747721","lng":"6.342104"},{"country":"LU","name":"Koerich","lat":"49.668285","lng":"5.959958"},{"country":"LU","name":"Steinfort","lat":"49.649948","lng":"5.921836"},{"country":"LU","name":"Kehlen","lat":"49.674317","lng":"6.033546"},{"country":"LU","name":"Steinsel","lat":"49.674075","lng":"6.149357"},{"country":"LU","name":"Lorentzweiler","lat":"49.698685","lng":"6.144531"},{"country":"LU","name":"Lintgen","lat":"49.724501","lng":"6.14236"},{"country":"LU","name":"Fischbach","lat":"49.746457","lng":"6.187237"},{"country":"LU","name":"Heffingen","lat":"49.765035","lng":"6.247072"},{"country":"LU","name":"Biwer","lat":"49.709141","lng":"6.358214"},{"country":"LU","name":"Rosport","lat":"49.785029","lng":"6.469714"},{"country":"LU","name":"Mompach","lat":"49.753657","lng":"6.459115"},{"country":"LU","name":"Manternach","lat":"49.718892","lng":"6.413752"},{"country":"LU","name":"Mertert","lat":"49.716773","lng":"6.476921"},{"country":"LU","name":"Junglinster","lat":"49.713381","lng":"6.249682"},{"country":"LU","name":"Betzdorf","lat":"49.681161","lng":"6.318786"},{"country":"LU","name":"Flaxweiler","lat":"49.655723","lng":"6.351007"},{"country":"LU","name":"Wormeldange","lat":"49.620535","lng":"6.409936"},{"country":"LU","name":"Lenningen","lat":"49.605697","lng":"6.328113"},{"country":"LU","name":"Stadtbredimus","lat":"49.580684","lng":"6.351007"},{"country":"LU","name":"Bous","lat":"49.555458","lng":"6.325145"},{"country":"LU","name":"Remich","lat":"49.547191","lng":"6.361181"},{"country":"LU","name":"Waldbredimus","lat":"49.566905","lng":"6.285718"},{"country":"LU","name":"Dalheim","lat":"49.540408","lng":"6.266428"},{"country":"LU","name":"Mondorf-les-Bains","lat":"49.514547","lng":"6.282962"},{"country":"LU","name":"Larochette","lat":"49.776616","lng":"6.198576"},{"country":"LU","name":"Nommern","lat":"49.800985","lng":"6.152252"},{"country":"LU","name":"Colmar-Berg","lat":"49.811842","lng":"6.079629"},{"country":"LU","name":"Mersch","lat":"49.74887","lng":"6.098448"},{"country":"LU","name":"Boevange","lat":"49.756349","lng":"6.017622"},{"country":"LU","name":"Tuntange","lat":"49.712679","lng":"6.037165"},{"country":"LU","name":"Septfontaines","lat":"49.704717","lng":"5.97371"},{"country":"LU","name":"Hobscheid","lat":"49.690723","lng":"5.901328"},{"country":"LU","name":"Saeul","lat":"49.729086","lng":"5.964542"},{"country":"LU","name":"Schengen","lat":"49.50098","lng":"6.337016"},{"country":"LU","name":"Frisange","lat":"49.514123","lng":"6.185665"},{"country":"LU","name":"Weiler-la-Tour","lat":"49.544436","lng":"6.197747"},{"country":"LU","name":"Hesperange","lat":"49.575596","lng":"6.165739"},{"country":"LU","name":"Roeser","lat":"49.532989","lng":"6.130339"},{"country":"LU","name":"Contern","lat":"49.588739","lng":"6.247774"},{"country":"LU","name":"Schuttrange","lat":"49.623891","lng":"6.270114"},{"country":"LU","name":"Sandweiler","lat":"49.614963","lng":"6.214621"},{"country":"LU","name":"Niederanven","lat":"49.654291","lng":"6.223307"},{"country":"LU","name":"Leudelange","lat":"49.567191","lng":"6.068651"},{"country":"LU","name":"Reckange-sur-Mess","lat":"49.558264","lng":"6.007609"},{"country":"LU","name":"Bertrange","lat":"49.600728","lng":"6.041387"},{"country":"LU","name":"Strassen","lat":"49.626786","lng":"6.064308"},{"country":"LU","name":"Walferdange","lat":"49.657669","lng":"6.13283"},{"country":"LU","name":"Kopstal","lat":"49.663218","lng":"6.080715"},{"country":"LU","name":"Esch-sur-Alzette","lat":"49.493362","lng":"5.982517"},{"country":"LU","name":"Beckerich","lat":"49.730533","lng":"5.887817"},{"country":"LU","name":"Dippach","lat":"49.582633","lng":"5.973348"},{"country":"LU","name":"Roodt","lat":"49.6625","lng":"6.302778"},{"country":"LU","name":"Roodt","lat":"49.794444","lng":"5.821667"},{"country":"LU","name":"Boevange","lat":"50.046389","lng":"5.934167"},{"country":"LU","name":"Fischbach","lat":"50.075278","lng":"6.068889"},{"country":"LU","name":"Eschweiler","lat":"49.711389","lng":"6.310556"},{"country":"LU","name":"Bettange","lat":"49.575833","lng":"5.983889"},{"country":"LU","name":"Berg","lat":"49.677778","lng":"6.359444"},{"country":"LU","name":"Wolfsmuhle","lat":"49.533333","lng":"6.316667"},{"country":"LU","name":"Brouch","lat":"49.723611","lng":"6.3425"},{"country":"LU","name":"Mecher","lat":"50.040833","lng":"6.0175"},{"country":"LU","name":"Merscheid","lat":"49.871944","lng":"5.9725"},{"country":"LU","name":"Erpeldange","lat":"49.544444","lng":"6.3275"},{"country":"LU","name":"Elvange","lat":"49.505278","lng":"6.316389"},{"country":"LU","name":"Hostert","lat":"49.81","lng":"5.866667"},{"country":"LU","name":"Elvange","lat":"49.724722","lng":"5.917778"},{"country":"LU","name":"Roodt","lat":"49.691944","lng":"6.002222"},{"country":"LU","name":"Erpeldange","lat":"49.978056","lng":"5.948611"},{"country":"LU","name":"Bockholz","lat":"50.012222","lng":"6.052778"},{"country":"LU","name":"Mondercange","lat":"49.529191","lng":"6.009539"},{"country":"LU","name":"Luxembourg","lat":"49.627797","lng":"6.09"},{"country":"LU","name":"Grevenmacher","lat":"49.67777","lng":"6.35"},{"country":"LU","name":"Diekirch","lat":"49.97777","lng":"6"},{"country":"LU","name":"Clervaux","lat":"50.078517","lng":"6.022362"},{"country":"LU","name":"Wiltz","lat":"49.946981","lng":"5.907004"},{"country":"LU","name":"Remich","lat":"49.543229","lng":"6.31779"},{"country":"LU","name":"Mersch","lat":"49.75636","lng":"6.127169"},{"country":"LU","name":"Troisvierges","lat":"50.143771","lng":"6.002014"},{"country":"LU","name":"Sanem","lat":"49.533121","lng":"5.936301"},{"country":"LU","name":"Kayl","lat":"49.47912","lng":"6.031002"},{"country":"LU","name":"Clervaux","lat":"50.054722","lng":"6.031389"},{"country":"LU","name":"Wiltz","lat":"49.968889","lng":"5.931944"},{"country":"LU","name":"Vianden","lat":"49.935","lng":"6.208889"},{"country":"LU","name":"Redange","lat":"49.765556","lng":"5.890833"},{"country":"LU","name":"Redange","lat":"49.765556","lng":"5.890833"},{"country":"LU","name":"Mersch","lat":"49.748889","lng":"6.106111"},{"country":"LU","name":"Echternach","lat":"49.805556","lng":"6.422222"},{"country":"LU","name":"Remich","lat":"49.545","lng":"6.366944"},{"country":"LU","name":"Esch-sur-Alzette","lat":"49.495833","lng":"5.980556"},{"country":"LU","name":"Capellen","lat":"49.645","lng":"5.990833"},{"country":"LU","name":"Winseler","lat":"49.967778","lng":"5.890278"},{"country":"LU","name":"Eschweiler","lat":"49.997778","lng":"5.948889"},{"country":"LU","name":"Wilwerwiltz","lat":"49.988889","lng":"5.999167"},{"country":"LU","name":"Hosingen","lat":"50.017778","lng":"6.093333"},{"country":"LU","name":"Putscheid","lat":"49.960833","lng":"6.143056"},{"country":"LU","name":"Troisvierges","lat":"50.121111","lng":"6.000278"},{"country":"LU","name":"Weiswampach","lat":"50.137222","lng":"6.075"},{"country":"LU","name":"Wincrange","lat":"50.053333","lng":"5.919167"},{"country":"LU","name":"Manternach","lat":"49.702778","lng":"6.426389"},{"country":"LU","name":"Biwer","lat":"49.702778","lng":"6.374722"},{"country":"LU","name":"Beaufort","lat":"49.835833","lng":"6.291667"},{"country":"LU","name":"Beckerich","lat":"49.730556","lng":"5.887222"},{"country":"LU","name":"Berdorf","lat":"49.813611","lng":"6.350278"},{"country":"LU","name":"Bettendorf","lat":"49.876667","lng":"6.218056"},{"country":"LU","name":"Waldbillig","lat":"49.788889","lng":"6.286667"},{"country":"LU","name":"Vichten","lat":"49.803056","lng":"6"},{"country":"LU","name":"Medernach","lat":"49.801944","lng":"6.218333"},{"country":"LU","name":"Lorentzweiler","lat":"49.694722","lng":"6.1425"},{"country":"LU","name":"Lintgen","lat":"49.715833","lng":"6.133611"},{"country":"LU","name":"Reisdorf","lat":"49.868611","lng":"6.267778"},{"country":"LU","name":"Rosport","lat":"49.797778","lng":"6.504167"},{"country":"LU","name":"Saeul","lat":"49.727222","lng":"5.986389"},{"country":"LU","name":"Schieren","lat":"49.830556","lng":"6.098611"},{"country":"LU","name":"Useldange","lat":"49.769722","lng":"5.982222"},{"country":"LU","name":"Tuntange","lat":"49.717778","lng":"6.010278"},{"country":"LU","name":"Tandel","lat":"49.8975","lng":"6.183333"},{"country":"LU","name":"Septfontaines","lat":"49.701111","lng":"5.967222"},{"country":"LU","name":"Wahl","lat":"49.836667","lng":"5.906389"},{"country":"LU","name":"Rambrouch","lat":"49.830833","lng":"5.845"},{"country":"LU","name":"Bettborn","lat":"49.795278","lng":"5.941111"},{"country":"LU","name":"Bissen","lat":"49.7875","lng":"6.069444"},{"country":"LU","name":"Boulaide","lat":"49.887778","lng":"5.816389"},{"country":"LU","name":"Bourscheid","lat":"49.91","lng":"6.067222"},{"country":"LU","name":"Ell","lat":"49.763889","lng":"5.857222"},{"country":"LU","name":"Erpeldange","lat":"49.864722","lng":"6.114722"},{"country":"LU","name":"Erpeldange","lat":"49.864722","lng":"6.114722"},{"country":"LU","name":"Esch-sur-S\u00fbre","lat":"49.911389","lng":"5.936389"},{"country":"LU","name":"Ettelbruck","lat":"49.8475","lng":"6.104167"},{"country":"LU","name":"Niederfeulen","lat":"49.855556","lng":"6.047222"},{"country":"LU","name":"Fischbach","lat":"49.739722","lng":"6.187222"},{"country":"LU","name":"G\u0153sdorf","lat":"49.921667","lng":"5.968333"},{"country":"LU","name":"Grosbous","lat":"49.827778","lng":"5.967222"},{"country":"LU","name":"Heffingen","lat":"49.7625","lng":"6.241389"},{"country":"LU","name":"Hobscheid","lat":"49.688611","lng":"5.914722"},{"country":"LU","name":"Junglinster","lat":"49.707222","lng":"6.253056"},{"country":"LU","name":"Bavigne","lat":"49.921944","lng":"5.849444"},{"country":"LU","name":"Larochette","lat":"49.776944","lng":"6.221111"},{"country":"LU","name":"Mertert","lat":"49.696111","lng":"6.481389"},{"country":"LU","name":"Mertzig","lat":"49.833889","lng":"6.0075"},{"country":"LU","name":"Nommern","lat":"49.786944","lng":"6.174722"},{"country":"LU","name":"Mompach","lat":"49.746111","lng":"6.465"},{"country":"LU","name":"Betzdorf","lat":"49.683333","lng":"6.35"},{"country":"LU","name":"Bettembourg","lat":"49.518611","lng":"6.102778"},{"country":"LU","name":"Bous","lat":"49.553889","lng":"6.329167"},{"country":"LU","name":"Contern","lat":"49.581944","lng":"6.226667"},{"country":"LU","name":"Dalheim","lat":"49.540833","lng":"6.259722"},{"country":"LU","name":"Differdange","lat":"49.524167","lng":"5.891389"},{"country":"LU","name":"Dippach","lat":"49.588333","lng":"5.983333"},{"country":"LU","name":"Dudelange","lat":"49.480556","lng":"6.0875"},{"country":"LU","name":"Flaxweiler","lat":"49.661667","lng":"6.343611"},{"country":"LU","name":"Frisange","lat":"49.515","lng":"6.191667"},{"country":"LU","name":"Garnich","lat":"49.616667","lng":"5.9525"},{"country":"LU","name":"Hesperange","lat":"49.568056","lng":"6.151389"},{"country":"LU","name":"Bascharage","lat":"49.5675","lng":"5.910278"},{"country":"LU","name":"Kayl","lat":"49.489167","lng":"6.039722"},{"country":"LU","name":"Koerich","lat":"49.67","lng":"5.95"},{"country":"LU","name":"Kopstal","lat":"49.664444","lng":"6.073056"},{"country":"LU","name":"Lenningen","lat":"49.598611","lng":"6.368056"},{"country":"LU","name":"Leudelange","lat":"49.568333","lng":"6.065278"},{"country":"LU","name":"Mamer","lat":"49.6275","lng":"6.023333"},{"country":"LU","name":"Mondercange","lat":"49.533056","lng":"5.988333"},{"country":"LU","name":"Mondorf-les-Bains","lat":"49.505","lng":"6.281111"},{"country":"LU","name":"Niederanven","lat":"49.6475","lng":"6.26"},{"country":"LU","name":"P\u00e9tange","lat":"49.558333","lng":"5.880556"},{"country":"LU","name":"Reckange-sur-Mess","lat":"49.5625","lng":"6.008889"},{"country":"LU","name":"Roeser","lat":"49.542222","lng":"6.15"},{"country":"LU","name":"Rumelange","lat":"49.460833","lng":"6.033056"},{"country":"LU","name":"Sandweiler","lat":"49.613333","lng":"6.218889"},{"country":"LU","name":"Sanem","lat":"49.548056","lng":"5.928889"},{"country":"LU","name":"Schengen","lat":"49.471667","lng":"6.365833"},{"country":"LU","name":"Schifflange","lat":"49.506389","lng":"6.012778"},{"country":"LU","name":"Schuttrange","lat":"49.620556","lng":"6.268611"},{"country":"LU","name":"Strassen","lat":"49.620556","lng":"6.073333"},{"country":"LU","name":"Steinsel","lat":"49.676944","lng":"6.123889"},{"country":"LU","name":"Steinfort","lat":"49.661389","lng":"5.919167"},{"country":"LU","name":"Stadtbredimus","lat":"49.562778","lng":"6.364444"},{"country":"LU","name":"Kehlen","lat":"49.668333","lng":"6.035833"},{"country":"LU","name":"Weiler-la-Tour","lat":"49.540833","lng":"6.200833"},{"country":"LU","name":"Waldbredimus","lat":"49.555","lng":"6.2875"},{"country":"LU","name":"Walferdange","lat":"49.658333","lng":"6.137222"},{"country":"LU","name":"Boevange-sur-Attert","lat":"49.775278","lng":"6.015556"},{"country":"LU","name":"Bech","lat":"49.746111","lng":"6.363611"},{"country":"LU","name":"Consdorf","lat":"49.773056","lng":"6.338333"},{"country":"LU","name":"Wormeldange","lat":"49.608333","lng":"6.405833"},{"country":"LU","name":"Colmar-Berg","lat":"49.811702","lng":"6.093225"},{"country":"LU","name":"Bertrange","lat":"49.611111","lng":"6.05"},{"country":"LU","name":"Diekirch","lat":"49.867778","lng":"6.155833"},{"country":"LU","name":"Heisdorf","lat":"49.668611","lng":"6.142222"},{"country":"LU","name":"Weiler","lat":"49.963611","lng":"6.124167"},{"country":"LU","name":"Heispelt","lat":"49.857222","lng":"5.880556"},{"country":"LU","name":"Grevenmacher","lat":"49.674722","lng":"6.441944"},{"country":"LU","name":"Luxembourg","lat":"49.611667","lng":"6.13"},{"country":"LU","name":"Reckange","lat":"49.749722","lng":"6.083056"},{"country":"LU","name":"Merscheid","lat":"49.954722","lng":"6.106944"},{"country":"LU","name":"Wiltz","lat":"49.959274","lng":"5.927053"},{"country":"LU","name":"Vianden","lat":"49.932559","lng":"6.166181"},{"country":"LU","name":"Diekirch","lat":"49.861553","lng":"6.147495"},{"country":"LU","name":"Redange","lat":"49.797157","lng":"5.887309"},{"country":"LU","name":"Echternach","lat":"49.788716","lng":"6.390241"},{"country":"LU","name":"Grevenmacher","lat":"49.683415","lng":"6.343073"},{"country":"LU","name":"Capellen","lat":"49.636781","lng":"5.97031"},{"country":"LU","name":"Luxembourg","lat":"49.614273","lng":"6.17289"},{"country":"LU","name":"Differdange","lat":"49.521674","lng":"5.882883"},{"country":"LU","name":"P\u00e9tange","lat":"49.550503","lng":"5.855326"},{"country":"LU","name":"Rumelange","lat":"49.461367","lng":"6.011394"},{"country":"LU","name":"Schifflange","lat":"49.505564","lng":"6.014891"},{"country":"LU","name":"Dudelange","lat":"49.480843","lng":"6.087732"},{"country":"LU","name":"Bettembourg","lat":"49.52345","lng":"6.083068"},{"country":"LU","name":"Luxembourg","lat":"49.6093","lng":"6.132035"},{"country":"LU","name":"Echternach","lat":"49.800715","lng":"6.416507"},{"country":"LU","name":"Grevenmacher","lat":"49.674589","lng":"6.412692"},{"country":"LU","name":"Diekirch","lat":"49.872787","lng":"6.149205"},{"country":"LU","name":"Ettelbruck","lat":"49.845654","lng":"6.081372"},{"country":"LU","name":"Feulen","lat":"49.859645","lng":"6.028802"},{"country":"LU","name":"Lac de la Haute-S\u00fbre","lat":"49.924934","lng":"5.852013"},{"country":"LU","name":"Weiswampach","lat":"50.128855","lng":"6.064414"},{"country":"LU","name":"Clervaux","lat":"50.063483","lng":"6.056389"},{"country":"LU","name":"Wincrange","lat":"50.055935","lng":"5.921542"},{"country":"LU","name":"Eschweiler","lat":"50.003365","lng":"5.948251"},{"country":"LU","name":"Kiischpelt","lat":"49.978352","lng":"6.007604"},{"country":"LU","name":"Parc Hosingen","lat":"49.999448","lng":"6.085834"},{"country":"LU","name":"Putscheid","lat":"49.956306","lng":"6.131399"},{"country":"LU","name":"Vianden","lat":"49.937652","lng":"6.196688"},{"country":"LU","name":"Tandel","lat":"49.908824","lng":"6.174218"},{"country":"LU","name":"Bourscheid","lat":"49.911791","lng":"6.06823"},{"country":"LU","name":"Erpeldange","lat":"49.866428","lng":"6.114865"},{"country":"LU","name":"Goesdorf","lat":"49.932565","lng":"5.983863"},{"country":"LU","name":"Winseler","lat":"49.968601","lng":"5.866004"},{"country":"LU","name":"Boulaide","lat":"49.894833","lng":"5.801987"},{"country":"LU","name":"Esch-sur-S\u00fbre","lat":"49.887202","lng":"5.952066"},{"country":"LU","name":"Wahl","lat":"49.843535","lng":"5.903312"},{"country":"LU","name":"Grosbous","lat":"49.840143","lng":"5.954186"},{"country":"LU","name":"Mertzig","lat":"49.834949","lng":"6.003921"},{"country":"LU","name":"Rambrouch","lat":"49.840991","lng":"5.816401"},{"country":"LU","name":"Ell","lat":"49.772734","lng":"5.828272"},{"country":"LU","name":"Redange","lat":"49.777822","lng":"5.887202"},{"country":"LU","name":"Useldange","lat":"49.768919","lng":"5.967753"},{"country":"LU","name":"Vichten","lat":"49.807499","lng":"6.008028"},{"country":"LU","name":"Pr\u00e9izerdaul","lat":"49.801139","lng":"5.932989"}]