[{"country":"MG","name":"Antananarivo","lat":"-18.916667","lng":"47.516667"},{"country":"MG","name":"Toamasina","lat":"-18.151349","lng":"49.408139"},{"country":"MG","name":"Mahajanga","lat":"-15.713935","lng":"46.315858"},{"country":"MG","name":"Varika","lat":"-20.587712","lng":"48.535414"},{"country":"MG","name":"Antsiran\u0308ana","lat":"-12.284195","lng":"49.291253"},{"country":"MG","name":"Fianarantsoa","lat":"-21.447807","lng":"47.088401"},{"country":"MG","name":"Toliara","lat":"-23.352798","lng":"43.669974"},{"country":"MG","name":"Sambava","lat":"-14.257774","lng":"50.160413"},{"country":"MG","name":"Miarinarivo","lat":"-18.957167","lng":"46.906385"},{"country":"MG","name":"Antsirabe","lat":"-19.866965","lng":"47.039352"},{"country":"MG","name":"Tsiroanomandidy","lat":"-18.769314","lng":"46.049316"},{"country":"MG","name":"Antsohihy","lat":"-14.879678","lng":"47.987505"},{"country":"MG","name":"Maevatanana","lat":"-16.946991","lng":"46.829153"},{"country":"MG","name":"Maintirano","lat":"-18.059884","lng":"44.02426"},{"country":"MG","name":"Ambatondrazaka","lat":"-17.828716","lng":"48.426606"},{"country":"MG","name":"Fenoarivo Atsinanana","lat":"-17.381885","lng":"49.409045"},{"country":"MG","name":"Ambositra","lat":"-20.529354","lng":"47.242485"},{"country":"MG","name":"Manakara","lat":"-22.145531","lng":"48.007967"},{"country":"MG","name":"Farafangana","lat":"-22.817986","lng":"47.82879"},{"country":"MG","name":"Ihosy","lat":"-22.403794","lng":"46.127178"},{"country":"MG","name":"Morondava","lat":"-20.291025","lng":"44.278811"},{"country":"MG","name":"Ambovombe","lat":"-25.175406","lng":"46.088153"},{"country":"MG","name":"T\u00f4lan\u0308aro","lat":"-25.032011","lng":"46.989688"},{"country":"MG","name":"Toamasina","lat":"-17.75","lng":"48.833333"},{"country":"MG","name":"Toamasina","lat":"-17.75","lng":"48.833333"},{"country":"MG","name":"Antsiranana","lat":"-14","lng":"49.3333"},{"country":"MG","name":"Antsiran\u0308ana","lat":"-14","lng":"49.3333"},{"country":"MG","name":"Antananarivo","lat":"-19","lng":"46.833333"},{"country":"MG","name":"Antananarivo","lat":"-19","lng":"46.833333"},{"country":"MG","name":"Fianarantsoa","lat":"-21.833333","lng":"46.833333"},{"country":"MG","name":"Fianarantsoa","lat":"-21.833333","lng":"46.833333"},{"country":"MG","name":"Toliara","lat":"-22","lng":"44.5"},{"country":"MG","name":"Toliara","lat":"-22","lng":"44.5"},{"country":"MG","name":"Mahajanga","lat":"-16.583333","lng":"46.666667"},{"country":"MG","name":"Mahajanga","lat":"-16.583333","lng":"46.666667"}]