[{"country":"MN","name":"\u041c\u0430\u043d\u0434\u0430\u043b\u0433\u043e\u0432\u044c","lat":"45.7625","lng":"106.270833"},{"country":"MN","name":"Mandalgov\u012d","lat":"45.7625","lng":"106.270833"},{"country":"MN","name":"\u00d6lgiy","lat":"48.968333","lng":"89.9625"},{"country":"MN","name":"\u04e8\u043b\u0433\u0438\u0439","lat":"48.968333","lng":"89.9625"},{"country":"MN","name":"M\u00f6r\u00f6n","lat":"49.634167","lng":"100.1625"},{"country":"MN","name":"\u041c\u04e9\u0440\u04e9\u043d","lat":"49.634167","lng":"100.1625"},{"country":"MN","name":"\u0423\u043b\u0430\u0430\u043d\u0431\u0430\u0430\u0442\u0430\u0440","lat":"47.916667","lng":"106.916667"},{"country":"MN","name":"Ulaanbaatar","lat":"47.916667","lng":"106.916667"},{"country":"MN","name":"\u0421\u04af\u0445\u0431\u0430\u0430\u0442\u0430\u0440","lat":"50.231389","lng":"106.207778"},{"country":"MN","name":"S\u00fchbaatar","lat":"50.231389","lng":"106.207778"},{"country":"MN","name":"Uliastay","lat":"47.741667","lng":"96.844444"},{"country":"MN","name":"\u0423\u043b\u0438\u0430\u0441\u0442\u0430\u0439","lat":"47.741667","lng":"96.844444"},{"country":"MN","name":"Choyr","lat":"46.361111","lng":"108.361111"},{"country":"MN","name":"\u0427\u043e\u0439\u0440","lat":"46.361111","lng":"108.361111"},{"country":"MN","name":"Erdenet","lat":"49.033333","lng":"104.083333"},{"country":"MN","name":"\u042d\u0440\u0434\u044d\u043d\u044d\u0442","lat":"49.033333","lng":"104.083333"},{"country":"MN","name":"Dalandzadgad","lat":"43.570833","lng":"104.425"},{"country":"MN","name":"\u0414\u0430\u043b\u0430\u043d\u0437\u0430\u0434\u0433\u0430\u0434","lat":"43.570833","lng":"104.425"},{"country":"MN","name":"Hovd","lat":"48.005556","lng":"91.641944"},{"country":"MN","name":"\u0425\u043e\u0432\u0434","lat":"48.005556","lng":"91.641944"},{"country":"MN","name":"Saynshand","lat":"44.893056","lng":"110.134722"},{"country":"MN","name":"\u0421\u0430\u0439\u043d\u0448\u0430\u043d\u0434","lat":"44.893056","lng":"110.134722"},{"country":"MN","name":"\u0410\u043b\u0442\u0430\u0439","lat":"46.372222","lng":"96.258333"},{"country":"MN","name":"Altay","lat":"46.372222","lng":"96.258333"},{"country":"MN","name":"Dzuunmod","lat":"47.706944","lng":"106.952778"},{"country":"MN","name":"\u0417\u0443\u0443\u043d\u043c\u043e\u0434","lat":"47.706944","lng":"106.952778"},{"country":"MN","name":"Sayhan","lat":"49.352445","lng":"105.710682"},{"country":"MN","name":"\u0421\u0430\u0439\u0445\u0430\u043d","lat":"49.352445","lng":"105.710682"},{"country":"MN","name":"T\u00fcshig","lat":"50.2595","lng":"104.870425"},{"country":"MN","name":"\u0422\u04af\u0448\u0438\u0433","lat":"50.2595","lng":"104.870425"},{"country":"MN","name":"Baruunturuun","lat":"49.80764","lng":"94.874659"},{"country":"MN","name":"\u0411\u0430\u0440\u0443\u0443\u043d\u0442\u0443\u0440\u0443\u0443\u043d","lat":"49.80764","lng":"94.874659"},{"country":"MN","name":"\u0425\u04af\u0440\u043c\u044d\u043d","lat":"42.572113","lng":"103.778155"},{"country":"MN","name":"H\u00fcrmen","lat":"42.572113","lng":"103.778155"},{"country":"MN","name":"\u04e8\u043d\u0434\u04e9\u0440\u0448\u0438\u043b","lat":"45.279835","lng":"108.138374"},{"country":"MN","name":"\u00d6nd\u00f6rshil","lat":"45.279835","lng":"108.138374"},{"country":"MN","name":"\u0414\u044d\u0440\u044d\u043d","lat":"46.218239","lng":"106.791778"},{"country":"MN","name":"Deren","lat":"46.218239","lng":"106.791778"},{"country":"MN","name":"\u042d\u0440\u0434\u044d\u043d\u044d\u0441\u0430\u043d\u0442","lat":"47.27279","lng":"104.496383"},{"country":"MN","name":"Erdenesant","lat":"47.27279","lng":"104.496383"},{"country":"MN","name":"\u0411\u04af\u0440\u044d\u043d","lat":"46.84976","lng":"105.174605"},{"country":"MN","name":"B\u00fcren","lat":"46.84976","lng":"105.174605"},{"country":"MN","name":"Santmargats","lat":"48.598926","lng":"95.145735"},{"country":"MN","name":"\u0421\u0430\u043d\u0442\u043c\u0430\u0440\u0433\u0430\u0446","lat":"48.598926","lng":"95.145735"},{"country":"MN","name":"\u0410\u043b\u0442\u0430\u0439","lat":"45.733197","lng":"92.579646"},{"country":"MN","name":"Altay","lat":"45.733197","lng":"92.579646"},{"country":"MN","name":"\u04e8\u0440\u0433\u04e9\u043d","lat":"45.047828","lng":"111.058495"},{"country":"MN","name":"\u00d6rg\u00f6n","lat":"45.047828","lng":"111.058495"},{"country":"MN","name":"\u04ae\u0435\u043d\u0447","lat":"45.868531","lng":"91.782428"},{"country":"MN","name":"\u00dcyench","lat":"45.868531","lng":"91.782428"},{"country":"MN","name":"\u0410\u0439\u0440\u0430\u0433","lat":"45.642286","lng":"109.27007"},{"country":"MN","name":"Ayrag","lat":"45.642286","lng":"109.27007"},{"country":"MN","name":"\u0420\u0430\u0448\u0430\u0430\u043d\u0442","lat":"47.412827","lng":"103.90632"},{"country":"MN","name":"Rashaant","lat":"47.412827","lng":"103.90632"},{"country":"MN","name":"\u0411\u0430\u044f\u043d\u0445\u043e\u043d\u0433\u043e\u0440","lat":"46.202704","lng":"100.679657"},{"country":"MN","name":"Bayanhongor","lat":"46.202704","lng":"100.679657"},{"country":"MN","name":"\u0426\u0430\u0445\u0438\u0440","lat":"47.977276","lng":"98.698375"},{"country":"MN","name":"Tsahir","lat":"47.977276","lng":"98.698375"},{"country":"MN","name":"\u0426\u0430\u0433\u0430\u0430\u043d-\u0423\u0443\u043b","lat":"49.553992","lng":"98.602644"},{"country":"MN","name":"Tsagaan-Uul","lat":"49.553992","lng":"98.602644"},{"country":"MN","name":"Selenge","lat":"49.717043","lng":"104.21872"},{"country":"MN","name":"\u0421\u044d\u043b\u044d\u043d\u0433\u044d","lat":"49.717043","lng":"104.21872"},{"country":"MN","name":"\u00d6ldziyt","lat":"46.508143","lng":"103.413445"},{"country":"MN","name":"\u04e8\u043b\u0437\u0438\u0439\u0442","lat":"46.508143","lng":"103.413445"},{"country":"MN","name":"\u00d6ldziyt","lat":"45.985488","lng":"100.951635"},{"country":"MN","name":"\u04e8\u043b\u0437\u0438\u0439\u0442","lat":"45.985488","lng":"100.951635"},{"country":"MN","name":"Chandman\u012d","lat":"45.44721","lng":"97.94105"},{"country":"MN","name":"\u0427\u0430\u043d\u0434\u043c\u0430\u043d\u044c","lat":"45.44721","lng":"97.94105"},{"country":"MN","name":"Tayshir","lat":"46.577304","lng":"96.46038"},{"country":"MN","name":"\u0422\u0430\u0439\u0448\u0438\u0440","lat":"46.577304","lng":"96.46038"},{"country":"MN","name":"Herlen","lat":"47.636987","lng":"110.73261"},{"country":"MN","name":"\u0425\u044d\u0440\u043b\u044d\u043d","lat":"47.636987","lng":"110.73261"},{"country":"MN","name":"Bayan-Adarga","lat":"48.504385","lng":"111.241789"},{"country":"MN","name":"\u0411\u0430\u044f\u043d-\u0410\u0434\u0430\u0440\u0433\u0430","lat":"48.504385","lng":"111.241789"},{"country":"MN","name":"L\u00fcn","lat":"47.793219","lng":"105.142888"},{"country":"MN","name":"\u041b\u04af\u043d","lat":"47.793219","lng":"105.142888"},{"country":"MN","name":"\u00d6mn\u00f6gov\u012d","lat":"49.10553","lng":"91.560371"},{"country":"MN","name":"\u04e8\u043c\u043d\u0275\u0433\u043e\u0432\u044c","lat":"49.10553","lng":"91.560371"},{"country":"MN","name":"Orhon","lat":"49.72305","lng":"106.042931"},{"country":"MN","name":"\u041e\u0440\u0445\u043e\u043d","lat":"49.72305","lng":"106.042931"},{"country":"MN","name":"Hongor","lat":"49.396703","lng":"106.34183"},{"country":"MN","name":"\u0425\u043e\u043d\u0433\u043e\u0440","lat":"49.396703","lng":"106.34183"},{"country":"MN","name":"\u0414\u044d\u043b\u0433\u044d\u0440\u0446\u043e\u0433\u0442","lat":"46.271834","lng":"106.259026"},{"country":"MN","name":"Delgertsogt","lat":"46.271834","lng":"106.259026"},{"country":"MN","name":"H\u00f6hmor\u012dt","lat":"47.395088","lng":"94.359816"},{"country":"MN","name":"\u0425\u04e9\u0445\u043c\u043e\u0440\u044c\u0442","lat":"47.395088","lng":"94.359816"},{"country":"MN","name":"\u041c\u0430\u043d\u0434\u0430\u0445","lat":"44.212418","lng":"108.413836"},{"country":"MN","name":"Mandah","lat":"44.212418","lng":"108.413836"},{"country":"MN","name":"Urgamal","lat":"48.465869","lng":"94.161395"},{"country":"MN","name":"\u0423\u0440\u0433\u0430\u043c\u0430\u043b","lat":"48.465869","lng":"94.161395"},{"country":"MN","name":"\u0421\u0430\u0439\u0445\u0430\u043d\u0434\u0443\u043b\u0430\u0430\u043d","lat":"44.782357","lng":"109.249845"},{"country":"MN","name":"Sayhandulaan","lat":"44.782357","lng":"109.249845"},{"country":"MN","name":"\u041c\u04e9\u0441\u0442","lat":"46.684675","lng":"92.584019"},{"country":"MN","name":"M\u00f6st","lat":"46.684675","lng":"92.584019"},{"country":"MN","name":"Halhgol","lat":"47.207091","lng":"118.383579"},{"country":"MN","name":"\u0425\u0430\u043b\u0445\u0433\u043e\u043b","lat":"47.207091","lng":"118.383579"},{"country":"MN","name":"\u0426\u0430\u0433\u0430\u0430\u043d\u043d\u0443\u0443\u0440","lat":"49.501115","lng":"89.428702"},{"country":"MN","name":"Tsagaannuur","lat":"49.501115","lng":"89.428702"},{"country":"MN","name":"Songino","lat":"48.994803","lng":"95.861939"},{"country":"MN","name":"\u0421\u043e\u043d\u0433\u0438\u043d\u043e","lat":"48.994803","lng":"95.861939"},{"country":"MN","name":"T\u00fcnel","lat":"49.76809","lng":"100.702826"},{"country":"MN","name":"\u0422\u04af\u043d\u044d\u043b","lat":"49.76809","lng":"100.702826"},{"country":"MN","name":"\u0426\u0430\u0433\u0430\u0430\u043d\u043d\u0443\u0443\u0440","lat":"51.644979","lng":"99.044197"},{"country":"MN","name":"Tsagaannuur","lat":"51.644979","lng":"99.044197"},{"country":"MN","name":"Erdenebulgan","lat":"50.221611","lng":"101.871812"},{"country":"MN","name":"\u042d\u0440\u0434\u044d\u043d\u044d\u0431\u0443\u043b\u0433\u0430\u043d","lat":"50.221611","lng":"101.871812"},{"country":"MN","name":"Nariynteel","lat":"45.880356","lng":"101.54036"},{"country":"MN","name":"\u041d\u0430\u0440\u0438\u0439\u043d\u0442\u044d\u044d\u043b","lat":"45.880356","lng":"101.54036"},{"country":"MN","name":"Baatsagaan","lat":"45.629334","lng":"99.532234"},{"country":"MN","name":"\u0411\u0430\u0430\u0446\u0430\u0433\u0430\u0430\u043d","lat":"45.629334","lng":"99.532234"},{"country":"MN","name":"Tsogt","lat":"44.226005","lng":"96.676012"},{"country":"MN","name":"\u0426\u043e\u0433\u0442","lat":"44.226005","lng":"96.676012"},{"country":"MN","name":"Delgerhaan","lat":"47.248164","lng":"109.055511"},{"country":"MN","name":"\u0414\u044d\u043b\u0433\u044d\u0440\u0445\u0430\u0430\u043d","lat":"47.248164","lng":"109.055511"},{"country":"MN","name":"Ulaanhus","lat":"49.17778","lng":"89.271317"},{"country":"MN","name":"\u0423\u043b\u0430\u0430\u043d\u0445\u0443\u0441","lat":"49.17778","lng":"89.271317"},{"country":"MN","name":"B\u00f6hm\u00f6r\u00f6n","lat":"49.868996","lng":"90.741066"},{"country":"MN","name":"\u0411\u0275\u0445\u043c\u0275\u0440\u0275\u043d","lat":"49.868996","lng":"90.741066"},{"country":"MN","name":"\u00d6nd\u00f6rshireet","lat":"47.433608","lng":"104.982868"},{"country":"MN","name":"\u04e8\u043d\u0434\u04e9\u0440\u0448\u0438\u0440\u044d\u044d\u0442","lat":"47.433608","lng":"104.982868"},{"country":"MN","name":"Hovd","lat":"49.378888","lng":"91.032094"},{"country":"MN","name":"\u0425\u043e\u0432\u0434","lat":"49.378888","lng":"91.032094"},{"country":"MN","name":"Orhon","lat":"49.059957","lng":"105.48303"},{"country":"MN","name":"\u041e\u0440\u0445\u043e\u043d","lat":"49.059957","lng":"105.48303"},{"country":"MN","name":"Tsagaannuur","lat":"50.003945","lng":"105.334589"},{"country":"MN","name":"\u0426\u0430\u0433\u0430\u0430\u043d\u043d\u0443\u0443\u0440","lat":"50.003945","lng":"105.334589"},{"country":"MN","name":"Dz\u00fc\u00fcnhangay","lat":"49.257145","lng":"95.36217"},{"country":"MN","name":"\u0417\u03b3\u03b3\u043d\u0445\u0430\u043d\u0433\u0430\u0439","lat":"49.257145","lng":"95.36217"},{"country":"MN","name":"\u0425\u0430\u0442\u0430\u043d\u0431\u0443\u043b\u0430\u0433","lat":"43.034691","lng":"109.226365"},{"country":"MN","name":"Hatanbulag","lat":"43.034691","lng":"109.226365"},{"country":"MN","name":"Dzavhanmandal","lat":"48.135769","lng":"94.99596"},{"country":"MN","name":"\u0417\u0430\u0432\u0445\u0430\u043d\u043c\u0430\u043d\u0434\u0430\u043b","lat":"48.135769","lng":"94.99596"},{"country":"MN","name":"\u0426\u044d\u0446\u044d\u0433","lat":"46.339489","lng":"93.233617"},{"country":"MN","name":"Tsetseg","lat":"46.339489","lng":"93.233617"},{"country":"MN","name":"T\u00fcvshinshiree","lat":"46.290723","lng":"111.679359"},{"country":"MN","name":"\u0422\u04af\u0432\u0448\u0438\u043d\u0448\u0438\u0440\u044d\u044d","lat":"46.290723","lng":"111.679359"},{"country":"MN","name":"S\u00fchbaatar","lat":"46.979891","lng":"113.765349"},{"country":"MN","name":"\u0421\u04af\u0445\u0431\u0430\u0430\u0442\u0430\u0440","lat":"46.979891","lng":"113.765349"},{"country":"MN","name":"Gurvansayhan","lat":"45.586156","lng":"107.101134"},{"country":"MN","name":"\u0413\u0443\u0440\u0432\u0430\u043d\u0441\u0430\u0439\u0445\u0430\u043d","lat":"45.586156","lng":"107.101134"},{"country":"MN","name":"Hayrhandulaan","lat":"45.857693","lng":"102.08237"},{"country":"MN","name":"\u0425\u0430\u0439\u0440\u0445\u0430\u043d\u0434\u0443\u043b\u0430\u0430\u043d","lat":"45.857693","lng":"102.08237"},{"country":"MN","name":"Jinst","lat":"45.432615","lng":"100.281218"},{"country":"MN","name":"\u0416\u0438\u043d\u0441\u0442","lat":"45.432615","lng":"100.281218"},{"country":"MN","name":"\u0420\u044d\u043d\u0447\u0438\u043d\u043b\u0445\u04af\u043c\u0431\u044d","lat":"51.204083","lng":"99.733519"},{"country":"MN","name":"Renchinlhumbe","lat":"51.204083","lng":"99.733519"},{"country":"MN","name":"Bayantsagaan","lat":"45.304494","lng":"98.67712"},{"country":"MN","name":"\u0411\u0430\u044f\u043d\u0446\u0430\u0433\u0430\u0430\u043d","lat":"45.304494","lng":"98.67712"},{"country":"MN","name":"Batnorov","lat":"47.993529","lng":"111.426455"},{"country":"MN","name":"\u0411\u0430\u0442\u043d\u043e\u0440\u043e\u0432","lat":"47.993529","lng":"111.426455"},{"country":"MN","name":"D\u00f6rg\u00f6n","lat":"48.32747","lng":"92.861056"},{"country":"MN","name":"\u0414\u04e9\u0440\u0433\u04e9\u043d","lat":"48.32747","lng":"92.861056"},{"country":"MN","name":"\u0411\u0430\u0440\u0443\u0443\u043d\u0431\u04af\u0440\u044d\u043d","lat":"49.288652","lng":"104.793697"},{"country":"MN","name":"Baruunb\u00fcren","lat":"49.288652","lng":"104.793697"},{"country":"MN","name":"Dzavhan","lat":"48.866919","lng":"93.307431"},{"country":"MN","name":"\u0417\u0430\u0432\u0445\u0430\u043d","lat":"48.866919","lng":"93.307431"},{"country":"MN","name":"Hangal","lat":"49.387019","lng":"104.391734"},{"country":"MN","name":"\u0425\u0430\u043d\u0433\u0430\u043b","lat":"49.387019","lng":"104.391734"},{"country":"MN","name":"Bugat","lat":"49.075188","lng":"103.500776"},{"country":"MN","name":"\u0411\u0443\u0433\u0430\u0442","lat":"49.075188","lng":"103.500776"},{"country":"MN","name":"\u0410\u0434\u0430\u0430\u0446\u0430\u0433","lat":"46.344596","lng":"105.753159"},{"country":"MN","name":"Adaatsag","lat":"46.344596","lng":"105.753159"},{"country":"MN","name":"Hyargas","lat":"49.508063","lng":"93.843825"},{"country":"MN","name":"\u0425\u044f\u0440\u0433\u0430\u0441","lat":"49.508063","lng":"93.843825"},{"country":"MN","name":"Uulbayan","lat":"46.503742","lng":"112.415215"},{"country":"MN","name":"\u0423\u0443\u043b\u0431\u0430\u044f\u043d","lat":"46.503742","lng":"112.415215"},{"country":"MN","name":"\u042d\u0440\u0434\u044d\u043d\u044d","lat":"44.187567","lng":"111.106018"},{"country":"MN","name":"Erdene","lat":"44.187567","lng":"111.106018"},{"country":"MN","name":"\u0425\u0430\u0448\u0430\u0430\u0442","lat":"47.463501","lng":"103.181629"},{"country":"MN","name":"Hashaat","lat":"47.463501","lng":"103.181629"},{"country":"MN","name":"Chuluunhoroot","lat":"49.803207","lng":"115.559712"},{"country":"MN","name":"\u0427\u0443\u043b\u0443\u0443\u043d\u0445\u043e\u0440\u043e\u043e\u0442","lat":"49.803207","lng":"115.559712"},{"country":"MN","name":"Naran","lat":"45.12391","lng":"113.641414"},{"country":"MN","name":"\u041d\u0430\u0440\u0430\u043d","lat":"45.12391","lng":"113.641414"},{"country":"MN","name":"Dar\u012dganga","lat":"45.444824","lng":"114.111133"},{"country":"MN","name":"\u0414\u0430\u0440\u044c\u0433\u0430\u043d\u0433\u0430","lat":"45.444824","lng":"114.111133"},{"country":"MN","name":"\u0417\u0430\u043c\u044b\u043d-\u04ae\u04af\u0434","lat":"43.766546","lng":"111.894296"},{"country":"MN","name":"Dzam\u00efn-\u00dc\u00fcd","lat":"43.766546","lng":"111.894296"},{"country":"MN","name":"Bugat","lat":"45.193261","lng":"94.094713"},{"country":"MN","name":"\u0411\u0443\u0433\u0430\u0442","lat":"45.193261","lng":"94.094713"},{"country":"MN","name":"Bayanm\u00f6nh","lat":"46.913359","lng":"109.669195"},{"country":"MN","name":"\u0411\u0430\u044f\u043d\u043c\u04e9\u043d\u0445","lat":"46.913359","lng":"109.669195"},{"country":"MN","name":"Chandman\u012d","lat":"47.712537","lng":"92.881415"},{"country":"MN","name":"\u0427\u0430\u043d\u0434\u043c\u0430\u043d\u044c","lat":"47.712537","lng":"92.881415"},{"country":"MN","name":"Altanbulag","lat":"47.475171","lng":"106.081491"},{"country":"MN","name":"\u0410\u043b\u0442\u0430\u043d\u0431\u0443\u043b\u0430\u0433","lat":"47.475171","lng":"106.081491"},{"country":"MN","name":"\u041e\u0440\u0445\u043e\u043d\u0442\u0443\u0443\u043b","lat":"48.828162","lng":"104.994377"},{"country":"MN","name":"Orhontuul","lat":"48.828162","lng":"104.994377"},{"country":"MN","name":"\u00d6lgiy","lat":"49.000371","lng":"92.240825"},{"country":"MN","name":"\u04e8\u043b\u0433\u0438\u0439","lat":"49.000371","lng":"92.240825"},{"country":"MN","name":"Erdenet","lat":"49.073143","lng":"104.124775"},{"country":"MN","name":"\u042d\u0440\u0434\u044d\u043d\u044d\u0442","lat":"49.073143","lng":"104.124775"},{"country":"MN","name":"Dz\u00fc\u00fcngov\u012d","lat":"50.123624","lng":"93.976976"},{"country":"MN","name":"\u0417\u03b3\u03b3\u043d\u0433\u043e\u0432\u044c","lat":"50.123624","lng":"93.976976"},{"country":"MN","name":"\u041b\u0443\u0443\u0441","lat":"45.612503","lng":"105.785072"},{"country":"MN","name":"Luus","lat":"45.612503","lng":"105.785072"},{"country":"MN","name":"Yaruu","lat":"48.159574","lng":"96.776711"},{"country":"MN","name":"\u042f\u0440\u0443\u0443","lat":"48.159574","lng":"96.776711"},{"country":"MN","name":"\u0427\u043e\u0439\u0431\u0430\u043b\u0441\u0430\u043d","lat":"48.890335","lng":"115.506111"},{"country":"MN","name":"Choybalsan","lat":"48.890335","lng":"115.506111"},{"country":"MN","name":"Dashbalbar","lat":"49.671771","lng":"114.298576"},{"country":"MN","name":"\u0414\u0430\u0448\u0431\u0430\u043b\u0431\u0430\u0440","lat":"49.671771","lng":"114.298576"},{"country":"MN","name":"Bayandelger","lat":"45.638162","lng":"112.365479"},{"country":"MN","name":"\u0411\u0430\u044f\u043d\u0434\u044d\u043b\u0433\u044d\u0440","lat":"45.638162","lng":"112.365479"},{"country":"MN","name":"Ongon","lat":"45.405391","lng":"113.061572"},{"country":"MN","name":"\u041e\u043d\u0433\u043e\u043d","lat":"45.405391","lng":"113.061572"},{"country":"MN","name":"\u0413\u0443\u0440\u0432\u0430\u043d\u0431\u0443\u043b\u0430\u0433","lat":"47.278423","lng":"98.575488"},{"country":"MN","name":"Gurvanbulag","lat":"47.278423","lng":"98.575488"},{"country":"MN","name":"Telmen","lat":"48.776577","lng":"97.491184"},{"country":"MN","name":"\u0422\u044d\u043b\u043c\u044d\u043d","lat":"48.776577","lng":"97.491184"},{"country":"MN","name":"Bayannuur","lat":"48.96141","lng":"90.967958"},{"country":"MN","name":"\u0411\u0430\u044f\u043d\u043d\u0443\u0443\u0440","lat":"48.96141","lng":"90.967958"},{"country":"MN","name":"Binder","lat":"48.57218","lng":"110.655859"},{"country":"MN","name":"\u0411\u0438\u043d\u0434\u044d\u0440","lat":"48.57218","lng":"110.655859"},{"country":"MN","name":"M\u00f6ng\u00f6nmor\u012dt","lat":"48.549158","lng":"108.575607"},{"country":"MN","name":"\u041c\u04e9\u043d\u0433\u04e9\u043d\u043c\u043e\u0440\u044c\u0442","lat":"48.549158","lng":"108.575607"},{"country":"MN","name":"Darvi","lat":"47.091504","lng":"93.672518"},{"country":"MN","name":"\u0414\u0430\u0440\u0432\u0438","lat":"47.091504","lng":"93.672518"},{"country":"MN","name":"\u00d6nd\u00f6rhangay","lat":"49.159036","lng":"94.875795"},{"country":"MN","name":"\u04e8\u043d\u0434\u0275\u0440\u0445\u0430\u043d\u0433\u0430\u0439","lat":"49.159036","lng":"94.875795"},{"country":"MN","name":"Jargalant","lat":"49.042058","lng":"104.400121"},{"country":"MN","name":"\u0416\u0430\u0440\u0433\u0430\u043b\u0430\u043d\u0442","lat":"49.042058","lng":"104.400121"},{"country":"MN","name":"\u042d\u0440\u0434\u044d\u043d\u044d\u0434\u0430\u043b\u0430\u0439","lat":"46.025303","lng":"104.896079"},{"country":"MN","name":"Erdenedalay","lat":"46.025303","lng":"104.896079"},{"country":"MN","name":"\u0413\u0430\u043b\u0448\u0430\u0440","lat":"46.505838","lng":"110.721721"},{"country":"MN","name":"Galshar","lat":"46.505838","lng":"110.721721"},{"country":"MN","name":"\u0411\u0430\u044f\u043d\u0445\u0443\u0442\u0430\u0433","lat":"47.204341","lng":"110.922765"},{"country":"MN","name":"Bayanhutag","lat":"47.204341","lng":"110.922765"},{"country":"MN","name":"\u0411\u0443\u043b\u0433\u0430\u043d","lat":"47.208945","lng":"101.130007"},{"country":"MN","name":"Bulgan","lat":"47.208945","lng":"101.130007"},{"country":"MN","name":"\u0411\u0430\u044f\u043d-\u0423\u0443\u043b","lat":"49.083236","lng":"112.725688"},{"country":"MN","name":"Bayan-Uul","lat":"49.083236","lng":"112.725688"},{"country":"MN","name":"Gurvanzagal","lat":"49.180666","lng":"114.940596"},{"country":"MN","name":"\u0413\u0443\u0440\u0432\u0430\u043d\u0437\u0430\u0433\u0430\u043b","lat":"49.180666","lng":"114.940596"},{"country":"MN","name":"\u04e8\u043d\u0434\u04e9\u0440-\u0423\u043b\u0430\u0430\u043d","lat":"48.003553","lng":"100.760232"},{"country":"MN","name":"\u00d6nd\u00f6r-Ulaan","lat":"48.003553","lng":"100.760232"},{"country":"MN","name":"N\u00f6mr\u00f6g","lat":"48.888243","lng":"96.932299"},{"country":"MN","name":"\u041d\u04e9\u043c\u0440\u04e9\u0433","lat":"48.888243","lng":"96.932299"},{"country":"MN","name":"B\u00fcrentogtoh","lat":"49.533762","lng":"99.683392"},{"country":"MN","name":"\u0411\u04af\u0440\u044d\u043d\u0442\u043e\u0433\u0442\u043e\u0445","lat":"49.533762","lng":"99.683392"},{"country":"MN","name":"Altay","lat":"44.587825","lng":"95.550643"},{"country":"MN","name":"\u0410\u043b\u0442\u0430\u0439","lat":"44.587825","lng":"95.550643"},{"country":"MN","name":"Altants\u00f6gts","lat":"48.982869","lng":"90.473423"},{"country":"MN","name":"\u0410\u043b\u0442\u0430\u043d\u0446\u04e9\u0433\u0446","lat":"48.982869","lng":"90.473423"},{"country":"MN","name":"Dzereg","lat":"47.127976","lng":"92.816857"},{"country":"MN","name":"\u0417\u044d\u0440\u044d\u0433","lat":"47.127976","lng":"92.816857"},{"country":"MN","name":"\u0411\u0430\u0442\u0441\u04af\u043c\u0431\u044d\u0440","lat":"48.425403","lng":"106.83409"},{"country":"MN","name":"Bats\u00fcmber","lat":"48.425403","lng":"106.83409"},{"country":"MN","name":"Tsagaanhayrhan","lat":"49.179856","lng":"94.189762"},{"country":"MN","name":"\u0426\u0430\u0433\u0430\u0430\u043d\u0445\u0430\u0439\u0440\u0445\u0430\u043d","lat":"49.179856","lng":"94.189762"},{"country":"MN","name":"Orhon","lat":"48.714823","lng":"103.801545"},{"country":"MN","name":"\u041e\u0440\u0445\u043e\u043d","lat":"48.714823","lng":"103.801545"},{"country":"MN","name":"\u0425\u0443\u043b\u0434","lat":"45.18665","lng":"105.576769"},{"country":"MN","name":"Huld","lat":"45.18665","lng":"105.576769"},{"country":"MN","name":"\u0414\u044d\u043b\u0433\u044d\u0440\u0445\u0430\u043d\u0433\u0430\u0439","lat":"45.148366","lng":"104.653201"},{"country":"MN","name":"Delgerhangay","lat":"45.148366","lng":"104.653201"},{"country":"MN","name":"Dorvoljin","lat":"47.858802","lng":"94.337168"},{"country":"MN","name":"\u0414\u04e9\u0440\u0432\u04e9\u043b\u0436\u0438\u043d","lat":"47.858802","lng":"94.337168"},{"country":"MN","name":"\u0414\u0430\u0440\u0432\u0438","lat":"46.491685","lng":"94.156407"},{"country":"MN","name":"Darvi","lat":"46.491685","lng":"94.156407"},{"country":"MN","name":"\u0426\u0430\u0433\u0430\u0430\u043d-\u041e\u0432\u043e\u043e","lat":"48.440014","lng":"113.125209"},{"country":"MN","name":"Tsagaan-Ovoo","lat":"48.440014","lng":"113.125209"},{"country":"MN","name":"\u0411\u0430\u044f\u043d\u0434\u0443\u043d","lat":"49.392782","lng":"113.449073"},{"country":"MN","name":"Bayandun","lat":"49.392782","lng":"113.449073"},{"country":"MN","name":"\u0426\u044d\u0446\u044d\u0440\u043b\u044d\u0433","lat":"48.942454","lng":"101.097551"},{"country":"MN","name":"Tsetserleg","lat":"48.942454","lng":"101.097551"},{"country":"MN","name":"T\u00fcdevtey","lat":"48.911186","lng":"96.438349"},{"country":"MN","name":"\u0422\u04af\u0434\u044d\u0432\u0442\u044d\u0439","lat":"48.911186","lng":"96.438349"},{"country":"MN","name":"Tarialan","lat":"49.655186","lng":"102.211677"},{"country":"MN","name":"\u0422\u0430\u0440\u0438\u0430\u043b\u0430\u043d","lat":"49.655186","lng":"102.211677"},{"country":"MN","name":"Taragt","lat":"46.107466","lng":"102.691078"},{"country":"MN","name":"\u0422\u0430\u0440\u0430\u0433\u0442","lat":"46.107466","lng":"102.691078"},{"country":"MN","name":"\u0411\u043e\u0433\u0434","lat":"45.214086","lng":"100.894626"},{"country":"MN","name":"Bogd","lat":"45.214086","lng":"100.894626"},{"country":"MN","name":"\u0411\u0430\u0442\u0448\u0438\u0440\u044d\u044d\u0442","lat":"48.805552","lng":"109.740337"},{"country":"MN","name":"Batshireet","lat":"48.805552","lng":"109.740337"},{"country":"MN","name":"Erdene","lat":"48.222226","lng":"107.721645"},{"country":"MN","name":"\u042d\u0440\u0434\u044d\u043d\u044d","lat":"48.222226","lng":"107.721645"},{"country":"MN","name":"Manhan","lat":"47.353231","lng":"92.279884"},{"country":"MN","name":"\u041c\u0430\u043d\u0445\u0430\u043d","lat":"47.353231","lng":"92.279884"},{"country":"MN","name":"\u0421\u04af\u043c\u0431\u044d\u0440","lat":"48.816571","lng":"105.842994"},{"country":"MN","name":"S\u00fcmber","lat":"48.816571","lng":"105.842994"},{"country":"MN","name":"Tes","lat":"50.392806","lng":"93.653525"},{"country":"MN","name":"\u0422\u044d\u0441","lat":"50.392806","lng":"93.653525"},{"country":"MN","name":"B\u00fcreghangay","lat":"48.327693","lng":"104.109334"},{"country":"MN","name":"\u0411\u04af\u0440\u044d\u0433\u0445\u0430\u043d\u0433\u0430\u0439","lat":"48.327693","lng":"104.109334"},{"country":"MN","name":"\u04e8\u043b\u0437\u0438\u0439\u0442","lat":"44.793444","lng":"106.672426"},{"country":"MN","name":"\u00d6ldziyt","lat":"44.793444","lng":"106.672426"},{"country":"MN","name":"Aldarhaan","lat":"47.712046","lng":"96.560941"},{"country":"MN","name":"\u0410\u043b\u0434\u0430\u0440\u0445\u0430\u0430\u043d","lat":"47.712046","lng":"96.560941"},{"country":"MN","name":"\u0422\u044d\u0448\u0438\u0433","lat":"50.036845","lng":"103.018636"},{"country":"MN","name":"Teshig","lat":"50.036845","lng":"103.018636"},{"country":"MN","name":"\u0421\u044d\u0440\u0433\u044d\u043b\u044d\u043d","lat":"48.639409","lng":"114.095551"},{"country":"MN","name":"Sergelen","lat":"48.639409","lng":"114.095551"},{"country":"MN","name":"\u0416\u0430\u0440\u0433\u0430\u043b\u0430\u043d\u0442","lat":"48.649878","lng":"100.754602"},{"country":"MN","name":"Jargalant","lat":"48.649878","lng":"100.754602"},{"country":"MN","name":"Tsetsen-Uul","lat":"48.578293","lng":"95.871487"},{"country":"MN","name":"\u0426\u044d\u0446\u044d\u043d-\u0423\u0443\u043b","lat":"48.578293","lng":"95.871487"},{"country":"MN","name":"Ih-Uul","lat":"49.509169","lng":"101.438473"},{"country":"MN","name":"\u0418\u0445-\u0423\u0443\u043b","lat":"49.509169","lng":"101.438473"},{"country":"MN","name":"\u0423\u043b\u0430\u0430\u043d-\u0423\u0443\u043b","lat":"50.883168","lng":"98.797972"},{"country":"MN","name":"Ulaan-Uul","lat":"50.883168","lng":"98.797972"},{"country":"MN","name":"Bayangol","lat":"45.754724","lng":"103.305739"},{"country":"MN","name":"\u0411\u0430\u044f\u043d\u0433\u043e\u043b","lat":"45.754724","lng":"103.305739"},{"country":"MN","name":"Sant","lat":"45.996809","lng":"103.778195"},{"country":"MN","name":"\u0421\u0430\u043d\u0442","lat":"45.996809","lng":"103.778195"},{"country":"MN","name":"Bayanlig","lat":"44.395392","lng":"100.904806"},{"country":"MN","name":"\u0411\u0430\u044f\u043d\u043b\u0438\u0433","lat":"44.395392","lng":"100.904806"},{"country":"MN","name":"Bayan-\u00d6nj\u00fc\u00fcl","lat":"46.915033","lng":"106.018627"},{"country":"MN","name":"\u0411\u0430\u044f\u043d-\u04e8\u043d\u0436\u04af\u04af\u043b","lat":"46.915033","lng":"106.018627"},{"country":"MN","name":"Bornuur","lat":"48.48887","lng":"106.272689"},{"country":"MN","name":"\u0411\u043e\u0440\u043d\u0443\u0443\u0440","lat":"48.48887","lng":"106.272689"},{"country":"MN","name":"Malchin","lat":"49.718252","lng":"93.202008"},{"country":"MN","name":"\u041c\u0430\u043b\u0447\u0438\u043d","lat":"49.718252","lng":"93.202008"},{"country":"MN","name":"Bayannuur","lat":"47.86702","lng":"104.509667"},{"country":"MN","name":"\u0411\u0430\u044f\u043d\u043d\u0443\u0443\u0440","lat":"47.86702","lng":"104.509667"},{"country":"MN","name":"Mandal-Ovoo","lat":"44.707961","lng":"103.970442"},{"country":"MN","name":"\u041c\u0430\u043d\u0434\u0430\u043b-\u041e\u0432\u043e\u043e","lat":"44.707961","lng":"103.970442"},{"country":"MN","name":"\u0414\u0430\u0440\u0445\u0430\u043d","lat":"46.591659","lng":"109.50089"},{"country":"MN","name":"Darhan","lat":"46.591659","lng":"109.50089"},{"country":"MN","name":"Bayan-Uul","lat":"47.052327","lng":"95.09537"},{"country":"MN","name":"\u0411\u0430\u044f\u043d-\u0423\u0443\u043b","lat":"47.052327","lng":"95.09537"},{"country":"MN","name":"\u0411\u0443\u043b\u0433\u0430\u043d","lat":"47.602033","lng":"114.153139"},{"country":"MN","name":"Bulgan","lat":"47.602033","lng":"114.153139"},{"country":"MN","name":"\u0425\u04e9\u043b\u04e9\u043d\u0431\u0443\u0439\u0440","lat":"47.931453","lng":"113.10625"},{"country":"MN","name":"H\u00f6l\u00f6nbuyr","lat":"47.931453","lng":"113.10625"},{"country":"MN","name":"Ih-Uul","lat":"48.68346","lng":"98.796994"},{"country":"MN","name":"\u0418\u0445-\u0423\u0443\u043b","lat":"48.68346","lng":"98.796994"},{"country":"MN","name":"Erdenehayrhan","lat":"48.168266","lng":"95.72175"},{"country":"MN","name":"\u042d\u0440\u0434\u044d\u043d\u044d\u0445\u0430\u0439\u0440\u0445\u0430\u043d","lat":"48.168266","lng":"95.72175"},{"country":"MN","name":"Tosontsengel","lat":"49.505907","lng":"100.892132"},{"country":"MN","name":"\u0422\u043e\u0441\u043e\u043d\u0446\u044d\u043d\u0433\u044d\u043b","lat":"49.505907","lng":"100.892132"},{"country":"MN","name":"Baruunbayan-Ulaan","lat":"45.213854","lng":"101.516959"},{"country":"MN","name":"\u0411\u0430\u0440\u0443\u0443\u043d\u0431\u0430\u044f\u043d-\u0423\u043b\u0430\u0430\u043d","lat":"45.213854","lng":"101.516959"},{"country":"MN","name":"Bayangov\u012d","lat":"44.678779","lng":"100.037492"},{"country":"MN","name":"\u0411\u0430\u044f\u043d\u0433\u043e\u0432\u044c","lat":"44.678779","lng":"100.037492"},{"country":"MN","name":"Erdene","lat":"44.036376","lng":"97.477536"},{"country":"MN","name":"\u042d\u0440\u0434\u044d\u043d\u044d","lat":"44.036376","lng":"97.477536"},{"country":"MN","name":"M\u00f6nhhaan","lat":"47.105205","lng":"112.170674"},{"country":"MN","name":"\u041c\u04e9\u043d\u0445\u0445\u0430\u0430\u043d","lat":"47.105205","lng":"112.170674"},{"country":"MN","name":"Bugat","lat":"49.016581","lng":"89.956784"},{"country":"MN","name":"\u0411\u0443\u0433\u0430\u0442","lat":"49.016581","lng":"89.956784"},{"country":"MN","name":"Dashinchilen","lat":"47.863787","lng":"104.083544"},{"country":"MN","name":"\u0414\u0430\u0448\u0438\u043d\u0447\u0438\u043b\u044d\u043d","lat":"47.863787","lng":"104.083544"},{"country":"MN","name":"Bulgan","lat":"44.303971","lng":"103.487784"},{"country":"MN","name":"\u0411\u0443\u043b\u0433\u0430\u043d","lat":"44.303971","lng":"103.487784"},{"country":"MN","name":"\u0411\u0443\u043b\u0433\u0430\u043d","lat":"45.91437","lng":"91.209437"},{"country":"MN","name":"Bulgan","lat":"45.91437","lng":"91.209437"},{"country":"MN","name":"\u041c\u0430\u0442\u0430\u0434","lat":"47.108641","lng":"115.722313"},{"country":"MN","name":"Matad","lat":"47.108641","lng":"115.722313"},{"country":"MN","name":"\u0411\u0430\u044f\u043d\u0442\u04af\u043c\u044d\u043d","lat":"48.008309","lng":"114.916935"},{"country":"MN","name":"Bayant\u00fcmen","lat":"48.008309","lng":"114.916935"},{"country":"MN","name":"Tosontsengel","lat":"48.489851","lng":"98.260308"},{"country":"MN","name":"\u0422\u043e\u0441\u043e\u043d\u0446\u044d\u043d\u0433\u044d\u043b","lat":"48.489851","lng":"98.260308"},{"country":"MN","name":"Rashaant","lat":"49.180161","lng":"101.170762"},{"country":"MN","name":"\u0420\u0430\u0448\u0430\u0430\u043d\u0442","lat":"49.180161","lng":"101.170762"},{"country":"MN","name":"\u0425\u0430\u043d\u0445","lat":"51.299173","lng":"100.972944"},{"country":"MN","name":"Hanh","lat":"51.299173","lng":"100.972944"},{"country":"MN","name":"Guchin-Us","lat":"45.349487","lng":"102.366325"},{"country":"MN","name":"\u0413\u0443\u0447\u0438\u043d-\u0423\u0441","lat":"45.349487","lng":"102.366325"},{"country":"MN","name":"Bayan-\u00d6nd\u00f6r","lat":"43.838237","lng":"98.460477"},{"country":"MN","name":"\u0411\u0430\u044f\u043d-\u04e8\u043d\u0434\u04e9\u0440","lat":"43.838237","lng":"98.460477"},{"country":"MN","name":"Hotont","lat":"47.251905","lng":"102.394242"},{"country":"MN","name":"\u0425\u043e\u0442\u043e\u043d\u0442","lat":"47.251905","lng":"102.394242"},{"country":"MN","name":"Sagsay","lat":"48.525772","lng":"89.167541"},{"country":"MN","name":"\u0421\u0430\u0433\u0441\u0430\u0439","lat":"48.525772","lng":"89.167541"},{"country":"MN","name":"Bayandelger","lat":"47.724156","lng":"108.274318"},{"country":"MN","name":"\u0411\u0430\u044f\u043d\u0434\u044d\u043b\u0433\u044d\u0440","lat":"47.724156","lng":"108.274318"},{"country":"MN","name":"Jargalant","lat":"48.563512","lng":"105.795496"},{"country":"MN","name":"\u0416\u0430\u0440\u0433\u0430\u043b\u0430\u043d\u0442","lat":"48.563512","lng":"105.795496"},{"country":"MN","name":"\u0428\u0430\u0440\u0433\u0430","lat":"46.485788","lng":"95.280397"},{"country":"MN","name":"Sharga","lat":"46.485788","lng":"95.280397"},{"country":"MN","name":"\u0411\u0430\u044f\u043d-\u0410\u0433\u0442","lat":"49.103048","lng":"102.11779"},{"country":"MN","name":"Bayan-Agt","lat":"49.103048","lng":"102.11779"},{"country":"MN","name":"\u0422\u04af\u043c\u044d\u043d\u0446\u043e\u0433\u0442","lat":"47.556459","lng":"112.408077"},{"country":"MN","name":"T\u00fcmentsogt","lat":"47.556459","lng":"112.408077"},{"country":"MN","name":"\u0411\u0430\u044f\u043d-\u041e\u0432\u043e\u043e","lat":"47.853135","lng":"112.027445"},{"country":"MN","name":"Bayan-Ovoo","lat":"47.853135","lng":"112.027445"},{"country":"MN","name":"T\u00f6m\u00f6rbulag","lat":"49.266499","lng":"100.207163"},{"country":"MN","name":"\u0422\u04e9\u043c\u04e9\u0440\u0431\u0443\u043b\u0430\u0433","lat":"49.266499","lng":"100.207163"},{"country":"MN","name":"\u0426\u0430\u0433\u0430\u0430\u043d-\u04ae\u04af\u0440","lat":"50.909096","lng":"101.657239"},{"country":"MN","name":"Tsagaan-\u00dc\u00fcr","lat":"50.909096","lng":"101.657239"},{"country":"MN","name":"T\u00f6gr\u00f6g","lat":"45.303216","lng":"103.224426"},{"country":"MN","name":"\u0422\u04e9\u0433\u0440\u04e9\u0433","lat":"45.303216","lng":"103.224426"},{"country":"MN","name":"B\u00fcrd","lat":"47.077712","lng":"103.864774"},{"country":"MN","name":"\u0411\u04af\u0440\u0434","lat":"47.077712","lng":"103.864774"},{"country":"MN","name":"Shinejinst","lat":"43.735731","lng":"99.292416"},{"country":"MN","name":"\u0428\u0438\u043d\u044d\u0436\u0438\u043d\u0441\u0442","lat":"43.735731","lng":"99.292416"},{"country":"MN","name":"Erdenetsogt","lat":"46.562575","lng":"101.028507"},{"country":"MN","name":"\u042d\u0440\u0434\u044d\u043d\u044d\u0446\u043e\u0433\u0442","lat":"46.562575","lng":"101.028507"},{"country":"MN","name":"Delger","lat":"46.218599","lng":"97.576768"},{"country":"MN","name":"\u0414\u044d\u043b\u0433\u044d\u0440","lat":"46.218599","lng":"97.576768"},{"country":"MN","name":"Y\u00f6s\u00f6nbulag","lat":"46.216475","lng":"95.980159"},{"country":"MN","name":"\u0415\u0441\u04e9\u043d\u0431\u0443\u043b\u0430\u0433","lat":"46.216475","lng":"95.980159"},{"country":"MN","name":"\u04e8\u043c\u043d\u04e9\u0434\u044d\u043b\u0433\u044d\u0440","lat":"48.320548","lng":"109.451363"},{"country":"MN","name":"\u00d6mn\u00f6delger","lat":"48.320548","lng":"109.451363"},{"country":"MN","name":"Tolbo","lat":"48.38526","lng":"90.380798"},{"country":"MN","name":"\u0422\u043e\u043b\u0431\u043e","lat":"48.38526","lng":"90.380798"},{"country":"MN","name":"Erdeneb\u00fcren","lat":"48.449229","lng":"91.155203"},{"country":"MN","name":"\u042d\u0440\u0434\u044d\u043d\u044d\u0431\u04af\u0440\u044d\u043d","lat":"48.449229","lng":"91.155203"},{"country":"MN","name":"Sergelen","lat":"47.411164","lng":"107.101443"},{"country":"MN","name":"\u0421\u044d\u0440\u0433\u044d\u043b\u044d\u043d","lat":"47.411164","lng":"107.101443"},{"country":"MN","name":"Myangad","lat":"48.569679","lng":"91.824252"},{"country":"MN","name":"\u041c\u044f\u043d\u0433\u0430\u0434","lat":"48.569679","lng":"91.824252"},{"country":"MN","name":"Naranbulag","lat":"49.4722","lng":"92.487308"},{"country":"MN","name":"\u041d\u0430\u0440\u0430\u043d\u0431\u0443\u043b\u0430\u0433","lat":"49.4722","lng":"92.487308"},{"country":"MN","name":"Bayangol","lat":"48.988328","lng":"106.204156"},{"country":"MN","name":"\u0411\u0430\u044f\u043d\u0433\u043e\u043b","lat":"48.988328","lng":"106.204156"},{"country":"MN","name":"\u0421\u04af\u043c\u0431\u044d\u0440","lat":"46.509178","lng":"108.619517"},{"country":"MN","name":"S\u00fcmber","lat":"46.509178","lng":"108.619517"},{"country":"MN","name":"\u0423\u043b\u0430\u0430\u043d\u0431\u0430\u0434\u0440\u0430\u0445","lat":"43.939758","lng":"110.29493"},{"country":"MN","name":"Ulaanbadrah","lat":"43.939758","lng":"110.29493"},{"country":"MN","name":"\u0422\u04e9\u0433\u0440\u04e9\u0433","lat":"45.740151","lng":"94.825334"},{"country":"MN","name":"T\u00f6gr\u00f6g","lat":"45.740151","lng":"94.825334"},{"country":"MN","name":"\u0425\u0443\u0442\u0430\u0433-\u04e8\u043d\u0434\u04e9\u0440","lat":"49.362488","lng":"102.814946"},{"country":"MN","name":"Hutag-\u00d6nd\u00f6r","lat":"49.362488","lng":"102.814946"},{"country":"MN","name":"\u0422\u04e9\u0432\u0448\u0440\u04af\u04af\u043b\u044d\u0445","lat":"47.416992","lng":"102.069199"},{"country":"MN","name":"T\u00f6vshr\u00fc\u00fcleh","lat":"47.416992","lng":"102.069199"},{"country":"MN","name":"\u0421\u0430\u0439\u043d\u0446\u0430\u0433\u0430\u0430\u043d","lat":"45.758556","lng":"106.363555"},{"country":"MN","name":"Sayntsagaan","lat":"45.758556","lng":"106.363555"},{"country":"MN","name":"\u0425\u0430\u043d\u0433\u0430\u0439","lat":"47.745265","lng":"99.418949"},{"country":"MN","name":"Hangay","lat":"47.745265","lng":"99.418949"},{"country":"MN","name":"\u04e8\u043b\u0433\u0438\u0439","lat":"48.988247","lng":"89.895072"},{"country":"MN","name":"\u00d6lgiy","lat":"48.988247","lng":"89.895072"},{"country":"MN","name":"Haldzan","lat":"46.306857","lng":"112.948808"},{"country":"MN","name":"\u0425\u0430\u043b\u0437\u0430\u043d","lat":"46.306857","lng":"112.948808"},{"country":"MN","name":"Ider","lat":"48.184894","lng":"97.555211"},{"country":"MN","name":"\u0418\u0434\u044d\u0440","lat":"48.184894","lng":"97.555211"},{"country":"MN","name":"Sevrey","lat":"43.727235","lng":"102.374245"},{"country":"MN","name":"\u0421\u044d\u0432\u0440\u044d\u0439","lat":"43.727235","lng":"102.374245"},{"country":"MN","name":"Harhorin","lat":"47.164106","lng":"103.02569"},{"country":"MN","name":"\u0425\u0430\u0440\u0445\u043e\u0440\u0438\u043d","lat":"47.164106","lng":"103.02569"},{"country":"MN","name":"Galuut","lat":"46.753035","lng":"100.007618"},{"country":"MN","name":"\u0413\u0430\u043b\u0443\u0443\u0442","lat":"46.753035","lng":"100.007618"},{"country":"MN","name":"Ihtamir","lat":"47.539262","lng":"100.973739"},{"country":"MN","name":"\u0418\u0445\u0442\u0430\u043c\u0438\u0440","lat":"47.539262","lng":"100.973739"},{"country":"MN","name":"M\u00f6r\u00f6n","lat":"47.306591","lng":"110.243313"},{"country":"MN","name":"\u041c\u04e9\u0440\u04e9\u043d","lat":"47.306591","lng":"110.243313"},{"country":"MN","name":"Dadal","lat":"49.054145","lng":"111.537537"},{"country":"MN","name":"\u0414\u0430\u0434\u0430\u043b","lat":"49.054145","lng":"111.537537"},{"country":"MN","name":"Altay","lat":"48.202574","lng":"89.644874"},{"country":"MN","name":"\u0410\u043b\u0442\u0430\u0439","lat":"48.202574","lng":"89.644874"},{"country":"MN","name":"Hovd","lat":"48.097494","lng":"91.278034"},{"country":"MN","name":"\u0425\u043e\u0432\u0434","lat":"48.097494","lng":"91.278034"},{"country":"MN","name":"Bayan","lat":"47.14994","lng":"107.68763"},{"country":"MN","name":"\u0411\u0430\u044f\u043d","lat":"47.14994","lng":"107.68763"},{"country":"MN","name":"Ugtaaltsaydam","lat":"48.207443","lng":"105.413794"},{"country":"MN","name":"\u0423\u0433\u0442\u0430\u0430\u043b\u0446\u0430\u0439\u0434\u0430\u043c","lat":"48.207443","lng":"105.413794"},{"country":"MN","name":"Davst","lat":"50.453367","lng":"92.101313"},{"country":"MN","name":"\u0414\u0430\u0432\u0441\u0442","lat":"50.453367","lng":"92.101313"},{"country":"MN","name":"Mandal","lat":"48.845776","lng":"106.878787"},{"country":"MN","name":"\u041c\u0430\u043d\u0434\u0430\u043b","lat":"48.845776","lng":"106.878787"},{"country":"MN","name":"\u0426\u043e\u0433\u0442-\u041e\u0432\u043e\u043e","lat":"44.347956","lng":"105.146058"},{"country":"MN","name":"Tsogt-Ovoo","lat":"44.347956","lng":"105.146058"},{"country":"MN","name":"\u0414\u044d\u043b\u0433\u044d\u0440\u0445\u0430\u0430\u043d","lat":"46.69524","lng":"104.619458"},{"country":"MN","name":"Delgerhaan","lat":"46.69524","lng":"104.619458"},{"country":"MN","name":"\u0414\u044d\u043b\u0433\u044d\u0440\u044d\u0445","lat":"45.857837","lng":"111.247799"},{"country":"MN","name":"Delgereh","lat":"45.857837","lng":"111.247799"},{"country":"MN","name":"\u0421\u0430\u0439\u0445\u0430\u043d","lat":"48.60096","lng":"102.585321"},{"country":"MN","name":"Sayhan","lat":"48.60096","lng":"102.585321"},{"country":"MN","name":"\u0426\u044d\u043d\u0445\u044d\u0440","lat":"47.151422","lng":"101.707633"},{"country":"MN","name":"Tsenher","lat":"47.151422","lng":"101.707633"},{"country":"MN","name":"Shar\u00efngol","lat":"49.248727","lng":"106.548252"},{"country":"MN","name":"\u0428\u0430\u0440\u044b\u043d\u0433\u043e\u043b","lat":"49.248727","lng":"106.548252"},{"country":"MN","name":"\u0427\u0443\u043b\u0443\u0443\u0442","lat":"47.494099","lng":"100.169915"},{"country":"MN","name":"Chuluut","lat":"47.494099","lng":"100.169915"},{"country":"MN","name":"\u042d\u0440\u0434\u044d\u043d\u044d\u0431\u0443\u043b\u0433\u0430\u043d","lat":"47.447279","lng":"101.512575"},{"country":"MN","name":"Erdenebulgan","lat":"47.447279","lng":"101.512575"},{"country":"MN","name":"Galt","lat":"48.740865","lng":"100.079196"},{"country":"MN","name":"\u0413\u0430\u043b\u0442","lat":"48.740865","lng":"100.079196"},{"country":"MN","name":"Shine-Ider","lat":"49.033263","lng":"99.591388"},{"country":"MN","name":"\u0428\u0438\u043d\u044d-\u0418\u0434\u044d\u0440","lat":"49.033263","lng":"99.591388"},{"country":"MN","name":"\u0427\u0430\u043d\u0434\u043c\u0430\u043d\u044c-\u04e8\u043d\u0434\u04e9\u0440","lat":"50.509516","lng":"100.852593"},{"country":"MN","name":"Chandman\u012d-\u00d6nd\u00f6r","lat":"50.509516","lng":"100.852593"},{"country":"MN","name":"Dzag","lat":"46.927335","lng":"99.173409"},{"country":"MN","name":"\u0417\u0430\u0433","lat":"46.927335","lng":"99.173409"},{"country":"MN","name":"Haliun","lat":"45.9588","lng":"95.989239"},{"country":"MN","name":"\u0425\u0430\u043b\u0438\u0443\u043d","lat":"45.9588","lng":"95.989239"},{"country":"MN","name":"Bayantsogt","lat":"48.122743","lng":"106.045667"},{"country":"MN","name":"\u0411\u0430\u044f\u043d\u0446\u043e\u0433\u0442","lat":"48.122743","lng":"106.045667"},{"country":"MN","name":"\u0416\u0430\u0440\u0433\u0430\u043b\u0442\u0445\u0430\u0430\u043d","lat":"47.517057","lng":"109.417712"},{"country":"MN","name":"Jargalthaan","lat":"47.517057","lng":"109.417712"},{"country":"MN","name":"Norovlin","lat":"48.582096","lng":"112.060734"},{"country":"MN","name":"\u041d\u043e\u0440\u043e\u0432\u043b\u0438\u043d","lat":"48.582096","lng":"112.060734"},{"country":"MN","name":"Del\u00fc\u00fcn","lat":"47.756152","lng":"90.663201"},{"country":"MN","name":"\u0414\u044d\u043b\u04af\u04af\u043d","lat":"47.756152","lng":"90.663201"},{"country":"MN","name":"Duut","lat":"47.540807","lng":"91.516504"},{"country":"MN","name":"\u0414\u0443\u0443\u0442","lat":"47.540807","lng":"91.516504"},{"country":"MN","name":"Tseel","lat":"48.419277","lng":"105.356983"},{"country":"MN","name":"\u0426\u044d\u044d\u043b","lat":"48.419277","lng":"105.356983"},{"country":"MN","name":"\u0425\u04af\u0434\u044d\u0440","lat":"49.741304","lng":"107.588605"},{"country":"MN","name":"H\u00fcder","lat":"49.741304","lng":"107.588605"},{"country":"MN","name":"\u0426\u043e\u0433\u0442\u0446\u044d\u0446\u0438\u0439","lat":"43.815234","lng":"105.882466"},{"country":"MN","name":"Tsogttsetsiy","lat":"43.815234","lng":"105.882466"},{"country":"MN","name":"\u0425\u0430\u043d\u0445\u043e\u043d\u0433\u043e\u0440","lat":"43.694249","lng":"104.633828"},{"country":"MN","name":"Hanhongor","lat":"43.694249","lng":"104.633828"},{"country":"MN","name":"\u0411\u0430\u044f\u043d-\u04e8\u043d\u0434\u04e9\u0440","lat":"46.519111","lng":"104.248001"},{"country":"MN","name":"Bayan-\u00d6nd\u00f6r","lat":"46.519111","lng":"104.248001"},{"country":"MN","name":"\u0411\u0430\u044f\u043d","lat":"46.060255","lng":"108.513161"},{"country":"MN","name":"Bayan","lat":"46.060255","lng":"108.513161"},{"country":"MN","name":"\u0410\u043b\u0442\u0430\u043d\u0448\u0438\u0440\u044d\u044d","lat":"45.523826","lng":"110.396796"},{"country":"MN","name":"Altanshiree","lat":"45.523826","lng":"110.396796"},{"country":"MN","name":"\u041c\u043e\u0433\u043e\u0434","lat":"48.249953","lng":"102.919143"},{"country":"MN","name":"Mogod","lat":"48.249953","lng":"102.919143"},{"country":"MN","name":"Erdenetsagaan","lat":"46.004035","lng":"115.519437"},{"country":"MN","name":"\u042d\u0440\u0434\u044d\u043d\u044d\u0446\u0430\u0433\u0430\u0430\u043d","lat":"46.004035","lng":"115.519437"},{"country":"MN","name":"\u0411\u0430\u0442\u0446\u044d\u043d\u0433\u044d\u043b","lat":"47.872986","lng":"101.895916"},{"country":"MN","name":"Battsengel","lat":"47.872986","lng":"101.895916"},{"country":"MN","name":"\u0421\u0430\u0439\u043d\u0448\u0430\u043d\u0434","lat":"44.625398","lng":"109.881933"},{"country":"MN","name":"Saynshand","lat":"44.625398","lng":"109.881933"},{"country":"MN","name":"\u0425\u0430\u043d\u0433\u0430\u0439","lat":"48.563767","lng":"101.972862"},{"country":"MN","name":"Hayrhan","lat":"48.563767","lng":"101.972862"},{"country":"MN","name":"\u0416\u0430\u0440\u0433\u0430\u043b\u0430\u043d\u0442","lat":"47.24154","lng":"99.569186"},{"country":"MN","name":"Jargalant","lat":"47.24154","lng":"99.569186"},{"country":"MN","name":"Jargalant","lat":"48.559724","lng":"99.425406"},{"country":"MN","name":"\u0416\u0430\u0440\u0433\u0430\u043b\u0430\u043d\u0442","lat":"48.559724","lng":"99.425406"},{"country":"MN","name":"\u0410\u043b\u0430\u0433-\u042d\u0440\u0434\u044d\u043d\u044d","lat":"50.310541","lng":"100.086524"},{"country":"MN","name":"Alag-Erdene","lat":"50.310541","lng":"100.086524"},{"country":"MN","name":"Noyon","lat":"42.7629","lng":"102.378945"},{"country":"MN","name":"\u041d\u043e\u0451\u043d","lat":"42.7629","lng":"102.378945"},{"country":"MN","name":"Gurvantes","lat":"43.328162","lng":"100.718354"},{"country":"MN","name":"\u0413\u0443\u0440\u0432\u0430\u043d\u0442\u044d\u0441","lat":"43.328162","lng":"100.718354"},{"country":"MN","name":"Hujirt","lat":"46.824169","lng":"102.831184"},{"country":"MN","name":"\u0425\u0443\u0436\u0438\u0440\u0442","lat":"46.824169","lng":"102.831184"},{"country":"MN","name":"Tariat","lat":"48.223944","lng":"99.861818"},{"country":"MN","name":"\u0422\u0430\u0440\u0438\u0430\u0442","lat":"48.223944","lng":"99.861818"},{"country":"MN","name":"Otgon","lat":"47.389497","lng":"97.828182"},{"country":"MN","name":"\u041e\u0442\u0433\u043e\u043d","lat":"47.389497","lng":"97.828182"},{"country":"MN","name":"Bulgan","lat":"47.040992","lng":"91.197817"},{"country":"MN","name":"\u0411\u0443\u043b\u0433\u0430\u043d","lat":"47.040992","lng":"91.197817"},{"country":"MN","name":"\u0426\u044d\u043d\u0445\u044d\u0440\u043c\u0430\u043d\u0434\u0430\u043b","lat":"47.810254","lng":"108.877792"},{"country":"MN","name":"Tsenhermandal","lat":"47.810254","lng":"108.877792"},{"country":"MN","name":"M\u00f6nhhayrhan","lat":"46.998206","lng":"91.813316"},{"country":"MN","name":"\u041c\u04e9\u043d\u0445\u0445\u0430\u0439\u0440\u0445\u0430\u043d","lat":"46.998206","lng":"91.813316"},{"country":"MN","name":"Tarialan","lat":"49.752654","lng":"91.870864"},{"country":"MN","name":"\u0422\u0430\u0440\u0438\u0430\u043b\u0430\u043d","lat":"49.752654","lng":"91.870864"},{"country":"MN","name":"Dzaamar","lat":"48.281988","lng":"104.707982"},{"country":"MN","name":"\u0417\u0430\u0430\u043c\u0430\u0440","lat":"48.281988","lng":"104.707982"},{"country":"MN","name":"Dz\u00fc\u00fcnb\u00fcren","lat":"49.968684","lng":"105.907214"},{"country":"MN","name":"\u0417\u04af\u04af\u043d\u0431\u04af\u0440\u044d\u043d","lat":"49.968684","lng":"105.907214"},{"country":"MN","name":"Buyant","lat":"48.598701","lng":"89.698703"},{"country":"MN","name":"\u0411\u0443\u044f\u043d\u0442","lat":"48.598701","lng":"89.698703"},{"country":"MN","name":"Y\u00f6r\u00f6\u00f6","lat":"49.337956","lng":"107.26018"},{"country":"MN","name":"\u0415\u0440\u04e9\u04e9","lat":"49.337956","lng":"107.26018"},{"country":"MN","name":"\u041c\u0430\u043d\u043b\u0430\u0439","lat":"43.96449","lng":"107.149549"},{"country":"MN","name":"Manlay","lat":"43.96449","lng":"107.149549"},{"country":"MN","name":"\u0426\u0430\u0433\u0430\u0430\u043d\u0434\u044d\u043b\u0433\u044d\u0440","lat":"46.419926","lng":"107.715314"},{"country":"MN","name":"Tsagaandelger","lat":"46.419926","lng":"107.715314"},{"country":"MN","name":"\u0411\u0430\u044f\u043d\u0442\u0430\u043b","lat":"46.680182","lng":"108.309088"},{"country":"MN","name":"Bayantal","lat":"46.680182","lng":"108.309088"},{"country":"MN","name":"Tonhil","lat":"45.791042","lng":"93.756329"},{"country":"MN","name":"\u0422\u043e\u043d\u0445\u0438\u043b","lat":"45.791042","lng":"93.756329"},{"country":"MN","name":"Tseel","lat":"45.417185","lng":"95.611902"},{"country":"MN","name":"\u0426\u044d\u044d\u043b","lat":"45.417185","lng":"95.611902"},{"country":"MN","name":"\u04e8\u043b\u0437\u0438\u0439\u0442","lat":"48.085233","lng":"102.504895"},{"country":"MN","name":"\u00d6ldziyt","lat":"48.085233","lng":"102.504895"},{"country":"MN","name":"Asgat","lat":"46.124333","lng":"113.91681"},{"country":"MN","name":"\u0410\u0441\u0433\u0430\u0442","lat":"46.124333","lng":"113.91681"},{"country":"MN","name":"Shil\u00fc\u00fcstey","lat":"46.969358","lng":"97.155423"},{"country":"MN","name":"\u0428\u0438\u043b\u04af\u04af\u0441\u0442\u044d\u0439","lat":"46.969358","lng":"97.155423"},{"country":"MN","name":"Bayantes","lat":"49.773026","lng":"96.307198"},{"country":"MN","name":"\u0411\u0430\u044f\u043d\u0442\u044d\u0441","lat":"49.773026","lng":"96.307198"},{"country":"MN","name":"\u0410\u0440\u0431\u0443\u043b\u0430\u0433","lat":"49.956214","lng":"99.34749"},{"country":"MN","name":"Arbulag","lat":"49.956214","lng":"99.34749"},{"country":"MN","name":"Bayandalay","lat":"43.176709","lng":"103.302221"},{"country":"MN","name":"\u0411\u0430\u044f\u043d\u0434\u0430\u043b\u0430\u0439","lat":"43.176709","lng":"103.302221"},{"country":"MN","name":"Buutsagaan","lat":"46.217205","lng":"98.77403"},{"country":"MN","name":"\u0411\u0443\u0443\u0446\u0430\u0433\u0430\u0430\u043d","lat":"46.217205","lng":"98.77403"},{"country":"MN","name":"H\u00fcreemaral","lat":"46.48081","lng":"98.291375"},{"country":"MN","name":"\u0425\u04af\u0440\u044d\u044d\u043c\u0430\u0440\u0430\u043b","lat":"46.48081","lng":"98.291375"},{"country":"MN","name":"Tsagaanchuluut","lat":"47.129083","lng":"96.71958"},{"country":"MN","name":"\u0426\u0430\u0433\u0430\u0430\u043d\u0447\u0443\u043b\u0443\u0443\u0442","lat":"47.129083","lng":"96.71958"},{"country":"MN","name":"Nogoonnuur","lat":"49.530694","lng":"89.935761"},{"country":"MN","name":"\u041d\u043e\u0433\u043e\u043e\u043d\u043d\u0443\u0443\u0440","lat":"49.530694","lng":"89.935761"},{"country":"MN","name":"Argalant","lat":"47.859111","lng":"106.091576"},{"country":"MN","name":"\u0410\u0440\u0433\u0430\u043b\u0430\u043d\u0442","lat":"47.859111","lng":"106.091576"},{"country":"MN","name":"T\u00fcrgen","lat":"50.053335","lng":"91.479874"},{"country":"MN","name":"\u0422\u03b3\u0440\u0433\u044d\u043d","lat":"50.053335","lng":"91.479874"},{"country":"MN","name":"Bayanchandman\u012d","lat":"48.212653","lng":"106.240925"},{"country":"MN","name":"\u0411\u0430\u044f\u043d\u0447\u0430\u043d\u0434\u043c\u0430\u043d\u044c","lat":"48.212653","lng":"106.240925"},{"country":"MN","name":"Hushaat","lat":"49.725509","lng":"105.39378"},{"country":"MN","name":"\u0425\u0443\u0448\u0430\u0430\u0442","lat":"49.725509","lng":"105.39378"},{"country":"MN","name":"Javhlant","lat":"49.750207","lng":"106.335819"},{"country":"MN","name":"\u0416\u0430\u0432\u0445\u043b\u0430\u043d\u0442","lat":"49.750207","lng":"106.335819"},{"country":"MN","name":"Hanbogd","lat":"42.908808","lng":"107.264282"},{"country":"MN","name":"\u0425\u0430\u043d\u0431\u043e\u0433\u0434","lat":"42.908808","lng":"107.264282"},{"country":"MN","name":"\u0413\u043e\u0432\u044c-\u0423\u0433\u0442\u0430\u0430\u043b","lat":"45.998451","lng":"107.47776"},{"country":"MN","name":"Gov\u012d-Ugtaal","lat":"45.998451","lng":"107.47776"},{"country":"MN","name":"\u0411\u0430\u044f\u043d\u0436\u0430\u0440\u0433\u0430\u043b\u0430\u043d","lat":"47.110521","lng":"108.327215"},{"country":"MN","name":"Bayanjargalan","lat":"47.110521","lng":"108.327215"},{"country":"MN","name":"Buyant","lat":"47.920319","lng":"91.756642"},{"country":"MN","name":"\u0411\u0443\u044f\u043d\u0442","lat":"47.920319","lng":"91.756642"},{"country":"MN","name":"\u0425\u04e9\u0432\u0441\u0433\u04e9\u043b","lat":"43.429019","lng":"109.901572"},{"country":"MN","name":"H\u00f6vsg\u00f6l","lat":"43.429019","lng":"109.901572"},{"country":"MN","name":"\u0418\u0445\u0445\u044d\u0442","lat":"46.162695","lng":"110.122327"},{"country":"MN","name":"Ihhet","lat":"46.162695","lng":"110.122327"},{"country":"MN","name":"\u0421\u0430\u0439\u0445\u0430\u043d-\u041e\u0432\u043e\u043e","lat":"45.574381","lng":"104.100521"},{"country":"MN","name":"Sayhan-Ovoo","lat":"45.574381","lng":"104.100521"},{"country":"MN","name":"\u042d\u0440\u0434\u044d\u043d\u044d\u043c\u0430\u043d\u0434\u0430\u043b","lat":"48.368421","lng":"101.444985"},{"country":"MN","name":"Erdenemandal","lat":"48.368421","lng":"101.444985"},{"country":"MN","name":"\u0411\u0430\u044f\u043d\u0431\u0443\u043b\u0430\u0433","lat":"46.871852","lng":"98.094761"},{"country":"MN","name":"Bayanbulag","lat":"46.871852","lng":"98.094761"},{"country":"MN","name":"Asgat","lat":"49.501171","lng":"96.7262"},{"country":"MN","name":"\u0410\u0441\u0433\u0430\u0442","lat":"49.501171","lng":"96.7262"},{"country":"MN","name":"\u0426\u044d\u0446\u044d\u0440\u043b\u044d\u0433","lat":"49.500187","lng":"97.770373"},{"country":"MN","name":"Tsetserleg","lat":"49.500187","lng":"97.770373"},{"country":"MN","name":"\u0411\u0430\u044f\u043d\u0437\u04af\u0440\u0445","lat":"50.247833","lng":"98.685169"},{"country":"MN","name":"Bayandz\u00fcrh","lat":"50.247833","lng":"98.685169"},{"country":"MN","name":"Bat-\u00d6ldziy","lat":"46.791511","lng":"101.896321"},{"country":"MN","name":"\u0411\u0430\u0442-\u04e8\u043b\u0437\u0438\u0439","lat":"46.791511","lng":"101.896321"},{"country":"MN","name":"B\u00f6mb\u00f6g\u00f6r","lat":"46.25813","lng":"99.638967"},{"country":"MN","name":"\u0411\u04e9\u043c\u0431\u04e9\u0433\u04e9\u0440","lat":"46.25813","lng":"99.638967"},{"country":"MN","name":"Biger","lat":"45.727422","lng":"97.161166"},{"country":"MN","name":"\u0411\u0438\u0433\u044d\u0440","lat":"45.727422","lng":"97.161166"},{"country":"MN","name":"Bogd","lat":"44.539708","lng":"102.346694"},{"country":"MN","name":"\u0411\u043e\u0433\u0434","lat":"44.539708","lng":"102.346694"},{"country":"MN","name":"Sagil","lat":"50.324372","lng":"91.212049"},{"country":"MN","name":"\u0421\u0430\u0433\u0438\u043b","lat":"50.324372","lng":"91.212049"},{"country":"MN","name":"Sant","lat":"49.391036","lng":"105.35842"},{"country":"MN","name":"\u0421\u0430\u043d\u0442","lat":"49.391036","lng":"105.35842"},{"country":"MN","name":"Shaamar","lat":"50.07842","lng":"106.25225"},{"country":"MN","name":"\u0428\u0430\u0430\u043c\u0430\u0440","lat":"50.07842","lng":"106.25225"},{"country":"MN","name":"Altanbulag","lat":"50.081652","lng":"106.719214"},{"country":"MN","name":"\u0410\u043b\u0442\u0430\u043d\u0431\u0443\u043b\u0430\u0433","lat":"50.081652","lng":"106.719214"},{"country":"MN","name":"\u0411\u0430\u044f\u043d-\u041e\u0432\u043e\u043e","lat":"42.757077","lng":"105.964031"},{"country":"MN","name":"Bayan-Ovoo","lat":"42.757077","lng":"105.964031"},{"country":"MN","name":"\u0411\u0430\u044f\u043d\u0436\u0430\u0440\u0433\u0430\u043b\u0430\u043d","lat":"45.767405","lng":"108.094599"},{"country":"MN","name":"Bayanjargalan","lat":"45.767405","lng":"108.094599"},{"country":"MN","name":"\u0411\u0430\u044f\u043d\u0446\u0430\u0433\u0430\u0430\u043d","lat":"46.748442","lng":"107.194122"},{"country":"MN","name":"Bayantsagaan","lat":"46.748442","lng":"107.194122"},{"country":"MN","name":"Tes","lat":"49.627627","lng":"95.626363"},{"country":"MN","name":"\u0422\u044d\u0441","lat":"49.627627","lng":"95.626363"},{"country":"MN","name":"\u0414\u0430\u043b\u0430\u043d\u0436\u0430\u0440\u0433\u0430\u043b\u0430\u043d","lat":"46.01514","lng":"109.092353"},{"country":"MN","name":"Dalanjargalan","lat":"46.01514","lng":"109.092353"},{"country":"MN","name":"\u0413\u0443\u0440\u0432\u0430\u043d\u0431\u0443\u043b\u0430\u0433","lat":"47.733597","lng":"103.391439"},{"country":"MN","name":"Gurvanbulag","lat":"47.733597","lng":"103.391439"},{"country":"MN","name":"\u0425\u0438\u0448\u0438\u0433-\u04e8\u043d\u0434\u04e9\u0440","lat":"48.199747","lng":"103.558336"},{"country":"MN","name":"Hishig-\u00d6nd\u00f6r","lat":"48.199747","lng":"103.558336"},{"country":"MN","name":"\u04e8\u0433\u0438\u0439\u043d\u0443\u0443\u0440","lat":"47.709732","lng":"102.656465"},{"country":"MN","name":"\u00d6giynuur","lat":"47.709732","lng":"102.656465"},{"country":"MN","name":"Tsagaanhayrhan","lat":"47.406147","lng":"96.814126"},{"country":"MN","name":"\u0426\u0430\u0433\u0430\u0430\u043d\u0445\u0430\u0439\u0440\u0445\u0430\u043d","lat":"47.406147","lng":"96.814126"},{"country":"MN","name":"Bayanhayrhan","lat":"49.349218","lng":"96.45633"},{"country":"MN","name":"\u0411\u0430\u044f\u043d\u0445\u0430\u0439\u0440\u0445\u0430\u043d","lat":"49.349218","lng":"96.45633"},{"country":"MN","name":"Dz\u00fc\u00fcnbayan-Ulaan","lat":"46.431938","lng":"103.067484"},{"country":"MN","name":"\u0417\u04af\u04af\u043d\u0431\u0430\u044f\u043d-\u0423\u043b\u0430\u0430\u043d","lat":"46.431938","lng":"103.067484"},{"country":"MN","name":"Uyanga","lat":"46.414274","lng":"101.941405"},{"country":"MN","name":"\u0423\u044f\u043d\u0433\u0430","lat":"46.414274","lng":"101.941405"},{"country":"MN","name":"Bayan-Ovoo","lat":"46.184479","lng":"100.30478"},{"country":"MN","name":"\u0411\u0430\u044f\u043d-\u041e\u0432\u043e\u043e","lat":"46.184479","lng":"100.30478"},{"country":"MN","name":"Y\u00f6s\u00f6ndz\u00fcyl","lat":"46.617331","lng":"103.64586"},{"country":"MN","name":"\u0415\u0441\u04e9\u043d\u0437\u04af\u0439\u043b","lat":"46.617331","lng":"103.64586"},{"country":"MN","name":"Jargalan","lat":"47.057503","lng":"95.900273"},{"country":"MN","name":"\u0416\u0430\u0440\u0433\u0430\u043b\u0430\u043d","lat":"47.057503","lng":"95.900273"},{"country":"MN","name":"Nomgon","lat":"42.414624","lng":"105.056405"},{"country":"MN","name":"\u041d\u043e\u043c\u0433\u043e\u043d","lat":"42.414624","lng":"105.056405"},{"country":"MN","name":"Tsengel","lat":"48.777407","lng":"88.536159"},{"country":"MN","name":"\u0426\u044d\u043d\u0433\u044d\u043b","lat":"48.777407","lng":"88.536159"},{"country":"MN","name":"Bayanhangay","lat":"47.8096","lng":"105.632647"},{"country":"MN","name":"\u0411\u0430\u044f\u043d\u0445\u0430\u043d\u0433\u0430\u0439","lat":"47.8096","lng":"105.632647"},{"country":"MN","name":"\u0410\u0440\u0432\u0430\u0439\u0445\u044d\u044d\u0440","lat":"46.32161","lng":"102.729704"},{"country":"MN","name":"Arvaiheer","lat":"46.32161","lng":"102.729704"},{"country":"MN","name":"\u041c\u04e9\u0440\u04e9\u043d","lat":"49.649045","lng":"100.096677"},{"country":"MN","name":"M\u00f6r\u00f6n","lat":"49.649045","lng":"100.096677"},{"country":"MN","name":"\u0414\u0430\u043b\u0430\u043d\u0437\u0430\u0434\u0433\u0430\u0434","lat":"43.552772","lng":"104.327872"},{"country":"MN","name":"Dalanzadgad","lat":"43.552772","lng":"104.327872"},{"country":"MN","name":"\u0411\u0430\u0440\u0443\u0443\u043d-\u0423\u0440\u0442","lat":"46.652608","lng":"113.280235"},{"country":"MN","name":"Baruun-Urt","lat":"46.652608","lng":"113.280235"},{"country":"MN","name":"Choybalsan","lat":"48.066667","lng":"114.5"},{"country":"MN","name":"\u0427\u043e\u0439\u0431\u0430\u043b\u0441\u0430\u043d","lat":"48.066667","lng":"114.5"},{"country":"MN","name":"Tsetserleg","lat":"47.475","lng":"101.454167"},{"country":"MN","name":"\u0426\u044d\u0446\u044d\u0440\u043b\u044d\u0433","lat":"47.475","lng":"101.454167"},{"country":"MN","name":"\u0411\u0430\u0440\u0443\u0443\u043d-\u0423\u0440\u0442","lat":"46.680556","lng":"113.279167"},{"country":"MN","name":"Baruun-Urt","lat":"46.680556","lng":"113.279167"},{"country":"MN","name":"Ulaangom","lat":"49.981111","lng":"92.066667"},{"country":"MN","name":"\u0423\u043b\u0430\u0430\u043d\u0433\u043e\u043c","lat":"49.981111","lng":"92.066667"},{"country":"MN","name":"Bulgan","lat":"48.8125","lng":"103.534722"},{"country":"MN","name":"\u0411\u0443\u043b\u0433\u0430\u043d","lat":"48.8125","lng":"103.534722"},{"country":"MN","name":"Arvayheer","lat":"46.263889","lng":"102.775"},{"country":"MN","name":"\u0410\u0440\u0432\u0430\u0439\u0445\u044d\u044d\u0440","lat":"46.263889","lng":"102.775"},{"country":"MN","name":"Bayanhongor","lat":"46.194444","lng":"100.718056"},{"country":"MN","name":"\u0411\u0430\u044f\u043d\u0445\u043e\u043d\u0433\u043e\u0440","lat":"46.194444","lng":"100.718056"},{"country":"MN","name":"\u0414\u0430\u0440\u0445\u0430\u043d","lat":"49.486667","lng":"105.922778"},{"country":"MN","name":"Darhan","lat":"49.486667","lng":"105.922778"},{"country":"MN","name":"\u04e8\u043d\u0434\u04e9\u0440\u0445\u0430\u0430\u043d","lat":"47.319444","lng":"110.655556"},{"country":"MN","name":"\u00d6nd\u00f6rhaan","lat":"47.319444","lng":"110.655556"},{"country":"MN","name":"\u00dcy\u00f6nch","lat":"46.05","lng":"92.016667"},{"country":"MN","name":"\u00dcydzin","lat":"44.083333","lng":"106.833333"},{"country":"MN","name":"Uujim","lat":"48.9","lng":"89.616667"},{"country":"MN","name":"Buyant","lat":"46.25","lng":"110.833333"},{"country":"MN","name":"Buyant","lat":"46.15","lng":"98.666667"},{"country":"MN","name":"Buyanbat","lat":"46.983333","lng":"95.95"},{"country":"MN","name":"Burgaltay","lat":"49.278611","lng":"104.735278"},{"country":"MN","name":"B\u00fcrenhayrhan","lat":"46.083333","lng":"91.566667"},{"country":"MN","name":"Ulaan-Ereg","lat":"46.9","lng":"109.75"},{"country":"MN","name":"Ulaandel","lat":"46.366667","lng":"113.6"},{"country":"MN","name":"Turt","lat":"51.5125","lng":"100.663889"},{"country":"MN","name":"Tsul-Ulaan","lat":"47.833333","lng":"104.5"},{"country":"MN","name":"Bugat","lat":"49.533333","lng":"93.816667"},{"country":"MN","name":"Bugat","lat":"49.066667","lng":"103.665833"},{"country":"MN","name":"Bugant","lat":"49.583333","lng":"106.85"},{"country":"MN","name":"Buga","lat":"49.016667","lng":"90.183333"},{"country":"MN","name":"Buga","lat":"47.7","lng":"94.866667"},{"country":"MN","name":"Bor-\u00dcdz\u00fc\u00fcr","lat":"45.8","lng":"92.283333"},{"country":"MN","name":"Bornuur","lat":"48.466667","lng":"106.266667"},{"country":"MN","name":"B\u00f6h\u00f6t","lat":"45.25","lng":"108.283333"},{"country":"MN","name":"Bod\u012d","lat":"45.4","lng":"100.566667"},{"country":"MN","name":"Bil\u00fc\u00fc","lat":"49.033333","lng":"89.383333"},{"country":"MN","name":"Bayshint","lat":"49.666667","lng":"90.283333"},{"country":"MN","name":"Bayshint","lat":"47.416667","lng":"104.816667"},{"country":"MN","name":"Bayasgalant","lat":"47.183333","lng":"108.25"},{"country":"MN","name":"Bayasgalant","lat":"46.983333","lng":"112.05"},{"country":"MN","name":"Tsenher","lat":"46.916667","lng":"92.116667"},{"country":"MN","name":"Tsengel","lat":"49.478333","lng":"100.889444"},{"country":"MN","name":"Tseel","lat":"45.566667","lng":"95.866667"},{"country":"MN","name":"Tsant","lat":"46.183333","lng":"106.716667"},{"country":"MN","name":"Tsalgar","lat":"49.716667","lng":"93.266667"},{"country":"MN","name":"Tsahir","lat":"48.079722","lng":"98.851667"},{"country":"MN","name":"Tsagaant\u00fcngi","lat":"49.05","lng":"90.45"},{"country":"MN","name":"Tsagaan Ovoo","lat":"45.95","lng":"101.483333"},{"country":"MN","name":"Tsagaan-Ovoo","lat":"45.516667","lng":"105.75"},{"country":"MN","name":"Tsagaan-Olom","lat":"46.7","lng":"96.5"},{"country":"MN","name":"Bayan-Ulaan","lat":"46.516667","lng":"102.583333"},{"country":"MN","name":"Bayan-Uhaa","lat":"48.55","lng":"98.666667"},{"country":"MN","name":"Bayantsagaan","lat":"48.731667","lng":"100.76"},{"country":"MN","name":"Bayant\u00f6h\u00f6m","lat":"46.916667","lng":"105.05"},{"country":"MN","name":"Bayansayr","lat":"45.55","lng":"99.416667"},{"country":"MN","name":"Bayan-Ovoo","lat":"49.016667","lng":"111.633333"},{"country":"MN","name":"Bayan-Ovoo","lat":"44.616667","lng":"94.916667"},{"country":"MN","name":"Bayannuur","lat":"48.933333","lng":"91.133333"},{"country":"MN","name":"Bayanhushuu","lat":"48.233333","lng":"91.916667"},{"country":"MN","name":"Bayanhushuu","lat":"46.716667","lng":"100.133333"},{"country":"MN","name":"Bayangol","lat":"45.549132","lng":"94.367624"},{"country":"MN","name":"Bayandelger","lat":"47.733333","lng":"108.116667"},{"country":"MN","name":"Bayanbulag","lat":"47.866667","lng":"109.916667"},{"country":"MN","name":"Bayanbulag","lat":"46.8","lng":"98.1"},{"country":"MN","name":"Bumbat","lat":"46.466667","lng":"104.1"},{"country":"MN","name":"Bulgan","lat":"50.541944","lng":"101.514167"},{"country":"MN","name":"Bulgan","lat":"46.95","lng":"93.633333"},{"country":"MN","name":"Bulgan","lat":"44.783333","lng":"98.65"},{"country":"MN","name":"Bulgan","lat":"44.112778","lng":"103.5425"},{"country":"MN","name":"Bulagtay","lat":"49.766667","lng":"107.55"},{"country":"MN","name":"Bulagiyn Denj","lat":"47.316667","lng":"101.1"},{"country":"MN","name":"Bulag","lat":"49.85","lng":"100.616667"},{"country":"MN","name":"Bulag","lat":"48.2","lng":"108.483333"},{"country":"MN","name":"Doloon","lat":"44.433333","lng":"105.333333"},{"country":"MN","name":"Delgerm\u00f6r\u00f6n","lat":"46.516667","lng":"98.35"},{"country":"MN","name":"Dashbalbar","lat":"49.533333","lng":"114.4"},{"country":"MN","name":"Darvi","lat":"46.45","lng":"94.116667"},{"country":"MN","name":"Darhan","lat":"48.233333","lng":"103.95"},{"country":"MN","name":"Darhan","lat":"46.616667","lng":"109.416667"},{"country":"MN","name":"Dalay","lat":"43.49","lng":"103.524444"},{"country":"MN","name":"Chonogol","lat":"45.9","lng":"115.366667"},{"country":"MN","name":"Chihertey","lat":"48.3","lng":"89.5"},{"country":"MN","name":"Chandman\u012d","lat":"48.05","lng":"96.25"},{"country":"MN","name":"Chandman\u012d","lat":"45.533333","lng":"110.466667"},{"country":"MN","name":"Buyant","lat":"48.566667","lng":"89.533333"},{"country":"MN","name":"Buyant","lat":"48.066667","lng":"91.816667"},{"country":"MN","name":"Buyant","lat":"47.183333","lng":"97.55"},{"country":"MN","name":"Sangiyn Dalay","lat":"42.833333","lng":"105.133333"},{"country":"MN","name":"Dz\u00fc\u00fcnbulag","lat":"46.383333","lng":"112.183333"},{"country":"MN","name":"Dzur","lat":"49.65","lng":"95.766667"},{"country":"MN","name":"Dz\u00f6\u00f6l\u00f6n","lat":"51.1125","lng":"99.669444"},{"country":"MN","name":"Dzogsool","lat":"46.8","lng":"107.15"},{"country":"MN","name":"Dzelter","lat":"50.315556","lng":"105.045833"},{"country":"MN","name":"Dzel","lat":"49.9","lng":"93.783333"},{"country":"MN","name":"Dzegstey","lat":"47.65","lng":"102.566667"},{"country":"MN","name":"Dzalaa","lat":"44.533333","lng":"99.266667"},{"country":"MN","name":"Dzag","lat":"46.933333","lng":"99.166667"},{"country":"MN","name":"Dzadgay","lat":"46.183333","lng":"99.566667"},{"country":"MN","name":"Duut","lat":"47.516667","lng":"91.633333"},{"country":"MN","name":"Dund-Urt","lat":"48.037908","lng":"105.921895"},{"country":"MN","name":"Dundb\u00fcrd","lat":"47.916667","lng":"111.5"},{"country":"MN","name":"Tsagaannuur","lat":"51.356389","lng":"99.344444"},{"country":"MN","name":"Uubulan","lat":"48.613889","lng":"101.928611"},{"country":"MN","name":"Urt","lat":"43.25","lng":"101.083333"},{"country":"MN","name":"Urdgol","lat":"47.833333","lng":"92.65"},{"country":"MN","name":"Uldz","lat":"48.666667","lng":"111.983333"},{"country":"MN","name":"Ulaan-Uul","lat":"46.083333","lng":"100.833333"},{"country":"MN","name":"Ulaan-Uul","lat":"44.333333","lng":"111.233333"},{"country":"MN","name":"Ulaantolgoy","lat":"46.683333","lng":"92.783333"},{"country":"MN","name":"Ulaanjirem","lat":"45.05","lng":"105.566667"},{"country":"MN","name":"Ulaanhudag","lat":"47.333333","lng":"104.5"},{"country":"MN","name":"Ulaanhad","lat":"47.933333","lng":"105.55"},{"country":"MN","name":"Rashaant","lat":"47.766667","lng":"90.833333"},{"country":"MN","name":"Rashaant","lat":"45.3","lng":"106.2"},{"country":"MN","name":"Oygon","lat":"49","lng":"96.55"},{"country":"MN","name":"\u00d6vt","lat":"46.816667","lng":"102.25"},{"country":"MN","name":"Ovoot","lat":"45.3","lng":"113.866667"},{"country":"MN","name":"\u00d6v\u00f6gdiy","lat":"48.642778","lng":"97.618611"},{"country":"MN","name":"Orhontuul","lat":"48.949722","lng":"104.975833"},{"country":"MN","name":"\u00d6rg\u00f6n","lat":"44.733333","lng":"100.366667"},{"country":"MN","name":"Orgil","lat":"48.587222","lng":"99.350833"},{"country":"MN","name":"Orgil","lat":"48.416667","lng":"105.333333"},{"country":"MN","name":"Onon","lat":"48.616667","lng":"110.6"},{"country":"MN","name":"Ongon","lat":"46.966667","lng":"103.783333"},{"country":"MN","name":"Ongi","lat":"46.466667","lng":"102.283333"},{"country":"MN","name":"Ongi","lat":"45.45","lng":"103.9"},{"country":"MN","name":"Halban","lat":"49.5","lng":"97.6"},{"country":"MN","name":"Hajuu-Us","lat":"46.066667","lng":"107.5"},{"country":"MN","name":"Erhet","lat":"48.280556","lng":"102.974722"},{"country":"MN","name":"Ergel","lat":"43.15","lng":"109.133333"},{"country":"MN","name":"Ereentsav","lat":"49.883333","lng":"115.716667"},{"country":"MN","name":"Erdenetsogt","lat":"46.416667","lng":"100.8"},{"country":"MN","name":"Erdenetsogt","lat":"42.974167","lng":"106.126944"},{"country":"MN","name":"Erdenet","lat":"48.952778","lng":"99.533333"},{"country":"MN","name":"Enhtal","lat":"49.2475","lng":"105.373611"},{"country":"MN","name":"Eg","lat":"48.683333","lng":"110.183333"},{"country":"MN","name":"Dz\u00fcyl","lat":"46.266667","lng":"93.916667"},{"country":"MN","name":"Dzuunmod","lat":"48.2125","lng":"97.378611"},{"country":"MN","name":"Dz\u00fc\u00fcnh\u00f6v\u00f6\u00f6","lat":"50.6","lng":"92.4"},{"country":"MN","name":"Dz\u00fc\u00fcnbulag","lat":"47.15","lng":"115.533333"},{"country":"MN","name":"Sharga","lat":"49.8","lng":"98.8"},{"country":"MN","name":"Sharga","lat":"49.050278","lng":"102.080556"},{"country":"MN","name":"Sharga","lat":"46.25","lng":"95.266667"},{"country":"MN","name":"Sharbulag","lat":"48.816667","lng":"93.1"},{"country":"MN","name":"Sergelen","lat":"48.566667","lng":"114.083333"},{"country":"MN","name":"Sergelen","lat":"46.2","lng":"111.816667"},{"country":"MN","name":"Senj","lat":"44.716667","lng":"110.766667"},{"country":"MN","name":"Selenge","lat":"49.433333","lng":"101.466667"},{"country":"MN","name":"Sayn-Ust","lat":"47.35","lng":"94.55"},{"country":"MN","name":"Saynshand","lat":"43.616667","lng":"102.533333"},{"country":"MN","name":"Sangiyn Dalay","lat":"46.65","lng":"103.316667"},{"country":"MN","name":"Sangiyn Dalay","lat":"46","lng":"104.95"},{"country":"MN","name":"Sangiyn Dalay","lat":"45.133333","lng":"97.75"},{"country":"MN","name":"Rashaant","lat":"49.126667","lng":"101.428056"},{"country":"MN","name":"Altanbulag","lat":"47.7","lng":"106.4"},{"country":"MN","name":"Altan","lat":"48.116667","lng":"95.716667"},{"country":"MN","name":"Aldar","lat":"47.7","lng":"96.6"},{"country":"MN","name":"Horgo","lat":"48.16","lng":"99.875556"},{"country":"MN","name":"Havtsal","lat":"50.1","lng":"91.666667"},{"country":"MN","name":"Havirga","lat":"45.666667","lng":"113.083333"},{"country":"MN","name":"Hatavch","lat":"46.166667","lng":"112.95"},{"country":"MN","name":"Hatansuudal","lat":"44.55","lng":"100.833333"},{"country":"MN","name":"Hashaat","lat":"45.25","lng":"104.833333"},{"country":"MN","name":"Har-Us","lat":"49.033333","lng":"92.033333"},{"country":"MN","name":"Har-Us","lat":"48.483333","lng":"91.433333"},{"country":"MN","name":"Orhon","lat":"49.8325","lng":"106.136389"},{"country":"MN","name":"Harmod","lat":"50.333333","lng":"91.666667"},{"country":"MN","name":"Harhorin","lat":"47.2","lng":"102.833333"},{"country":"MN","name":"Tsoohor","lat":"43.312778","lng":"104.084444"},{"country":"MN","name":"Tsomog","lat":"45.916667","lng":"109.066667"},{"country":"MN","name":"Tsetserleg","lat":"49.266667","lng":"94.85"},{"country":"MN","name":"Tsetsegnuur","lat":"46.6","lng":"93.266667"},{"country":"MN","name":"Tsagaand\u00f6rv\u00f6lj","lat":"45.8","lng":"109.333333"},{"country":"MN","name":"Tsagaanders","lat":"48.05","lng":"114.366667"},{"country":"MN","name":"Tsagaanchuluut","lat":"47.083333","lng":"96.65"},{"country":"MN","name":"Tosontsengel","lat":"48.756667","lng":"98.283889"},{"country":"MN","name":"Tooromt","lat":"50.466667","lng":"93.583333"},{"country":"MN","name":"Tolbo","lat":"48.416667","lng":"90.283333"},{"country":"MN","name":"T\u00f6h\u00f6m","lat":"44.4","lng":"108.25"},{"country":"MN","name":"T\u00f6gr\u00f6g","lat":"47.416667","lng":"92.216667"},{"country":"MN","name":"T\u00f6gr\u00f6g","lat":"45.766667","lng":"94.933333"},{"country":"MN","name":"T\u00f6g\u00f6l","lat":"50.683333","lng":"99.233333"},{"country":"MN","name":"Teshig","lat":"49.955278","lng":"102.613333"},{"country":"MN","name":"Tegsh","lat":"48.733333","lng":"96"},{"country":"MN","name":"Teel","lat":"48.046389","lng":"100.509167"},{"country":"MN","name":"Taygan","lat":"46.35","lng":"97.283333"},{"country":"MN","name":"Bayanbulag","lat":"45","lng":"98.916667"},{"country":"MN","name":"Bayanbaraat","lat":"46.866667","lng":"106.25"},{"country":"MN","name":"Bayan","lat":"49.433333","lng":"99.6"},{"country":"MN","name":"Bayan","lat":"48.55","lng":"111.083333"},{"country":"MN","name":"Bayan","lat":"47.916667","lng":"112.95"},{"country":"MN","name":"Bayan","lat":"47.45","lng":"103.15"},{"country":"MN","name":"Bayan","lat":"47.166667","lng":"110.816667"},{"country":"MN","name":"Bayan","lat":"46.983333","lng":"95.183333"},{"country":"MN","name":"Bayan","lat":"46.25","lng":"110.166667"},{"country":"MN","name":"Bat-\u00d6ldziyt","lat":"48.211111","lng":"104.759722"},{"country":"MN","name":"Baruunturuun","lat":"49.65","lng":"94.383333"},{"country":"MN","name":"Baruunsuu","lat":"43.697222","lng":"105.736389"},{"country":"MN","name":"Harhiraa","lat":"49.766667","lng":"91.9"},{"country":"MN","name":"Haraat","lat":"46.416667","lng":"107.65"},{"country":"MN","name":"Hanh\u00f6hiy","lat":"47.616667","lng":"112.133333"},{"country":"MN","name":"Haliun","lat":"45.933333","lng":"96.15"},{"country":"MN","name":"Balgatay","lat":"46.9","lng":"97.15"},{"country":"MN","name":"Badrah","lat":"49.618333","lng":"101.989722"},{"country":"MN","name":"Argalant","lat":"47.933333","lng":"105.866667"},{"country":"MN","name":"Ar-Asgat","lat":"48.262222","lng":"105.411944"},{"country":"MN","name":"Amardalay","lat":"46.133333","lng":"106.383333"},{"country":"MN","name":"Altraga","lat":"50.211111","lng":"98.950833"},{"country":"MN","name":"Altay","lat":"49.683333","lng":"96.333333"},{"country":"MN","name":"Altanteel","lat":"47.1","lng":"92.85"},{"country":"MN","name":"Altan-Ovoo","lat":"47.45","lng":"101.783333"},{"country":"MN","name":"Altanbulag","lat":"50.315556","lng":"106.498611"},{"country":"MN","name":"Altanbulag","lat":"49.3","lng":"96.333333"},{"country":"MN","name":"Tavin","lat":"46.416667","lng":"105.783333"},{"country":"MN","name":"Tavanbulag","lat":"47.383333","lng":"101.883333"},{"country":"MN","name":"Talshand","lat":"45.333333","lng":"97.983333"},{"country":"MN","name":"Tahilt","lat":"45.333333","lng":"96.65"},{"country":"MN","name":"S\u00fc\u00fcj","lat":"47.85","lng":"104.05"},{"country":"MN","name":"Suugant","lat":"45.533333","lng":"107.05"},{"country":"MN","name":"S\u00fcmiyn Bulag","lat":"49.133333","lng":"114.883333"},{"country":"MN","name":"S\u00f6rt","lat":"49.326111","lng":"104.371111"},{"country":"MN","name":"Songino","lat":"48.883333","lng":"95.883333"},{"country":"MN","name":"Shireet","lat":"45.716667","lng":"112.35"},{"country":"MN","name":"Shiree","lat":"47.5","lng":"96.85"},{"country":"MN","name":"Shiree","lat":"45.85","lng":"103.4"},{"country":"MN","name":"Shar\u00efngol","lat":"49.269382","lng":"106.505773"},{"country":"MN","name":"Sharhulsan","lat":"44.65","lng":"104.05"},{"country":"MN","name":"Avraga","lat":"47.183333","lng":"109.166667"},{"country":"MN","name":"Avdzaga","lat":"47.633333","lng":"103.516667"},{"country":"MN","name":"Arhust","lat":"47.8","lng":"107.883333"},{"country":"MN","name":"Arguut","lat":"45.45","lng":"102.416667"},{"country":"MN","name":"Argatay","lat":"45.766667","lng":"107.983333"},{"country":"MN","name":"Ingettolgoy","lat":"49.461667","lng":"103.974167"},{"country":"MN","name":"Ihsuuj","lat":"48.233333","lng":"106.283333"},{"country":"MN","name":"Ihbulag","lat":"43.2","lng":"107.2"},{"country":"MN","name":"Ider","lat":"48.772778","lng":"99.873889"},{"country":"MN","name":"Huurch","lat":"50.103611","lng":"105.42"},{"country":"MN","name":"Hutag","lat":"49.395","lng":"102.693333"},{"country":"MN","name":"Modot","lat":"47.75","lng":"109.05"},{"country":"MN","name":"Mayhan","lat":"46.083333","lng":"103.833333"},{"country":"MN","name":"Mardzad","lat":"45.95","lng":"102.05"},{"country":"MN","name":"Manhan","lat":"50.121389","lng":"100.043056"},{"country":"MN","name":"Mandal","lat":"49.9","lng":"99.433333"},{"country":"MN","name":"Mandal","lat":"48.631111","lng":"103.529167"},{"country":"MN","name":"Mandal","lat":"48.383333","lng":"106.75"},{"country":"MN","name":"Maan\u012dt","lat":"48.296667","lng":"103.425556"},{"country":"MN","name":"Maan\u012dt","lat":"47.25","lng":"107.533333"},{"country":"MN","name":"L\u00fcn","lat":"47.866667","lng":"105.25"},{"country":"MN","name":"Javhlant","lat":"48.75","lng":"106"},{"country":"MN","name":"Javarthushuu","lat":"49.15","lng":"112.733333"},{"country":"MN","name":"Jargalant","lat":"50.0675","lng":"105.880556"},{"country":"MN","name":"Jargalant","lat":"49.666667","lng":"106.333333"},{"country":"MN","name":"\u00d6nd\u00f6rhushuu","lat":"48","lng":"113.933333"},{"country":"MN","name":"\u00d6ldziyt","lat":"48.535556","lng":"101.366667"},{"country":"MN","name":"\u00d6ldziyt","lat":"44.683333","lng":"109.016667"},{"country":"MN","name":"\u00d6g\u00f6\u00f6m\u00f6r","lat":"43.786111","lng":"104.496111"},{"country":"MN","name":"Nuga","lat":"48.316667","lng":"95.116667"},{"country":"MN","name":"N\u00fcden","lat":"43.583333","lng":"110.466667"},{"country":"MN","name":"Nogoonnuur","lat":"49.6","lng":"90.233333"},{"country":"MN","name":"Nart","lat":"49.145","lng":"105.388333"},{"country":"MN","name":"Naranbulag","lat":"49.366667","lng":"92.566667"},{"country":"MN","name":"Naranbulag","lat":"49.233333","lng":"113.366667"},{"country":"MN","name":"Namir","lat":"49.1","lng":"91.716667"},{"country":"MN","name":"M\u00f6r\u00f6n","lat":"47.401307","lng":"110.125163"},{"country":"MN","name":"M\u00f6nhbulag","lat":"46.75","lng":"103.516667"},{"country":"MN","name":"M\u00f6nd\u00f6\u00f6h\u00f6\u00f6","lat":"49.4","lng":"94.233333"},{"country":"MN","name":"H\u00f6sh\u00f6\u00f6t","lat":"48.1025","lng":"102.545833"},{"country":"MN","name":"Horiult","lat":"45.2","lng":"100.766667"},{"country":"MN","name":"H\u00f6\u00f6v\u00f6r","lat":"48.4","lng":"113.433333"},{"country":"MN","name":"H\u00f6\u00f6v\u00f6r","lat":"45.166667","lng":"101.4"},{"country":"MN","name":"Hoolt","lat":"45.533333","lng":"102.983333"},{"country":"MN","name":"Hongor","lat":"45.8","lng":"111.2"},{"country":"MN","name":"Hongor","lat":"45.166667","lng":"113.666667"},{"country":"MN","name":"Holboo","lat":"48.583333","lng":"95.45"},{"country":"MN","name":"H\u00f6htolgoy","lat":"49.266667","lng":"90.9"},{"country":"MN","name":"H\u00f6h\u00f6\u00f6","lat":"50.472778","lng":"100.927778"},{"country":"MN","name":"H\u00f6hb\u00fcrd","lat":"46.266667","lng":"100.466667"},{"country":"MN","name":"H\u00f6dr\u00f6g\u00f6","lat":"48.966667","lng":"96.783333"},{"country":"MN","name":"Herlen","lat":"47.3","lng":"110.566667"},{"country":"MN","name":"Haylaastay","lat":"46.9","lng":"113.416667"},{"country":"MN","name":"H\u00fcremt","lat":"48.663056","lng":"102.622778"},{"country":"MN","name":"H\u00fcremt","lat":"46.3","lng":"102.466667"},{"country":"MN","name":"Hunt","lat":"47.866667","lng":"99.466667"},{"country":"MN","name":"Hungiy","lat":"48.5","lng":"94.283333"},{"country":"MN","name":"Hulstay","lat":"48.433333","lng":"114.866667"},{"country":"MN","name":"Hujirt","lat":"48.888611","lng":"101.232222"},{"country":"MN","name":"Hujirt","lat":"46.916667","lng":"102.8"},{"country":"MN","name":"Hujirt","lat":"46.6","lng":"104.583333"},{"country":"MN","name":"H\u00f6v\u00fc\u00fcn","lat":"43.173611","lng":"102.131944"},{"country":"MN","name":"H\u00f6vsg\u00f6l","lat":"43.606389","lng":"109.638056"},{"country":"MN","name":"Hoviyn Am","lat":"47.266667","lng":"98.533333"},{"country":"MN","name":"Hovd","lat":"44.666667","lng":"102.383333"},{"country":"MN","name":"Hotont","lat":"47.366667","lng":"102.466667"},{"country":"MN","name":"H\u00f6sh\u00f6\u00f6t","lat":"48.933333","lng":"89.133333"},{"country":"MN","name":"Jargalant","lat":"49.266667","lng":"100.25"},{"country":"MN","name":"Jargalant","lat":"49.266667","lng":"95.433333"},{"country":"MN","name":"Jargalant","lat":"48.520556","lng":"105.868333"},{"country":"MN","name":"Jargalant","lat":"47.783333","lng":"101.966667"},{"country":"MN","name":"Jargalant","lat":"47.533333","lng":"100.216667"},{"country":"MN","name":"Jargalant","lat":"47.15","lng":"99.633333"},{"country":"MN","name":"Jargalant","lat":"46.916667","lng":"91.083333"},{"country":"MN","name":"Jargalant","lat":"45.7","lng":"97.166667"},{"country":"MN","name":"Jibhalant","lat":"47.783333","lng":"112.116667"},{"country":"MN","name":"Hotol","lat":"49.133333","lng":"105.6"},{"country":"MN","name":"Hushaat","lat":"49.5","lng":"105.616667"},{"country":"MN","name":"Shiveegovi","lat":"46.090809","lng":"108.683064"},{"country":"MN","name":"S\u00fcmber","lat":"47.658584","lng":"118.510138"},{"country":"MN","name":"Hongor","lat":"49.230121","lng":"105.896738"},{"country":"MN","name":"H\u00f6shigiyn-Ar","lat":"47.557171","lng":"106.963329"},{"country":"MN","name":"Seer","lat":"48.316667","lng":"92.633333"},{"country":"MN","name":"Bayantal","lat":"46.621343","lng":"108.358044"},{"country":"MN","name":"Eg-Uur","lat":"50.109444","lng":"101.575278"},{"country":"MN","name":"Ulaanshiveet","lat":"47.289483","lng":"103.856592"},{"country":"MN","name":"Dzaanhoshuu","lat":"47.5","lng":"100.866667"},{"country":"MN","name":"Dz\u00fc\u00fcnkharaa","lat":"48.633333","lng":"106.733333"},{"country":"MN","name":"Asgat","lat":"49.510823","lng":"96.79944"},{"country":"MN","name":"Baruunharaa","lat":"48.911667","lng":"106.086667"},{"country":"MN","name":"Delgerhaan","lat":"50.103889","lng":"106.191667"},{"country":"MN","name":"Jargalant","lat":"49.129148","lng":"104.40803"},{"country":"MN","name":"Arhangay","lat":"48","lng":"101.5"},{"country":"MN","name":"\u0410\u0440\u0445\u0430\u043d\u0433\u0430\u0439","lat":"48","lng":"101.5"},{"country":"MN","name":"Bayanhongor","lat":"45.5","lng":"99.5"},{"country":"MN","name":"\u0411\u0430\u044f\u043d\u0445\u043e\u043d\u0433\u043e\u0440","lat":"45.5","lng":"99.5"},{"country":"MN","name":"Bayan-\u00d6lgiy","lat":"48.5","lng":"90"},{"country":"MN","name":"\u0411\u0430\u044f\u043d-\u04e8\u043b\u0433\u0438\u0439","lat":"48.5","lng":"90"},{"country":"MN","name":"Bulgan","lat":"49","lng":"103.5"},{"country":"MN","name":"\u0411\u0443\u043b\u0433\u0430\u043d","lat":"49","lng":"103.5"},{"country":"MN","name":"Darhan-Uul","lat":"49.416667","lng":"106.333333"},{"country":"MN","name":"\u0414\u0430\u0440\u0445\u0430\u043d-\u0423\u0443\u043b","lat":"49.416667","lng":"106.333333"},{"country":"MN","name":"Dornod","lat":"48","lng":"115"},{"country":"MN","name":"\u0414\u043e\u0440\u043d\u043e\u0434","lat":"48","lng":"115"},{"country":"MN","name":"Dornogov\u012d","lat":"44.5","lng":"110"},{"country":"MN","name":"\u0414\u043e\u0440\u043d\u043e\u0433\u043e\u0432\u044c","lat":"44.5","lng":"110"},{"country":"MN","name":"Dundgov\u012d","lat":"45.5","lng":"106.5"},{"country":"MN","name":"\u0414\u0443\u043d\u0434\u0433\u043e\u0432\u044c","lat":"45.5","lng":"106.5"},{"country":"MN","name":"Dzavhan","lat":"48","lng":"96"},{"country":"MN","name":"\u0417\u0430\u0432\u0445\u0430\u043d","lat":"48","lng":"96"},{"country":"MN","name":"Gov\u012d-Altay","lat":"45.5","lng":"96"},{"country":"MN","name":"\u0413\u043e\u0432\u044c-\u0410\u043b\u0442\u0430\u0439","lat":"45.5","lng":"96"},{"country":"MN","name":"Gov\u012ds\u00fcmber","lat":"46.5","lng":"108.5"},{"country":"MN","name":"\u0413\u043e\u0432\u044c\u0441\u04af\u043c\u0431\u044d\u0440","lat":"46.5","lng":"108.5"},{"country":"MN","name":"Hentiy","lat":"48","lng":"110.5"},{"country":"MN","name":"\u0425\u044d\u043d\u0442\u0438\u0439","lat":"48","lng":"110.5"},{"country":"MN","name":"Hovd","lat":"47","lng":"92.5"},{"country":"MN","name":"\u0425\u043e\u0432\u0434","lat":"47","lng":"92.5"},{"country":"MN","name":"H\u00f6vsg\u00f6l","lat":"50","lng":"100"},{"country":"MN","name":"\u0425\u04e9\u0432\u0441\u0433\u04e9\u043b","lat":"50","lng":"100"},{"country":"MN","name":"\u00d6mn\u00f6gov\u012d","lat":"43","lng":"104"},{"country":"MN","name":"\u04e8\u043c\u043d\u04e9\u0433\u043e\u0432\u044c","lat":"43","lng":"104"},{"country":"MN","name":"Orhon","lat":"49.083333","lng":"104.333333"},{"country":"MN","name":"\u041e\u0440\u0445\u043e\u043d","lat":"49.083333","lng":"104.333333"},{"country":"MN","name":"\u00d6v\u00f6rhangay","lat":"46","lng":"102.5"},{"country":"MN","name":"\u04e8\u0432\u04e9\u0440\u0445\u0430\u043d\u0433\u0430\u0439","lat":"46","lng":"102.5"},{"country":"MN","name":"Selenge","lat":"49.666667","lng":"106.416667"},{"country":"MN","name":"\u0421\u044d\u043b\u044d\u043d\u0433\u044d","lat":"49.666667","lng":"106.416667"},{"country":"MN","name":"S\u00fchbaatar","lat":"46.25","lng":"113.5"},{"country":"MN","name":"\u0421\u04af\u0445\u0431\u0430\u0430\u0442\u0430\u0440","lat":"46.25","lng":"113.5"},{"country":"MN","name":"T\u00f6v","lat":"47.5","lng":"106.5"},{"country":"MN","name":"\u0422\u04e9\u0432","lat":"47.5","lng":"106.5"},{"country":"MN","name":"Ulaanbaatar","lat":"47.916667","lng":"106.916667"},{"country":"MN","name":"Uvs","lat":"49.5","lng":"93"},{"country":"MN","name":"\u0423\u0432\u0441","lat":"49.5","lng":"93"}]