[{"country":"MU","name":"St Remy","lat":"-20.187222","lng":"57.711944"},{"country":"MU","name":"Grande Baie","lat":"-20.013611","lng":"57.573889"},{"country":"MU","name":"Vacoa","lat":"-20.298056","lng":"57.478333"},{"country":"MU","name":"Roche Noires","lat":"-20.111111","lng":"57.712222"},{"country":"MU","name":"Roche Noire","lat":"-20.111111","lng":"57.712222"},{"country":"MU","name":"Roches Noires","lat":"-20.111111","lng":"57.712222"},{"country":"MU","name":"Pailles Village","lat":"-20.185556","lng":"57.477222"},{"country":"MU","name":"Soullac","lat":"-20.516667","lng":"57.516667"},{"country":"MU","name":"Port Souillac","lat":"-20.516667","lng":"57.516667"},{"country":"MU","name":"Poudre D\u2019Or Village","lat":"-20.06","lng":"57.676667"},{"country":"MU","name":"Rivi\u00e8re du Poste Station","lat":"-20.424167","lng":"57.566944"},{"country":"MU","name":"Rivi\u00e8re du Post","lat":"-20.424167","lng":"57.566944"},{"country":"MU","name":"River du Poste Station","lat":"-20.424167","lng":"57.566944"},{"country":"MU","name":"Pamplemousses Village","lat":"-20.103889","lng":"57.570278"},{"country":"MU","name":"Blanche Mont","lat":"-20.282778","lng":"57.654444"},{"country":"MU","name":"Mont Blanche","lat":"-20.282778","lng":"57.654444"},{"country":"MU","name":"Belle Ombre","lat":"-20.502222","lng":"57.406111"},{"country":"MU","name":"Belle Vue","lat":"-20.05","lng":"57.583333"},{"country":"MU","name":"Rivi\u00e8re Noire","lat":"-20.360278","lng":"57.366111"},{"country":"MU","name":"Grand Rivi\u00e8re Noire","lat":"-20.360278","lng":"57.366111"},{"country":"MU","name":"Black River","lat":"-20.360278","lng":"57.366111"},{"country":"MU","name":"Grande Gaube","lat":"-20.006389","lng":"57.660833"},{"country":"MU","name":"Bois Marchand Station","lat":"-20.123333","lng":"57.533056"},{"country":"MU","name":"Camp de Masque Station","lat":"-20.236944","lng":"57.663333"},{"country":"MU","name":"Baie Manioc","lat":"-20.291389","lng":"57.73"},{"country":"MU","name":"Bon Manioc","lat":"-20.291389","lng":"57.73"},{"country":"MU","name":"Sainte-Marie","lat":"-20.483611","lng":"57.425"},{"country":"MU","name":"Le Ravin","lat":"-20.1","lng":"57.683333"},{"country":"MU","name":"Mare Jocquot","lat":"-20.247778","lng":"57.676389"},{"country":"MU","name":"Flacq","lat":"-20.189722","lng":"57.714444"},{"country":"MU","name":"Centre of Flacq","lat":"-20.189722","lng":"57.714444"},{"country":"MU","name":"Black River","lat":"-20.333333","lng":"57.416667"},{"country":"MU","name":"Rivi\u00e8re Noire","lat":"-20.333333","lng":"57.416667"},{"country":"MU","name":"Flacq","lat":"-20.233333","lng":"57.716667"},{"country":"MU","name":"Flacque District","lat":"-20.233333","lng":"57.716667"},{"country":"MU","name":"Grand Port","lat":"-20.416667","lng":"57.633333"},{"country":"MU","name":"Moka","lat":"-20.25","lng":"57.566667"},{"country":"MU","name":"Pamplemousses","lat":"-20.095833","lng":"57.559722"},{"country":"MU","name":"Plains Wilhems","lat":"-20.3","lng":"57.483333"},{"country":"MU","name":"Plaines Wilhems","lat":"-20.3","lng":"57.483333"},{"country":"MU","name":"Port Louis","lat":"-20.166667","lng":"57.525"},{"country":"MU","name":"Port Louis","lat":" District of\"","lng":"-20.166667"},{"country":"MU","name":"Rivi\u00e8re du Rempart","lat":"-20.058333","lng":"57.641667"},{"country":"MU","name":"Savanne","lat":"-20.466667","lng":"57.5"},{"country":"MU","name":"Savane","lat":"-20.466667","lng":"57.5"},{"country":"MU","name":"Belle-Vue","lat":"-20.065833","lng":"57.594167"},{"country":"MU","name":"Belle Ross","lat":"-20.215","lng":"57.518333"},{"country":"MU","name":"Bel Air","lat":"-20.406389","lng":"57.673611"},{"country":"MU","name":"New Grove Station","lat":"-20.408611","lng":"57.613611"},{"country":"MU","name":"Montagne Ory","lat":"-20.215","lng":"57.482222"},{"country":"MU","name":"Astr\u00e9a","lat":"-20.390833","lng":"57.628889"},{"country":"MU","name":"Unit\u00e9","lat":"-20.232778","lng":"57.667222"},{"country":"MU","name":"Ville d\u2019Avray","lat":"-20.336389","lng":"57.563056"},{"country":"MU","name":"Grande Reviere Sud Est","lat":"-20.286111","lng":"57.775833"},{"country":"MU","name":"Grand River","lat":"-20.286111","lng":"57.775833"},{"country":"MU","name":"Grand River South East","lat":"-20.286111","lng":"57.775833"},{"country":"MU","name":"Grande Retraits","lat":"-20.165556","lng":"57.676667"},{"country":"MU","name":"Gaboola","lat":"-20.104167","lng":"57.646944"},{"country":"MU","name":"Oliva","lat":"-20.2975","lng":"57.725556"},{"country":"MU","name":"Mont Piton","lat":"-20.090278","lng":"57.630278"},{"country":"MU","name":"Mount Choisy","lat":"-20.020556","lng":"57.555556"},{"country":"MU","name":"Choisy","lat":"-20.020556","lng":"57.555556"},{"country":"MU","name":"Mon Choisy","lat":"-20.020556","lng":"57.555556"},{"country":"MU","name":"Bassin Louloup","lat":"-20.171111","lng":"57.561389"},{"country":"MU","name":"Moka Village","lat":"-20.218889","lng":"57.495833"},{"country":"MU","name":"Lu\u00e7on","lat":"-20.466667","lng":"57.45"},{"country":"MU","name":"La Rampe","lat":"-20.425833","lng":"57.631667"},{"country":"MU","name":"Gabriel","lat":"-19.7","lng":"63.433333"},{"country":"MU","name":"Gabrielle","lat":"-19.7","lng":"63.433333"},{"country":"MU","name":"Union Saint Aubin","lat":"-20.491667","lng":"57.541389"},{"country":"MU","name":"L\u2019Amitie","lat":"-20.109444","lng":"57.663889"},{"country":"MU","name":"Terre Rouge","lat":"-20.043333","lng":"57.568333"},{"country":"MU","name":"La Coterie","lat":"-20.299167","lng":"57.770556"},{"country":"MU","name":"Quatre Soeurs Br.","lat":"-20.299167","lng":"57.770556"},{"country":"MU","name":"Camp Thoret","lat":"-20.214722","lng":"57.616111"},{"country":"MU","name":"Bois d\u2019Oiseau","lat":"-20.297778","lng":"57.735"},{"country":"MU","name":"Bois d\u2019Oisseaux","lat":"-20.1625","lng":"57.685"},{"country":"MU","name":"Bois d\u2019Oiseau","lat":"-20.1625","lng":"57.685"},{"country":"MU","name":"Mont Longue","lat":"-20.143056","lng":"57.562222"},{"country":"MU","name":"Etoile","lat":"-20.304444","lng":"57.703056"},{"country":"MU","name":"Escalier","lat":"-20.47","lng":"57.612222"},{"country":"MU","name":"Reduit","lat":"-20.2275","lng":"57.4925"},{"country":"MU","name":"Pelissis","lat":"-20.114722","lng":"57.5975"},{"country":"MU","name":"Sainte Rita","lat":"-10.483333","lng":"56.7"},{"country":"MU","name":"Porte Sainte Rita","lat":"-10.483333","lng":"56.7"},{"country":"MU","name":"Bonne M\u00e8re","lat":"-20.200556","lng":"57.712222"},{"country":"MU","name":"Plaines Magnien","lat":"-20.428611","lng":"57.653056"},{"country":"MU","name":"Dagoti\u00e8re","lat":"-20.244444","lng":"57.554167"},{"country":"MU","name":"Jolis Bois","lat":"-20.441111","lng":"57.58"},{"country":"MU","name":"Old Grand Port","lat":"-20.366944","lng":"57.706389"},{"country":"MU","name":"Verdun Station","lat":"-20.228333","lng":"57.543889"},{"country":"MU","name":"Esp\u00e9rance","lat":"-20.069722","lng":"57.641944"},{"country":"MU","name":"Eighteenth Mile Village","lat":"-20.340556","lng":"57.539444"},{"country":"MU","name":"Rama","lat":"-20.373611","lng":"57.623611"},{"country":"MU","name":"Coteau Rafin","lat":"-20.433889","lng":"57.345278"},{"country":"MU","name":"River Dragon","lat":"-20.446111","lng":"57.56"},{"country":"MU","name":"Rivi\u00e8re Cr\u00e9oles","lat":"-20.388056","lng":"57.688611"},{"country":"MU","name":"Casela","lat":"-20.294722","lng":"57.394722"},{"country":"MU","name":"Clarens","lat":"-20.297778","lng":"57.3925"},{"country":"MU","name":"Port Louis Town","lat":"-20.161944","lng":"57.498889"},{"country":"MU","name":"Port Louis","lat":"-20.161944","lng":"57.498889"},{"country":"MU","name":"Pont Prastin","lat":"-20.149444","lng":"57.6325"},{"country":"MU","name":"Pointe aux Cannoniers","lat":"-20.008333","lng":"57.56"},{"country":"MU","name":"Camp Cr\u00e9oles","lat":"-20.132778","lng":"57.593333"},{"country":"MU","name":"Camp Cassia","lat":"-20.463889","lng":"57.661111"},{"country":"MU","name":"Beau Mangue","lat":"-19.983889","lng":"57.601111"},{"country":"MU","name":"Rivi\u00e8re S\u00e8che","lat":"-20.254167","lng":"57.745278"},{"country":"MU","name":"Mount","lat":"-20.111389","lng":"57.602222"},{"country":"MU","name":"Lagesse","lat":"-20.032778","lng":"57.619167"},{"country":"MU","name":"Port South East","lat":"-19.75","lng":"63.45"},{"country":"MU","name":"Notre Dame Station","lat":"-20.140556","lng":"57.553056"},{"country":"MU","name":"Bouchon","lat":"-20.465","lng":"57.669722"},{"country":"MU","name":"Saint Pierre Village","lat":"-20.2175","lng":"57.520833"},{"country":"MU","name":"Saint-Andr\u00e9","lat":"-20.073056","lng":"57.558056"},{"country":"MU","name":"La Lucia","lat":"-20.124167","lng":"57.647778"},{"country":"MU","name":"Camp Marcelin","lat":"-20.209722","lng":"57.730556"},{"country":"MU","name":"Union","lat":"-20.5","lng":"57.466667"},{"country":"MU","name":"Latanier","lat":"-19.713889","lng":"63.447222"},{"country":"MU","name":"Bois Pougnet","lat":"-20.266667","lng":"57.6"},{"country":"MU","name":"Plaines des Papayes","lat":"-20.065","lng":"57.5725"},{"country":"MU","name":"Petite Verger","lat":"-20.175556","lng":"57.433611"},{"country":"MU","name":"Mangues","lat":"-19.716667","lng":"63.391667"},{"country":"MU","name":"Ferney Mill","lat":"-20.361111","lng":"57.697778"},{"country":"MU","name":"Oyster Bay","lat":"-19.694444","lng":"63.408333"},{"country":"MU","name":"Saint Julien Village","lat":"-20.226389","lng":"57.636389"},{"country":"MU","name":"Julien","lat":"-20.226389","lng":"57.636389"},{"country":"MU","name":"Chantenay","lat":"-20.211944","lng":"57.513889"},{"country":"MU","name":"La Baraque","lat":"-20.466944","lng":"57.619444"},{"country":"MU","name":"Haut Rive","lat":"-20.096944","lng":"57.698056"},{"country":"MU","name":"River des Anguilles","lat":"-20.485278","lng":"57.550833"},{"country":"MU","name":"Flic-en-Flacq","lat":"-20.274167","lng":"57.363056"},{"country":"MU","name":"Belle Vue","lat":"-20.120278","lng":"57.663611"},{"country":"MU","name":"Baty Mare","lat":"-20.481389","lng":"57.5675"},{"country":"MU","name":"Post of Flacq","lat":"-20.163056","lng":"57.730556"},{"country":"MU","name":"Union Maurel","lat":"-20.019167","lng":"57.630833"}]