[{"country":"MX","name":"Encinal","lat":"21.816667","lng":"-97.791667"},{"country":"MX","name":"Berros","lat":"19.5","lng":"-96.941667"},{"country":"MX","name":"Zoochina","lat":"17.216667","lng":"-95.25"},{"country":"MX","name":"Joya","lat":"22.533333","lng":"-100.166667"},{"country":"MX","name":"San Lucas","lat":"19.083333","lng":"-100.066667"},{"country":"MX","name":"San Jos\u00e9","lat":"19.25","lng":"-104.233333"},{"country":"MX","name":"San Antonio","lat":"25.366667","lng":"-101.8"},{"country":"MX","name":"Tenosique","lat":"17.474955","lng":"-91.422145"},{"country":"MX","name":"La Cruzada","lat":"27.075705","lng":"-106.69823"},{"country":"MX","name":"San Jos\u00e9","lat":"22.672862","lng":"-101.034501"},{"country":"MX","name":"Salinas","lat":"22.627954","lng":"-101.71417"},{"country":"MX","name":"Los Berros","lat":"23.850809","lng":"-103.487488"},{"country":"MX","name":"La Colorada","lat":"23.786362","lng":"-102.393953"},{"country":"MX","name":"Providencia","lat":"24.885462","lng":"-99.276931"},{"country":"MX","name":"Bejucal","lat":"15.455731","lng":"-92.15822"},{"country":"MX","name":"Amatenango","lat":"15.434662","lng":"-92.117112"},{"country":"MX","name":"Boquilla","lat":"27.775284","lng":"-104.660168"},{"country":"MX","name":"San Pedro","lat":"23.670834","lng":"-104.028469"},{"country":"MX","name":"Las Huertas","lat":"21.48706","lng":"-104.199757"},{"country":"MX","name":"Cerrillos","lat":"19.628758","lng":"-96.724708"},{"country":"MX","name":"La Mesa","lat":"21.383142","lng":"-104.014589"},{"country":"MX","name":"Ixtl\u00e1n","lat":"21.038211","lng":"-104.370597"},{"country":"MX","name":"Palmas","lat":"20.057948","lng":"-96.637724"},{"country":"MX","name":"Sauceda","lat":"22.456661","lng":"-102.079679"},{"country":"MX","name":"Santa Mar\u00eda","lat":"22.04859","lng":"-102.115418"},{"country":"MX","name":"Apulco","lat":"21.388301","lng":"-102.682188"},{"country":"MX","name":"Guadalupe","lat":"26.617511","lng":"-105.177924"},{"country":"MX","name":"Culantrillo","lat":"26.698239","lng":"-105.081645"},{"country":"MX","name":"San Gaspar","lat":"21.290627","lng":"-102.503223"},{"country":"MX","name":"San Pedro","lat":"22.448204","lng":"-102.349999"},{"country":"MX","name":"Ci\u00e9nega","lat":"20.520603","lng":"-102.657098"},{"country":"MX","name":"San Antonio","lat":"27.589235","lng":"-103.319378"},{"country":"MX","name":"Ojo de Agua","lat":"22.29751","lng":"-102.19215"},{"country":"MX","name":"Santa Elena","lat":"27.470511","lng":"-102.551937"},{"country":"MX","name":"Letras","lat":"22.136012","lng":"-102.295387"},{"country":"MX","name":"Carrizal","lat":"28.241115","lng":"-109.474727"},{"country":"MX","name":"El Capul\u00edn","lat":"28.349614","lng":"-109.280366"},{"country":"MX","name":"Tasajera","lat":"26.06214","lng":"-108.532775"},{"country":"MX","name":"Gomera","lat":"27.007329","lng":"-105.597287"},{"country":"MX","name":"San Francisco","lat":"26.46814","lng":"-108.96137"},{"country":"MX","name":"Baterquez","lat":"26.528574","lng":"-108.842542"},{"country":"MX","name":"S\u00e1sabe","lat":"31.470755","lng":"-111.546082"},{"country":"MX","name":"Campanero","lat":"28.329908","lng":"-109.009463"},{"country":"MX","name":"Tekal","lat":"21.014871","lng":"-88.946583"},{"country":"MX","name":"San Antonio","lat":"21.180474","lng":"-88.859543"},{"country":"MX","name":"Las Torres","lat":"21.129656","lng":"-88.980909"},{"country":"MX","name":"Tangamandapio","lat":"19.955723","lng":"-102.436364"},{"country":"MX","name":"San Antonio","lat":"19.945885","lng":"-102.556512"},{"country":"MX","name":"Los Reyes","lat":"19.590398","lng":"-102.472524"},{"country":"MX","name":"Jiquilpan","lat":"19.994189","lng":"-102.719193"},{"country":"MX","name":"La Rosa","lat":"19.758735","lng":"-103.159168"},{"country":"MX","name":"Gu\u00e1scaro","lat":"19.798851","lng":"-102.521085"},{"country":"MX","name":"Tepetaro","lat":"19.440639","lng":"-102.624218"},{"country":"MX","name":"Punta del Agua","lat":"19.161432","lng":"-104.266659"},{"country":"MX","name":"Cotija","lat":"19.809187","lng":"-102.70107"},{"country":"MX","name":"Serna","lat":"30.133674","lng":"-112.16675"},{"country":"MX","name":"Pueblo Nuevo","lat":"17.160275","lng":"-92.899763"},{"country":"MX","name":"Chutla","lat":"17.886037","lng":"-101.794537"},{"country":"MX","name":"Jacona","lat":"19.956746","lng":"-102.306148"},{"country":"MX","name":"San Agust\u00edn","lat":"29.936776","lng":"-114.968021"},{"country":"MX","name":"Santa Mar\u00eda","lat":"29.730543","lng":"-114.548088"},{"country":"MX","name":"Gochico","lat":"27.412707","lng":"-108.691169"},{"country":"MX","name":"San Miguel","lat":"25.94734","lng":"-109.049698"},{"country":"MX","name":"San Jos\u00e9","lat":"25.941477","lng":"-109.250486"},{"country":"MX","name":"Ot\u00e1ez","lat":"24.700385","lng":"-105.995444"},{"country":"MX","name":"Uruapan","lat":"19.413616","lng":"-102.052781"},{"country":"MX","name":"Zamora","lat":"19.989115","lng":"-102.284773"},{"country":"MX","name":"Tanganc\u00edcuaro","lat":"19.886667","lng":"-102.205137"},{"country":"MX","name":"Perib\u00e1n","lat":"19.556246","lng":"-102.398611"},{"country":"MX","name":"El Rosario","lat":"16.218251","lng":"-93.861274"},{"country":"MX","name":"Cintalapa","lat":"16.695671","lng":"-93.723515"},{"country":"MX","name":"Perib\u00e1n","lat":"19.520169","lng":"-102.41482"},{"country":"MX","name":"Naranja","lat":"19.776701","lng":"-101.760559"},{"country":"MX","name":"Tiltepec","lat":"16.133388","lng":"-93.801606"},{"country":"MX","name":"Arista","lat":"15.934495","lng":"-93.809711"},{"country":"MX","name":"Paracho","lat":"19.646541","lng":"-102.047634"},{"country":"MX","name":"Panind\u00edcuaro","lat":"19.982777","lng":"-101.760691"},{"country":"MX","name":"Filisola","lat":"17.854335","lng":"-94.356218"},{"country":"MX","name":"Guadalupe","lat":"26.46307","lng":"-105.604066"},{"country":"MX","name":"Nuevo Valle","lat":"21.211784","lng":"-101.424914"},{"country":"MX","name":"Soledad","lat":"20.906176","lng":"-101.412178"},{"country":"MX","name":"San Jos\u00e9","lat":"21.144648","lng":"-101.786784"},{"country":"MX","name":"Boquillas","lat":"29.188049","lng":"-102.933753"},{"country":"MX","name":"San Bartolo","lat":"21.105265","lng":"-101.897367"},{"country":"MX","name":"Rancho Nuevo","lat":"20.675088","lng":"-101.895596"},{"country":"MX","name":"Pur\u00edsima","lat":"20.618681","lng":"-101.483428"},{"country":"MX","name":"Paso Blanco","lat":"20.754622","lng":"-101.402806"},{"country":"MX","name":"San Nicol\u00e1s","lat":"28.620612","lng":"-100.464325"},{"country":"MX","name":"Dolores","lat":"20.84862","lng":"-101.391267"},{"country":"MX","name":"Atlixco","lat":"18.906605","lng":"-98.435081"},{"country":"MX","name":"Manuel Doblado","lat":"20.728822","lng":"-101.952425"},{"country":"MX","name":"Nativitas","lat":"19.580811","lng":"-99.609188"},{"country":"MX","name":"Cuautepec","lat":"19.629385","lng":"-99.131446"},{"country":"MX","name":"Zozocolco","lat":"20.141045","lng":"-97.575836"},{"country":"MX","name":"Zozocolco","lat":"20.103743","lng":"-97.568885"},{"country":"MX","name":"Tenexapa","lat":"20.167231","lng":"-97.336292"},{"country":"MX","name":"San Bartolo","lat":"20.399254","lng":"-98.201138"},{"country":"MX","name":"San Antonio","lat":"20.112128","lng":"-97.482612"},{"country":"MX","name":"Arroyo Zarco","lat":"20.151135","lng":"-97.456305"},{"country":"MX","name":"Ayotoxco","lat":"20.09672","lng":"-97.409711"},{"country":"MX","name":"Chiconautla","lat":"19.628055","lng":"-99.002748"},{"country":"MX","name":"Santa Mar\u00eda","lat":"19.953927","lng":"-99.18727"},{"country":"MX","name":"Jilotzingo","lat":"19.541505","lng":"-99.394486"},{"country":"MX","name":"Atzompa","lat":"19.685455","lng":"-99.021992"},{"country":"MX","name":"San Pablo","lat":"19.666704","lng":"-99.095272"},{"country":"MX","name":"Tuzamapan","lat":"20.06594","lng":"-97.576511"},{"country":"MX","name":"Jalostoc","lat":"20.221438","lng":"-97.534036"},{"country":"MX","name":"Vallarta","lat":"20.107586","lng":"-97.531148"},{"country":"MX","name":"Zitlaltepec","lat":"19.810763","lng":"-99.145042"},{"country":"MX","name":"Tuxtepec","lat":"19.861472","lng":"-99.6284"},{"country":"MX","name":"San Jos\u00e9","lat":"19.805809","lng":"-99.359876"},{"country":"MX","name":"San Francisco","lat":"19.765483","lng":"-99.529407"},{"country":"MX","name":"Coamango","lat":"19.852869","lng":"-99.591394"},{"country":"MX","name":"San Bartolo","lat":"19.813208","lng":"-99.009946"},{"country":"MX","name":"Tetlixtac","lat":"19.633688","lng":"-99.083532"},{"country":"MX","name":"Progreso","lat":"19.636794","lng":"-99.356881"},{"country":"MX","name":"Cuautlalpan","lat":"19.684858","lng":"-99.286076"},{"country":"MX","name":"Santa Ana","lat":"20.175442","lng":"-98.312515"},{"country":"MX","name":"Pahuatl\u00e1n","lat":"20.277874","lng":"-98.150363"},{"country":"MX","name":"Zapotal","lat":"20.853137","lng":"-97.491373"},{"country":"MX","name":"Tuxpan","lat":"20.957734","lng":"-97.407985"},{"country":"MX","name":"Apaxco","lat":"19.975708","lng":"-99.171289"},{"country":"MX","name":"Atotonilco","lat":"20.000964","lng":"-99.21517"},{"country":"MX","name":"L\u00f3pez Mateos","lat":"19.585466","lng":"-99.260345"},{"country":"MX","name":"Cuetzal\u00e1n","lat":"20.018317","lng":"-97.522879"},{"country":"MX","name":"Cuautepec","lat":"20.03573","lng":"-98.310498"},{"country":"MX","name":"Tetela","lat":"18.965949","lng":"-99.246458"},{"country":"MX","name":"Tenancingo","lat":"18.961479","lng":"-99.593439"},{"country":"MX","name":"Taxco","lat":"18.55629","lng":"-99.604911"},{"country":"MX","name":"Santa Fe","lat":"18.550289","lng":"-99.423686"},{"country":"MX","name":"Xochuca","lat":"18.846411","lng":"-99.615272"},{"country":"MX","name":"San Rafael","lat":"18.640846","lng":"-99.005015"},{"country":"MX","name":"Tlanisco","lat":"19.063603","lng":"-99.652595"},{"country":"MX","name":"Hidalgo","lat":"18.581954","lng":"-99.043892"},{"country":"MX","name":"Tepexoxuca","lat":"19.059981","lng":"-99.547893"},{"country":"MX","name":"Ocuil\u00e1n","lat":"18.974719","lng":"-99.413837"},{"country":"MX","name":"Buenavista","lat":"18.944803","lng":"-99.309106"},{"country":"MX","name":"Tepeji","lat":"19.9063","lng":"-99.342968"},{"country":"MX","name":"Totolapan","lat":"18.15928","lng":"-100.389416"},{"country":"MX","name":"Huetamo","lat":"18.630279","lng":"-100.898846"},{"country":"MX","name":"Cutzamal\u00e1","lat":"18.467891","lng":"-100.578863"},{"country":"MX","name":"Coyuca","lat":"18.325525","lng":"-100.69843"},{"country":"MX","name":"Ajuchitl\u00e1n","lat":"18.153637","lng":"-100.500331"},{"country":"MX","name":"Durazno","lat":"21.310347","lng":"-99.780443"},{"country":"MX","name":"Zapotl\u00e1n","lat":"19.975931","lng":"-98.864008"},{"country":"MX","name":"Texcoco","lat":"19.511575","lng":"-98.883743"},{"country":"MX","name":"Tepetlaoxtoc","lat":"19.57498","lng":"-98.818141"},{"country":"MX","name":"Santa Ana","lat":"21.124589","lng":"-100.570409"},{"country":"MX","name":"Tepa","lat":"19.910866","lng":"-98.703948"},{"country":"MX","name":"Chiconautla","lat":"19.63855","lng":"-98.994461"},{"country":"MX","name":"Apipilhuasco","lat":"19.5448","lng":"-98.747507"},{"country":"MX","name":"Ajolcapan","lat":"19.761639","lng":"-98.946739"},{"country":"MX","name":"Tecajete","lat":"19.937736","lng":"-98.5944"},{"country":"MX","name":"Nopaltepec","lat":"19.778909","lng":"-98.709372"},{"country":"MX","name":"Maquixco","lat":"19.783516","lng":"-98.831896"},{"country":"MX","name":"Aticpac","lat":"19.855574","lng":"-98.746824"},{"country":"MX","name":"Almoloya","lat":"19.369146","lng":"-99.758363"},{"country":"MX","name":"Ixtapan","lat":"19.586587","lng":"-98.94723"},{"country":"MX","name":"Tecamac","lat":"19.712764","lng":"-98.969502"},{"country":"MX","name":"Atenco","lat":"19.55077","lng":"-98.916491"},{"country":"MX","name":"Huaquilpan","lat":"19.987649","lng":"-98.868742"},{"country":"MX","name":"Tecalco","lat":"19.673328","lng":"-98.958545"},{"country":"MX","name":"San Nicol\u00e1s","lat":"19.580427","lng":"-98.435998"},{"country":"MX","name":"Ometusco","lat":"19.783868","lng":"-98.669097"},{"country":"MX","name":"Actipan","lat":"19.61065","lng":"-98.596703"},{"country":"MX","name":"San Mart\u00edn","lat":"19.704969","lng":"-98.834551"},{"country":"MX","name":"San Marcos","lat":"19.598156","lng":"-98.629078"},{"country":"MX","name":"Teotihuac\u00e1n","lat":"19.688592","lng":"-98.862634"},{"country":"MX","name":"Ixtilmaco","lat":"19.666112","lng":"-98.448594"},{"country":"MX","name":"Teacalco","lat":"19.804533","lng":"-98.8513"},{"country":"MX","name":"San Jer\u00f3nimo","lat":"19.747771","lng":"-98.951348"},{"country":"MX","name":"Zacacalco","lat":"19.931358","lng":"-98.982722"},{"country":"MX","name":"Cuautliquixco","lat":"19.681792","lng":"-98.981941"},{"country":"MX","name":"San Bartolom\u00e9","lat":"19.561965","lng":"-98.585614"},{"country":"MX","name":"Albarranes","lat":"19.117571","lng":"-99.935858"},{"country":"MX","name":"Acahualco","lat":"19.27554","lng":"-99.771655"},{"country":"MX","name":"San Antonio","lat":"19.527853","lng":"-98.357556"},{"country":"MX","name":"Oztoyuca","lat":"19.928798","lng":"-98.669354"},{"country":"MX","name":"Ometusco","lat":"19.778592","lng":"-98.628966"},{"country":"MX","name":"San Agust\u00edn","lat":"19.874621","lng":"-98.714055"},{"country":"MX","name":"Otumba","lat":"19.699892","lng":"-98.756855"},{"country":"MX","name":"Los Reyes","lat":"19.774904","lng":"-98.984751"},{"country":"MX","name":"C\u00e1rdenas","lat":"19.6397","lng":"-98.471711"},{"country":"MX","name":"Yerbabuena","lat":"21.279229","lng":"-99.106462"},{"country":"MX","name":"Acolman","lat":"19.639067","lng":"-98.910275"},{"country":"MX","name":"Santa Rosa","lat":"20.742057","lng":"-100.446153"},{"country":"MX","name":"Pur\u00edsima","lat":"21.311371","lng":"-99.512063"},{"country":"MX","name":"Puerto","lat":"21.36918","lng":"-99.571122"},{"country":"MX","name":"Puerta","lat":"21.329694","lng":"-99.522696"},{"country":"MX","name":"Atotonilco","lat":"19.464033","lng":"-99.778224"},{"country":"MX","name":"Oxtotilpan","lat":"19.168688","lng":"-99.902836"},{"country":"MX","name":"Tabernillas","lat":"19.481091","lng":"-99.867736"},{"country":"MX","name":"Nativitas","lat":"19.348129","lng":"-99.791396"},{"country":"MX","name":"Santa Mar\u00eda","lat":"19.290202","lng":"-99.824983"},{"country":"MX","name":"Cuauhtenco","lat":"19.249642","lng":"-99.729882"},{"country":"MX","name":"Zinacantepec","lat":"19.285006","lng":"-99.734775"},{"country":"MX","name":"Oxtotilpan","lat":"19.149526","lng":"-99.885599"},{"country":"MX","name":"Almoloyan","lat":"19.356011","lng":"-99.799672"},{"country":"MX","name":"Contadero","lat":"19.236886","lng":"-99.80971"},{"country":"MX","name":"San Juan","lat":"19.248198","lng":"-99.75819"},{"country":"MX","name":"San Jer\u00f3nimo","lat":"19.314939","lng":"-100.20288"},{"country":"MX","name":"Tlalcilalcalpan","lat":"19.29353","lng":"-99.767325"},{"country":"MX","name":"Altamirano","lat":"19.381102","lng":"-99.973516"},{"country":"MX","name":"San Pedro","lat":"21.751288","lng":"-99.057414"},{"country":"MX","name":"Soledad","lat":"21.279842","lng":"-100.922604"},{"country":"MX","name":"San Nicol\u00e1s","lat":"21.274727","lng":"-100.550953"},{"country":"MX","name":"San Joaqu\u00edn","lat":"21.736557","lng":"-100.238988"},{"country":"MX","name":"Coatipac","lat":"19.18188","lng":"-99.568327"},{"country":"MX","name":"Milpillas","lat":"21.346355","lng":"-100.244379"},{"country":"MX","name":"Mesa","lat":"21.503223","lng":"-100.440714"},{"country":"MX","name":"La Noria","lat":"21.453674","lng":"-100.84506"},{"country":"MX","name":"Labor","lat":"20.488762","lng":"-101.253055"},{"country":"MX","name":"Tlapacoya","lat":"20.101931","lng":"-98.833841"},{"country":"MX","name":"Santiago","lat":"20.384032","lng":"-98.964798"},{"country":"MX","name":"Tlatemalco","lat":"20.499881","lng":"-98.702526"},{"country":"MX","name":"San Nicol\u00e1s","lat":"20.095644","lng":"-98.390616"},{"country":"MX","name":"San Juan","lat":"20.049592","lng":"-98.666108"},{"country":"MX","name":"Tlaxiaca","lat":"20.116045","lng":"-98.88562"},{"country":"MX","name":"Omitl\u00e1n","lat":"20.169025","lng":"-98.649418"},{"country":"MX","name":"Huasca","lat":"20.203468","lng":"-98.576112"},{"country":"MX","name":"Colonia","lat":"20.064132","lng":"-98.75903"},{"country":"MX","name":"Atotonilco","lat":"20.286526","lng":"-98.667357"},{"country":"MX","name":"Agua Blanca","lat":"20.350011","lng":"-98.357092"},{"country":"MX","name":"Tinaja","lat":"20.198389","lng":"-101.062023"},{"country":"MX","name":"Tejocote","lat":"20.179179","lng":"-101.397087"},{"country":"MX","name":"San Vicente","lat":"20.458193","lng":"-101.592139"},{"country":"MX","name":"Jaral","lat":"20.372656","lng":"-101.063612"},{"country":"MX","name":"Huaniqueo","lat":"19.896817","lng":"-101.504457"},{"country":"MX","name":"El Cuatro","lat":"20.485429","lng":"-101.165264"},{"country":"MX","name":"Cuitzeo","lat":"19.969444","lng":"-101.140695"},{"country":"MX","name":"Cop\u00e1ndaro","lat":"19.892785","lng":"-101.213619"},{"country":"MX","name":"Agua Tibia","lat":"20.501406","lng":"-101.630987"},{"country":"MX","name":"Pe\u00f1oles","lat":"17.080882","lng":"-97.00206"},{"country":"MX","name":"Azompa","lat":"17.101402","lng":"-96.775889"},{"country":"MX","name":"Ayoquezco","lat":"16.682549","lng":"-96.842517"},{"country":"MX","name":"Amiltepec","lat":"16.276969","lng":"-97.21788"},{"country":"MX","name":"Ixhuatl\u00e1n","lat":"19.050627","lng":"-96.983626"},{"country":"MX","name":"Huatusco","lat":"19.150244","lng":"-96.968346"},{"country":"MX","name":"Tonalapa","lat":"18.096972","lng":"-99.559393"},{"country":"MX","name":"Zimatl\u00e1n","lat":"16.867874","lng":"-96.783618"},{"country":"MX","name":"Monteverde","lat":"16.971457","lng":"-97.664684"},{"country":"MX","name":"Sola","lat":"16.482251","lng":"-96.939964"},{"country":"MX","name":"Macuiltianguis","lat":"17.533483","lng":"-96.552117"},{"country":"MX","name":"Tehuantepec","lat":"16.31841","lng":"-95.247833"},{"country":"MX","name":"Chihuit\u00e1n","lat":"16.59164","lng":"-95.161024"},{"country":"MX","name":"Laollaga","lat":"16.583928","lng":"-95.206511"},{"country":"MX","name":"Lachiguiri","lat":"16.687239","lng":"-95.530349"},{"country":"MX","name":"Santa Teresa","lat":"16.371415","lng":"-95.246376"},{"country":"MX","name":"Totolapilla","lat":"16.601418","lng":"-95.625335"},{"country":"MX","name":"Guienagati","lat":"16.738615","lng":"-95.354041"},{"country":"MX","name":"Ecatepec","lat":"16.285519","lng":"-95.879519"},{"country":"MX","name":"Santa Gertrudis","lat":"16.063654","lng":"-95.391995"},{"country":"MX","name":"San Nicol\u00e1s","lat":"20.394728","lng":"-101.254158"},{"country":"MX","name":"San Nicol\u00e1s","lat":"20.246975","lng":"-100.965827"},{"country":"MX","name":"San Agust\u00edn","lat":"19.961961","lng":"-101.073055"},{"country":"MX","name":"Rinc\u00f3n","lat":"20.420017","lng":"-101.253736"},{"country":"MX","name":"Gertrudis","lat":"16.7858","lng":"-96.800242"},{"country":"MX","name":"Zenzontepec","lat":"16.534444","lng":"-97.495435"},{"country":"MX","name":"Santa Cruz","lat":"17.029093","lng":"-96.733277"},{"country":"MX","name":"Sosoltepec","lat":"16.138879","lng":"-95.946775"},{"country":"MX","name":"Huilotepec","lat":"16.245267","lng":"-95.150806"},{"country":"MX","name":"Huamelula","lat":"16.026974","lng":"-95.667352"},{"country":"MX","name":"Tenango","lat":"16.266586","lng":"-95.59532"},{"country":"MX","name":"Suchiltepec","lat":"16.191535","lng":"-95.925057"},{"country":"MX","name":"San Miguel","lat":"16.260654","lng":"-95.755328"},{"country":"MX","name":"Caja de Agua","lat":"16.135625","lng":"-95.383954"},{"country":"MX","name":"Chiltepec","lat":"16.134277","lng":"-95.915264"},{"country":"MX","name":"Yautepec","lat":"16.430872","lng":"-95.974267"},{"country":"MX","name":"Rinc\u00f3n","lat":"16.229527","lng":"-95.313093"},{"country":"MX","name":"Tapanatepec","lat":"16.369858","lng":"-94.194247"},{"country":"MX","name":"Chimalapa","lat":"16.714183","lng":"-94.747442"},{"country":"MX","name":"Reforma","lat":"16.399379","lng":"-94.458043"},{"country":"MX","name":"Tacahua","lat":"16.917972","lng":"-97.49187"},{"country":"MX","name":"Mixtepec","lat":"16.793198","lng":"-96.879731"},{"country":"MX","name":"Mitlatongo","lat":"17.18601","lng":"-97.279002"},{"country":"MX","name":"Yosonotu","lat":"17.020297","lng":"-97.661814"},{"country":"MX","name":"Etla","lat":"17.203664","lng":"-96.816078"},{"country":"MX","name":"Pe\u00f1asco","lat":"17.235344","lng":"-97.551117"},{"country":"MX","name":"Ocotl\u00e1n","lat":"16.709222","lng":"-96.710548"},{"country":"MX","name":"Mixtepec","lat":"16.897224","lng":"-96.906508"},{"country":"MX","name":"Nejapa","lat":"16.60807","lng":"-95.980337"},{"country":"MX","name":"Tlacotepec","lat":"16.504161","lng":"-95.202482"},{"country":"MX","name":"Juchit\u00e1n","lat":"16.436032","lng":"-95.01975"},{"country":"MX","name":"Huazantl\u00e1n del R\u00edo","lat":"16.219443","lng":"-95.128616"},{"country":"MX","name":"Tlacolulita","lat":"16.300104","lng":"-95.726563"},{"country":"MX","name":"Ixtaltepec","lat":"16.503119","lng":"-95.060758"},{"country":"MX","name":"Amatl\u00e1n","lat":"18.845746","lng":"-96.914942"},{"country":"MX","name":"Acatl\u00e1n","lat":"18.539125","lng":"-96.606006"},{"country":"MX","name":"Tepanco","lat":"18.554997","lng":"-97.56171"},{"country":"MX","name":"Miahuatl\u00e1n","lat":"18.545237","lng":"-97.437465"},{"country":"MX","name":"Techachalco","lat":"18.953301","lng":"-97.46982"},{"country":"MX","name":"Santa Mar\u00eda","lat":"18.59965","lng":"-97.658349"},{"country":"MX","name":"Santa In\u00e9s","lat":"19.154332","lng":"-97.38829"},{"country":"MX","name":"Santa In\u00e9s","lat":"19.004148","lng":"-97.491313"},{"country":"MX","name":"Otzolotepec","lat":"18.577007","lng":"-97.266194"},{"country":"MX","name":"Chicapa","lat":"16.438443","lng":"-94.822058"},{"country":"MX","name":"Cerrito","lat":"16.400154","lng":"-94.530472"},{"country":"MX","name":"Santa Catarina","lat":"18.881986","lng":"-97.43655"},{"country":"MX","name":"San Nicol\u00e1s","lat":"19.164916","lng":"-97.55105"},{"country":"MX","name":"Zozutla","lat":"18.755009","lng":"-97.654248"},{"country":"MX","name":"Tecuitlapa","lat":"19.122032","lng":"-97.547399"},{"country":"MX","name":"San Mart\u00edn","lat":"19.004701","lng":"-97.39578"},{"country":"MX","name":"Tlacoyalco","lat":"18.673125","lng":"-97.603237"},{"country":"MX","name":"Temalacayuca","lat":"18.603522","lng":"-97.557171"},{"country":"MX","name":"Atenco","lat":"19.086743","lng":"-97.540136"},{"country":"MX","name":"Tlacuitlapan","lat":"18.708649","lng":"-97.620989"},{"country":"MX","name":"Ixtapa","lat":"18.715838","lng":"-97.457836"},{"country":"MX","name":"Alchichica","lat":"19.434268","lng":"-97.388719"},{"country":"MX","name":"Tepetiopan","lat":"18.532223","lng":"-97.52737"},{"country":"MX","name":"Lagunas","lat":"18.604186","lng":"-97.265398"},{"country":"MX","name":"Tenejapa","lat":"18.785652","lng":"-97.086019"},{"country":"MX","name":"Cacaloapan","lat":"18.582783","lng":"-97.584944"},{"country":"MX","name":"Palmarito","lat":"18.898912","lng":"-97.638922"},{"country":"MX","name":"Palmar","lat":"18.835633","lng":"-97.547739"},{"country":"MX","name":"Morelos","lat":"18.736839","lng":"-97.419069"},{"country":"MX","name":"Jalapasco","lat":"19.095881","lng":"-97.482535"},{"country":"MX","name":"Guadalupe","lat":"18.916858","lng":"-97.385765"},{"country":"MX","name":"San Rafael","lat":"18.940863","lng":"-96.943307"},{"country":"MX","name":"Atitla","lat":"18.736818","lng":"-96.869157"},{"country":"MX","name":"Atitla","lat":"18.718402","lng":"-96.821411"},{"country":"MX","name":"Ojitl\u00e1n","lat":"18.061493","lng":"-96.398228"},{"country":"MX","name":"Quiotepec","lat":"17.601517","lng":"-96.588274"},{"country":"MX","name":"Luvina","lat":"17.50495","lng":"-96.54958"},{"country":"MX","name":"Valle Nacional","lat":"17.775523","lng":"-96.302629"},{"country":"MX","name":"Tuxtepec","lat":"18.088293","lng":"-96.129815"},{"country":"MX","name":"Tlacoatzintepec","lat":"17.860236","lng":"-96.586239"},{"country":"MX","name":"Chiltepec","lat":"17.948017","lng":"-96.170099"},{"country":"MX","name":"Ahuatepec","lat":"19.040483","lng":"-97.434324"},{"country":"MX","name":"Santiago","lat":"16.803814","lng":"-96.720459"},{"country":"MX","name":"Lachix\u00edo","lat":"16.705142","lng":"-97.018615"},{"country":"MX","name":"Coatl\u00e1n","lat":"16.38898","lng":"-96.845847"},{"country":"MX","name":"Mazaltepec","lat":"17.172464","lng":"-96.873475"},{"country":"MX","name":"Mixtla","lat":"18.605529","lng":"-96.993778"},{"country":"MX","name":"Ejutla","lat":"16.567918","lng":"-96.73129"},{"country":"MX","name":"Cuilapan","lat":"16.978093","lng":"-96.781372"},{"country":"MX","name":"Chalcatongo","lat":"17.031691","lng":"-97.570491"},{"country":"MX","name":"Quetzalapa","lat":"17.836306","lng":"-96.632883"},{"country":"MX","name":"Jocotepec","lat":"17.536011","lng":"-95.944862"},{"country":"MX","name":"Comaltepec","lat":"17.565469","lng":"-96.548731"},{"country":"MX","name":"Jalapa de D\u00edaz","lat":"18.071602","lng":"-96.535183"},{"country":"MX","name":"Ayautla","lat":"18.03235","lng":"-96.67002"},{"country":"MX","name":"Analco","lat":"17.83995","lng":"-96.557203"},{"country":"MX","name":"Teotilalpan","lat":"17.954346","lng":"-96.656113"},{"country":"MX","name":"Tamextitl\u00e1n","lat":"17.593574","lng":"-96.551256"},{"country":"MX","name":"Yolotepec","lat":"16.870286","lng":"-97.50185"},{"country":"MX","name":"Sola","lat":"16.49248","lng":"-96.982501"},{"country":"MX","name":"Tlaltinango","lat":"17.240075","lng":"-96.846695"},{"country":"MX","name":"Ixcatl\u00e1n","lat":"16.912881","lng":"-97.532457"},{"country":"MX","name":"Huendio","lat":"17.254489","lng":"-97.50468"},{"country":"MX","name":"La Balsa","lat":"18.69656","lng":"-96.611058"},{"country":"MX","name":"Yutanino","lat":"16.790247","lng":"-97.464227"},{"country":"MX","name":"R\u00edo Dulce","lat":"16.812241","lng":"-97.099439"},{"country":"MX","name":"Jalpan","lat":"16.971639","lng":"-96.756989"},{"country":"MX","name":"Etla","lat":"17.205002","lng":"-96.798335"},{"country":"MX","name":"Teozacoalco","lat":"17.016046","lng":"-97.286621"},{"country":"MX","name":"Molinos","lat":"17.10381","lng":"-97.538811"},{"country":"MX","name":"Ixtlahuaca","lat":"17.061751","lng":"-96.81729"},{"country":"MX","name":"Tlazoyaltepec","lat":"17.036663","lng":"-96.983764"},{"country":"MX","name":"Suchilquitongo","lat":"17.255879","lng":"-96.880331"},{"country":"MX","name":"Ticu\u00e1","lat":"17.073688","lng":"-97.537848"},{"country":"MX","name":"Quian\u00e9","lat":"16.88255","lng":"-96.74067"},{"country":"MX","name":"Monta\u00f1o","lat":"17.087642","lng":"-96.805383"},{"country":"MX","name":"Mixtepec","lat":"16.892881","lng":"-96.936518"},{"country":"MX","name":"Tomate","lat":"17.733407","lng":"-95.872241"},{"country":"MX","name":"Ocotl\u00e1n","lat":"16.761945","lng":"-96.721374"},{"country":"MX","name":"Mixtepec","lat":"16.866782","lng":"-96.965098"},{"country":"MX","name":"Minas","lat":"16.424523","lng":"-97.228147"},{"country":"MX","name":"Clavellinas","lat":"16.920082","lng":"-96.930778"},{"country":"MX","name":"Amoltepec","lat":"16.642343","lng":"-97.496165"},{"country":"MX","name":"Chichihualtepec","lat":"16.651287","lng":"-96.775864"},{"country":"MX","name":"Coatl\u00e1n","lat":"16.299053","lng":"-96.774173"},{"country":"MX","name":"Yuj\u00eda","lat":"16.969677","lng":"-97.48997"},{"country":"MX","name":"San Pedro","lat":"17.148905","lng":"-97.460778"},{"country":"MX","name":"Alto","lat":"16.807692","lng":"-97.053061"},{"country":"MX","name":"Tijaltepec","lat":"17.017965","lng":"-97.500157"},{"country":"MX","name":"Huixtepec","lat":"16.819481","lng":"-96.78128"},{"country":"MX","name":"Huitzo","lat":"17.277085","lng":"-96.886611"},{"country":"MX","name":"Etla","lat":"17.141708","lng":"-96.751837"},{"country":"MX","name":"Sola de Vega","lat":"16.515684","lng":"-96.979033"},{"country":"MX","name":"Piedras","lat":"16.991107","lng":"-97.226619"},{"country":"MX","name":"Peras","lat":"16.93903","lng":"-97.011191"},{"country":"MX","name":"Ejutla","lat":"16.580122","lng":"-96.737922"},{"country":"MX","name":"Yucutindoo","lat":"16.736439","lng":"-97.483107"},{"country":"MX","name":"Sindihui","lat":"17.00466","lng":"-97.350496"},{"country":"MX","name":"Texmelucan","lat":"16.585987","lng":"-97.199432"},{"country":"MX","name":"Yuta","lat":"17.023496","lng":"-97.170895"},{"country":"MX","name":"Quiahije","lat":"16.301833","lng":"-97.317087"},{"country":"MX","name":"Diuxi","lat":"17.285913","lng":"-97.370401"},{"country":"MX","name":"Guelache","lat":"17.229843","lng":"-96.778595"},{"country":"MX","name":"Totomoxtla","lat":"17.611544","lng":"-96.55983"},{"country":"MX","name":"Nieves","lat":"17.627313","lng":"-96.56202"},{"country":"MX","name":"Yagavila","lat":"17.438299","lng":"-96.324442"},{"country":"MX","name":"Zaniza","lat":"16.655512","lng":"-97.338046"},{"country":"MX","name":"Yolotepec","lat":"16.876718","lng":"-97.504457"},{"country":"MX","name":"Tataltepec","lat":"17.141812","lng":"-97.393746"},{"country":"MX","name":"Sola","lat":"16.569714","lng":"-97.018288"},{"country":"MX","name":"Tlapacoyan","lat":"16.743693","lng":"-96.836082"},{"country":"MX","name":"Almolongas","lat":"16.404287","lng":"-96.718563"},{"country":"MX","name":"Trujano","lat":"16.992417","lng":"-96.712937"},{"country":"MX","name":"Ixtapan","lat":"16.37927","lng":"-97.279315"},{"country":"MX","name":"Etla","lat":"17.215016","lng":"-96.769723"},{"country":"MX","name":"Sola","lat":"16.515797","lng":"-96.974216"},{"country":"MX","name":"Cahuacu\u00e1","lat":"16.89648","lng":"-97.305996"},{"country":"MX","name":"San Fernando","lat":"16.842396","lng":"-97.153678"},{"country":"MX","name":"Atatlahuca","lat":"17.067079","lng":"-97.678154"},{"country":"MX","name":"Mixtepec","lat":"16.825913","lng":"-96.900316"},{"country":"MX","name":"Yucua\u00f1e","lat":"17.238415","lng":"-97.449357"},{"country":"MX","name":"Sinicahua","lat":"17.147964","lng":"-97.571132"},{"country":"MX","name":"Alto","lat":"16.815649","lng":"-97.025631"},{"country":"MX","name":"Nuxi\u00f1o","lat":"17.238481","lng":"-97.1058"},{"country":"MX","name":"Ixtlahuaca","lat":"17.071351","lng":"-96.826016"},{"country":"MX","name":"Alto","lat":"16.844771","lng":"-97.052109"},{"country":"MX","name":"Cabecera Nueva","lat":"16.888791","lng":"-97.680311"},{"country":"MX","name":"Tlacotepec","lat":"17.202355","lng":"-97.515988"},{"country":"MX","name":"Etla","lat":"17.188492","lng":"-96.770824"},{"country":"MX","name":"Amatengo","lat":"16.511348","lng":"-96.791361"},{"country":"MX","name":"Y\u00f3lox","lat":"17.588249","lng":"-96.553141"},{"country":"MX","name":"Tepinapa","lat":"17.574818","lng":"-96.009804"},{"country":"MX","name":"Ixcatl\u00e1n","lat":"18.145552","lng":"-96.510112"},{"country":"MX","name":"Cosamaloapan","lat":"18.366778","lng":"-95.796344"},{"country":"MX","name":"Tixtla","lat":"17.568675","lng":"-99.39871"},{"country":"MX","name":"Tepecoacuilco","lat":"18.27723","lng":"-99.470387"},{"country":"MX","name":"Iguala","lat":"18.349281","lng":"-99.539359"},{"country":"MX","name":"Huitzuco","lat":"18.306676","lng":"-99.335412"},{"country":"MX","name":"Coatl\u00e1n","lat":"16.195208","lng":"-96.871982"},{"country":"MX","name":"Chontecomatl\u00e1n","lat":"16.247289","lng":"-96.014444"},{"country":"MX","name":"Cuetzala","lat":"18.133764","lng":"-99.833041"},{"country":"MX","name":"Coatepec","lat":"18.3404","lng":"-99.721386"},{"country":"MX","name":"Buenavista","lat":"18.460005","lng":"-99.40848"},{"country":"MX","name":"Yaitepec","lat":"16.226282","lng":"-97.269525"},{"country":"MX","name":"Lapagu\u00eda","lat":"16.135989","lng":"-96.191981"},{"country":"MX","name":"Jocotepec","lat":"16.125831","lng":"-97.437151"},{"country":"MX","name":"Xadani","lat":"15.949087","lng":"-96.073295"},{"country":"MX","name":"Acatl\u00e1n","lat":"17.935309","lng":"-99.899832"},{"country":"MX","name":"Tonameca","lat":"15.748007","lng":"-96.5477"},{"country":"MX","name":"Temaxcaltepec","lat":"16.164694","lng":"-97.196613"},{"country":"MX","name":"Ozolotepec","lat":"16.130832","lng":"-96.370868"},{"country":"MX","name":"Tiltepec","lat":"16.063026","lng":"-97.170748"},{"country":"MX","name":"Colotepec","lat":"15.897547","lng":"-96.938592"},{"country":"MX","name":"Coatl\u00e1n","lat":"16.234599","lng":"-96.721461"},{"country":"MX","name":"Ozolotepec","lat":"16.07072","lng":"-96.302047"},{"country":"MX","name":"Xanaqu\u00eda","lat":"16.091032","lng":"-96.244318"},{"country":"MX","name":"Juquila","lat":"16.237931","lng":"-97.291357"},{"country":"MX","name":"R\u00edo Hondo","lat":"16.183837","lng":"-96.464433"},{"country":"MX","name":"Coatl\u00e1n","lat":"16.200861","lng":"-96.824899"},{"country":"MX","name":"Tututepec","lat":"16.129814","lng":"-97.60777"},{"country":"MX","name":"Pochutla","lat":"15.747566","lng":"-96.466643"},{"country":"MX","name":"Ozolotepec","lat":"16.145205","lng":"-96.348951"},{"country":"MX","name":"Coatl\u00e1n","lat":"16.22369","lng":"-96.783165"},{"country":"MX","name":"Suchixtepec","lat":"16.09213","lng":"-96.464554"},{"country":"MX","name":"Panixtlahuaca","lat":"16.260009","lng":"-97.37874"},{"country":"MX","name":"Coatl\u00e1n","lat":"16.197609","lng":"-96.695835"},{"country":"MX","name":"R\u00edo Hondo","lat":"16.144154","lng":"-96.447911"},{"country":"MX","name":"Pi\u00f1as","lat":"16.000833","lng":"-96.333545"},{"country":"MX","name":"Ozolotepec","lat":"16.088482","lng":"-96.404974"},{"country":"MX","name":"Guivini","lat":"16.100625","lng":"-96.194331"},{"country":"MX","name":"Coatl\u00e1n","lat":"16.23166","lng":"-96.868588"},{"country":"MX","name":"Apango","lat":"15.808665","lng":"-96.358323"},{"country":"MX","name":"Mixtepec","lat":"16.095064","lng":"-97.081559"},{"country":"MX","name":"San Francisco","lat":"16.093865","lng":"-97.609666"},{"country":"MX","name":"Coatl\u00e1n","lat":"16.186748","lng":"-96.770482"},{"country":"MX","name":"Loxicha","lat":"15.96969","lng":"-96.707509"},{"country":"MX","name":"Loxicha","lat":"16.079807","lng":"-96.790047"},{"country":"MX","name":"Ozolotepec","lat":"16.079407","lng":"-96.291167"},{"country":"MX","name":"Paxtl\u00e1n","lat":"16.216086","lng":"-96.508067"},{"country":"MX","name":"Loxicha","lat":"16.016552","lng":"-96.616671"},{"country":"MX","name":"San Rafael","lat":"28.287798","lng":"-107.131589"},{"country":"MX","name":"Chila","lat":"22.197254","lng":"-98.010169"},{"country":"MX","name":"Horcasitas","lat":"29.487367","lng":"-110.724789"},{"country":"MX","name":"Mexicali","lat":"32.650022","lng":"-115.461069"},{"country":"MX","name":"La Paz","lat":"24.142297","lng":"-110.312738"},{"country":"MX","name":"Campeche","lat":"19.838032","lng":"-90.527701"},{"country":"MX","name":"San Francisco de Campeche","lat":"19.838032","lng":"-90.527701"},{"country":"MX","name":"Oaxaca","lat":"17.071084","lng":"-96.719141"},{"country":"MX","name":"Oaxaca","lat":"17.071084","lng":"-96.719141"},{"country":"MX","name":"Aguascalientes","lat":"21.88234","lng":"-102.282586"},{"country":"MX","name":"Tuxtla","lat":"16.754689","lng":"-93.114852"},{"country":"MX","name":"Chihuahua","lat":"28.633333","lng":"-106.083333"},{"country":"MX","name":"Saltillo","lat":"25.419418","lng":"-101.001278"},{"country":"MX","name":"Colima","lat":"19.243408","lng":"-103.727666"},{"country":"MX","name":"Victoria de Durango","lat":"24.020319","lng":"-104.657555"},{"country":"MX","name":"Durango","lat":"24.020319","lng":"-104.657555"},{"country":"MX","name":"Guanajuato","lat":"21.018268","lng":"-101.256979"},{"country":"MX","name":"Chilpancingo","lat":"17.550599","lng":"-99.505783"},{"country":"MX","name":"Chilpancingo","lat":"17.550599","lng":"-99.505783"},{"country":"MX","name":"Pachuca","lat":"20.117362","lng":"-98.742915"},{"country":"MX","name":"Pachuca","lat":"20.117362","lng":"-98.742915"},{"country":"MX","name":"Guadalajara","lat":"20.666823","lng":"-103.391824"},{"country":"MX","name":"Toluca de Lerdo","lat":"19.287858","lng":"-99.653237"},{"country":"MX","name":"Toluca","lat":"19.287858","lng":"-99.653237"},{"country":"MX","name":"Morelia","lat":"19.70179","lng":"-101.183962"},{"country":"MX","name":"Cuernavaca","lat":"18.933725","lng":"-99.228488"},{"country":"MX","name":"Tepic","lat":"21.500797","lng":"-104.889357"},{"country":"MX","name":"Monterrey","lat":"25.675065","lng":"-100.318465"},{"country":"MX","name":"Puebla","lat":"19.043336","lng":"-98.201926"},{"country":"MX","name":"Puebla","lat":"19.043336","lng":"-98.201926"},{"country":"MX","name":"Quer\u00e9taro","lat":"20.599774","lng":"-100.389933"},{"country":"MX","name":"Santiago de Quer\u00e9taro","lat":"20.599774","lng":"-100.389933"},{"country":"MX","name":"Chetumal","lat":"18.511377","lng":"-88.301003"},{"country":"MX","name":"San Luis Potos\u00ed","lat":"22.149929","lng":"-100.982802"},{"country":"MX","name":"Culiac\u00e1n","lat":"24.807372","lng":"-107.397337"},{"country":"MX","name":"Culiac\u00e1n Rosales","lat":"24.807372","lng":"-107.397337"},{"country":"MX","name":"Villahermosa","lat":"17.986893","lng":"-92.930277"},{"country":"MX","name":"Ciudad Victoria","lat":"23.741744","lng":"-99.145993"},{"country":"MX","name":"Tlaxcala de Xicoht\u00e9ncatl","lat":"19.320757","lng":"-98.209588"},{"country":"MX","name":"Tlaxcala","lat":"19.320757","lng":"-98.209588"},{"country":"MX","name":"Xalapa","lat":"19.544831","lng":"-96.917709"},{"country":"MX","name":"Xalapa-Enr\u00edquez","lat":"19.544831","lng":"-96.917709"},{"country":"MX","name":"M\u00e9rida","lat":"20.976704","lng":"-89.620592"},{"country":"MX","name":"Zacatecas","lat":"22.770378","lng":"-102.577855"},{"country":"MX","name":"Santa Mar\u00eda","lat":"23.209454","lng":"-98.359243"},{"country":"MX","name":"Llano","lat":"22.453154","lng":"-99.590577"},{"country":"MX","name":"Chac","lat":"18.483333","lng":"-88.466667"},{"country":"MX","name":"Cuates","lat":"25.95","lng":"-97.666667"},{"country":"MX","name":"Buenavista","lat":"23.6","lng":"-100.25"},{"country":"MX","name":"Buenavista","lat":"20.033333","lng":"-100.683333"},{"country":"MX","name":"Ahuehuetitl\u00e1n","lat":"17.666667","lng":"-97.316667"},{"country":"MX","name":"Guadalupe","lat":"23.35","lng":"-99.083333"},{"country":"MX","name":"San Jos\u00e9","lat":"18.416667","lng":"-95.583333"},{"country":"MX","name":"Tomaltepec","lat":"17.066667","lng":"-97.616667"},{"country":"MX","name":"Agua Santa","lat":"18.933333","lng":"-101.133333"},{"country":"MX","name":"Acatita","lat":"25.05","lng":"-107.083333"},{"country":"MX","name":"Estancia","lat":"21.15","lng":"-101.566667"},{"country":"MX","name":"Simojovel","lat":"17.2","lng":"-92.633333"},{"country":"MX","name":"Iguitl\u00e1n Plumas","lat":"17.85","lng":"-97.433333"},{"country":"MX","name":"San Jos\u00e9","lat":"25.8","lng":"-100.916667"},{"country":"MX","name":"Horno","lat":"21.266667","lng":"-104.1"},{"country":"MX","name":"Xochitlaxco","lat":"19.933333","lng":"-97.85"},{"country":"MX","name":"Santa Ana","lat":"20.366667","lng":"-102"},{"country":"MX","name":"San Bartolo","lat":"26.916667","lng":"-99.633333"},{"country":"MX","name":"Palo Blanco","lat":"27.15","lng":"-102.2"},{"country":"MX","name":"El Rinc\u00f3n","lat":"24.883333","lng":"-107.233333"},{"country":"MX","name":"San Francisco","lat":"20.216667","lng":"-103.7"},{"country":"MX","name":"La Ca\u00f1ada","lat":"21.966667","lng":"-100.3"},{"country":"MX","name":"Los Placeres","lat":"18.083333","lng":"-100.766667"},{"country":"MX","name":"Buenavista","lat":"24.833333","lng":"-98.2"},{"country":"MX","name":"San Lorenzo","lat":"19.505278","lng":"-99.768333"},{"country":"MX","name":"San Jos\u00e9","lat":"27.083333","lng":"-105.383333"},{"country":"MX","name":"\u00c1lamo","lat":"25.4","lng":"-108.033333"},{"country":"MX","name":"Rancho Viejo","lat":"25.366667","lng":"-111.8"},{"country":"MX","name":"Coatepec","lat":"18.8","lng":"-98.65"},{"country":"MX","name":"Estancia","lat":"21.7","lng":"-102.2"},{"country":"MX","name":"Xonacatepec","lat":"19.083333","lng":"-98.1"},{"country":"MX","name":"Jicaltepec","lat":"16.366667","lng":"-98.016667"},{"country":"MX","name":"San Pedro","lat":"23.583333","lng":"-100.383333"},{"country":"MX","name":"San Isidro","lat":"17.633333","lng":"-93.25"},{"country":"MX","name":"Montelobos","lat":"17.566667","lng":"-97.3"},{"country":"MX","name":"Vielma","lat":"21.716667","lng":"-99.85"},{"country":"MX","name":"Tlacotepec","lat":"17.816667","lng":"-97.416667"},{"country":"MX","name":"Chapultepec","lat":"17.95","lng":"-97.916667"},{"country":"MX","name":"Ocotl\u00e1n","lat":"16.8","lng":"-96.716667"},{"country":"MX","name":"San Pablo","lat":"16.2","lng":"-94.05"},{"country":"MX","name":"Alvarez","lat":"18.5","lng":"-101.7"},{"country":"MX","name":"Yancuitlalpan","lat":"18.916667","lng":"-98.583333"},{"country":"MX","name":"San Antonio","lat":"21.116667","lng":"-88.866667"},{"country":"MX","name":"Nogalillos","lat":"24.647222","lng":"-99.628889"},{"country":"MX","name":"Punta Gorda","lat":"30.7","lng":"-115.983333"},{"country":"MX","name":"San Isidro","lat":"20.383333","lng":"-100.433333"},{"country":"MX","name":"Ju\u00e1rez","lat":"31.733333","lng":"-106.483333"},{"country":"MX","name":"Corrales","lat":"24.95","lng":"-106.2"},{"country":"MX","name":"Gigante","lat":"21.183333","lng":"-101.566667"},{"country":"MX","name":"Cieneguita","lat":"25.566667","lng":"-100.116667"},{"country":"MX","name":"Piloto","lat":"20.083333","lng":"-105.316667"},{"country":"MX","name":"Paredones","lat":"31.066667","lng":"-111.733333"},{"country":"MX","name":"Teotlaxco","lat":"17.55","lng":"-96.366667"},{"country":"MX","name":"Refugio","lat":"25.85","lng":"-97.666667"},{"country":"MX","name":"San Pedro","lat":"22.783333","lng":"-104.566667"},{"country":"MX","name":"Toavela","lat":"17.533333","lng":"-96.083333"},{"country":"MX","name":"Ovando","lat":"19.033333","lng":"-97.8"},{"country":"MX","name":"San Pedro","lat":"17.7","lng":"-93.983333"},{"country":"MX","name":"Macapexco","lat":"19.666667","lng":"-99.5"},{"country":"MX","name":"Xaltatempa","lat":"19.75","lng":"-97.816667"},{"country":"MX","name":"San Jos\u00e9","lat":"21.166667","lng":"-101.65"},{"country":"MX","name":"San Pedro","lat":"19.908889","lng":"-99.959167"},{"country":"MX","name":"Mazatla","lat":"19.513889","lng":"-99.388611"},{"country":"MX","name":"San Jos\u00e9","lat":"16.366667","lng":"-91.833333"},{"country":"MX","name":"San Luis","lat":"24.05","lng":"-105.716667"},{"country":"MX","name":"Tecamachalco","lat":"19.416667","lng":"-99.233333"},{"country":"MX","name":"San Rafael","lat":"28.866667","lng":"-107.766667"},{"country":"MX","name":"Coyotepec","lat":"17.55","lng":"-97.283333"},{"country":"MX","name":"Sauces","lat":"24.733333","lng":"-104.866667"},{"country":"MX","name":"Puerto","lat":"21","lng":"-99.866667"},{"country":"MX","name":"Agua Fr\u00eda","lat":"23.773386","lng":"-106.609936"},{"country":"MX","name":"Tlalixtac","lat":"17.072485","lng":"-96.646665"},{"country":"MX","name":"Tlacolula","lat":"16.955861","lng":"-96.475707"},{"country":"MX","name":"Tlacochahuaya","lat":"17.008783","lng":"-96.583776"},{"country":"MX","name":"Lachita\u00e1","lat":"17.266134","lng":"-96.144745"},{"country":"MX","name":"Jalieza","lat":"16.844688","lng":"-96.670635"},{"country":"MX","name":"Santo Tom\u00e1s","lat":"16.777999","lng":"-96.236162"},{"country":"MX","name":"Xagac\u00eda","lat":"17.15475","lng":"-96.267757"},{"country":"MX","name":"Tepuxtepec","lat":"16.955724","lng":"-96.057774"},{"country":"MX","name":"Jalieza","lat":"16.869421","lng":"-96.629081"},{"country":"MX","name":"Amatl\u00e1n","lat":"16.296252","lng":"-96.447116"},{"country":"MX","name":"Lalopa","lat":"17.418922","lng":"-96.248284"},{"country":"MX","name":"Zoquitl\u00e1n","lat":"16.559354","lng":"-96.353842"},{"country":"MX","name":"Yaves\u00eda","lat":"17.236578","lng":"-96.430829"},{"country":"MX","name":"Yalina","lat":"17.246331","lng":"-96.279244"},{"country":"MX","name":"Yacochi","lat":"17.140525","lng":"-96.051032"},{"country":"MX","name":"Tepantlali","lat":"16.995811","lng":"-96.008282"},{"country":"MX","name":"Lovan\u00ed","lat":"17.51532","lng":"-96.079012"},{"country":"MX","name":"Cajonos","lat":"17.160464","lng":"-96.208215"},{"country":"MX","name":"Tlapasola","lat":"16.912086","lng":"-96.524046"},{"country":"MX","name":"Quiavini","lat":"16.89498","lng":"-96.467594"},{"country":"MX","name":"Mixtepec","lat":"16.293179","lng":"-96.341252"},{"country":"MX","name":"Ixtlahuac\u00e1n","lat":"20.348605","lng":"-103.19336"},{"country":"MX","name":"Albarradas","lat":"17.067642","lng":"-96.200475"},{"country":"MX","name":"Zoochila","lat":"17.221905","lng":"-96.242539"},{"country":"MX","name":"Yagall\u00f3","lat":"17.42438","lng":"-96.296571"},{"country":"MX","name":"Matatl\u00e1n","lat":"16.865396","lng":"-96.382973"},{"country":"MX","name":"Laxopa","lat":"17.221924","lng":"-96.310342"},{"country":"MX","name":"Buenavista","lat":"26.784858","lng":"-106.744875"},{"country":"MX","name":"Jaltianguis","lat":"17.363995","lng":"-96.528315"},{"country":"MX","name":"Xitla","lat":"16.327673","lng":"-96.670892"},{"country":"MX","name":"Yalalag","lat":"17.186653","lng":"-96.17677"},{"country":"MX","name":"Yate\u00e9","lat":"17.305697","lng":"-96.164161"},{"country":"MX","name":"Lachigol\u00f3","lat":"17.01595","lng":"-96.600411"},{"country":"MX","name":"Cajonos","lat":"17.172074","lng":"-96.249989"},{"country":"MX","name":"Ocotl\u00e1n","lat":"16.74696","lng":"-96.680431"},{"country":"MX","name":"Zapotit\u00e1n","lat":"20.326412","lng":"-103.478406"},{"country":"MX","name":"Yareni","lat":"17.39653","lng":"-96.610745"},{"country":"MX","name":"Santa Ana","lat":"16.995215","lng":"-96.470533"},{"country":"MX","name":"Guiloxi","lat":"17.228236","lng":"-96.28982"},{"country":"MX","name":"Abasolo","lat":"16.993868","lng":"-96.587764"},{"country":"MX","name":"Ayutla","lat":"17.027663","lng":"-96.076656"},{"country":"MX","name":"Totolapan","lat":"16.670751","lng":"-96.308025"},{"country":"MX","name":"Taviche","lat":"16.638353","lng":"-96.536538"},{"country":"MX","name":"Quiatoni","lat":"16.783241","lng":"-96.030746"},{"country":"MX","name":"Nexicho","lat":"17.263628","lng":"-96.586802"},{"country":"MX","name":"Mixtepec","lat":"16.271164","lng":"-96.284478"},{"country":"MX","name":"Quiechapa","lat":"16.415259","lng":"-96.244757"},{"country":"MX","name":"Yetzecovi","lat":"17.362583","lng":"-96.128794"},{"country":"MX","name":"Yatzona","lat":"17.400646","lng":"-96.169124"},{"country":"MX","name":"Yalahui","lat":"17.406154","lng":"-96.137539"},{"country":"MX","name":"Ya\u00e9","lat":"17.429589","lng":"-96.283068"},{"country":"MX","name":"Lachigalla","lat":"16.58916","lng":"-96.550706"},{"country":"MX","name":"Guelav\u00eda","lat":"16.95421","lng":"-96.543052"},{"country":"MX","name":"Analco","lat":"17.405538","lng":"-96.537696"},{"country":"MX","name":"Coatecas","lat":"16.544889","lng":"-96.70007"},{"country":"MX","name":"Chilateca","lat":"16.83042","lng":"-96.669153"},{"country":"MX","name":"Chicomez\u00fachil","lat":"17.287465","lng":"-96.496227"},{"country":"MX","name":"Atepec","lat":"17.4286","lng":"-96.539125"},{"country":"MX","name":"Ocotepec","lat":"16.804865","lng":"-96.392124"},{"country":"MX","name":"Lachirioag","lat":"17.336517","lng":"-96.164773"},{"country":"MX","name":"Amatl\u00e1n","lat":"16.318405","lng":"-96.411711"},{"country":"MX","name":"Yautepec","lat":"16.497587","lng":"-96.106148"},{"country":"MX","name":"Guelavila","lat":"16.796539","lng":"-96.306731"},{"country":"MX","name":"Chichicapan","lat":"16.761391","lng":"-96.488697"},{"country":"MX","name":"Tlajomulco","lat":"20.474208","lng":"-103.446536"},{"country":"MX","name":"Tizap\u00e1n","lat":"20.161375","lng":"-103.043966"},{"country":"MX","name":"Teocuitatl\u00e1n","lat":"20.092233","lng":"-103.377998"},{"country":"MX","name":"Cojumatl\u00e1n","lat":"20.118578","lng":"-102.851817"},{"country":"MX","name":"Calera","lat":"20.161148","lng":"-102.89846"},{"country":"MX","name":"Atotonilco","lat":"20.350362","lng":"-103.67342"},{"country":"MX","name":"Chivaguela","lat":"16.45781","lng":"-96.190454"},{"country":"MX","name":"Buenavista","lat":"16.939317","lng":"-96.63225"},{"country":"MX","name":"Yatuni","lat":"17.251216","lng":"-96.401413"},{"country":"MX","name":"Ya\u00e1","lat":"17.293141","lng":"-96.153786"},{"country":"MX","name":"Solaga","lat":"17.271642","lng":"-96.234167"},{"country":"MX","name":"Miahuatl\u00e1n","lat":"16.332695","lng":"-96.595577"},{"country":"MX","name":"Teitipac","lat":"16.903715","lng":"-96.55777"},{"country":"MX","name":"Coatecas","lat":"16.536264","lng":"-96.668631"},{"country":"MX","name":"Teotitl\u00e1n","lat":"17.030408","lng":"-96.518916"},{"country":"MX","name":"Monjas","lat":"16.369761","lng":"-96.640951"},{"country":"MX","name":"Jalieza","lat":"16.883865","lng":"-96.616116"},{"country":"MX","name":"Yetzelalag","lat":"17.451994","lng":"-96.168058"},{"country":"MX","name":"Quioquitanis","lat":"16.31569","lng":"-96.286786"},{"country":"MX","name":"Minas","lat":"16.779847","lng":"-96.615463"},{"country":"MX","name":"Lachatao","lat":"17.269368","lng":"-96.470263"},{"country":"MX","name":"Ixtepeji","lat":"17.268127","lng":"-96.561591"},{"country":"MX","name":"Cuixtla","lat":"16.306646","lng":"-96.644072"},{"country":"MX","name":"Santa Mar\u00eda","lat":"20.602184","lng":"-103.399753"},{"country":"MX","name":"Santa Cruz","lat":"20.375137","lng":"-102.863823"},{"country":"MX","name":"Santa Cruz","lat":"20.746607","lng":"-103.642815"},{"country":"MX","name":"Santa Cruz","lat":"20.621834","lng":"-103.260277"},{"country":"MX","name":"Santa Cruz","lat":"20.481247","lng":"-103.501615"},{"country":"MX","name":"Mixtepec","lat":"16.325754","lng":"-96.326331"},{"country":"MX","name":"Huayapan","lat":"17.10309","lng":"-96.664231"},{"country":"MX","name":"Ocotl\u00e1n","lat":"16.793214","lng":"-96.673904"},{"country":"MX","name":"Zacoalco","lat":"20.228163","lng":"-103.568703"},{"country":"MX","name":"San Sebasti\u00e1n","lat":"20.532743","lng":"-103.428044"},{"country":"MX","name":"San Pedro","lat":"20.22687","lng":"-103.414881"},{"country":"MX","name":"Itzic\u00e1n","lat":"20.317245","lng":"-102.954065"},{"country":"MX","name":"Ibarra","lat":"20.329822","lng":"-103.128808"},{"country":"MX","name":"Ornelas","lat":"20.386871","lng":"-102.975982"},{"country":"MX","name":"San Mart\u00edn","lat":"20.596225","lng":"-103.28129"},{"country":"MX","name":"Rinc\u00f3n","lat":"20.504711","lng":"-102.989062"},{"country":"MX","name":"Gracia","lat":"20.097764","lng":"-103.441108"},{"country":"MX","name":"San Isidro","lat":"20.522844","lng":"-103.612943"},{"country":"MX","name":"San Crist\u00f3bal","lat":"20.224533","lng":"-103.369688"},{"country":"MX","name":"Cajonos","lat":"17.169564","lng":"-96.261979"},{"country":"MX","name":"Amatl\u00e1n","lat":"16.328117","lng":"-96.448185"},{"country":"MX","name":"Yaganiza","lat":"17.145484","lng":"-96.229314"},{"country":"MX","name":"Mitla","lat":"16.925009","lng":"-96.359109"},{"country":"MX","name":"G\u00fcil\u00e1","lat":"16.803204","lng":"-96.441134"},{"country":"MX","name":"Yogovana","lat":"16.280413","lng":"-96.631705"},{"country":"MX","name":"Tilquiapan","lat":"16.782097","lng":"-96.580903"},{"country":"MX","name":"Talea de Castro","lat":"17.362658","lng":"-96.247596"},{"country":"MX","name":"Reagui","lat":"17.460179","lng":"-96.23083"},{"country":"MX","name":"Amatl\u00e1n","lat":"17.274753","lng":"-96.471945"},{"country":"MX","name":"Lachiguir\u00ed","lat":"16.377999","lng":"-96.335113"},{"country":"MX","name":"Taviche","lat":"16.712354","lng":"-96.59395"},{"country":"MX","name":"Villa Alta","lat":"17.338387","lng":"-96.152357"},{"country":"MX","name":"Amatl\u00e1n","lat":"16.337194","lng":"-96.489458"},{"country":"MX","name":"San Jos\u00e9","lat":"24.812321","lng":"-107.183381"},{"country":"MX","name":"Nuevo","lat":"25.859958","lng":"-99.778738"},{"country":"MX","name":"Encino","lat":"26.164813","lng":"-105.33172"},{"country":"MX","name":"Rancho Viejo","lat":"23.228768","lng":"-106.027236"},{"country":"MX","name":"Cabeza de Toro","lat":"25.663646","lng":"-99.101055"},{"country":"MX","name":"Agua Caliente","lat":"27.459401","lng":"-108.529053"},{"country":"MX","name":"Santa Rita","lat":"24.752835","lng":"-100.267758"},{"country":"MX","name":"Santa Mar\u00eda","lat":"24.985264","lng":"-100.620752"},{"country":"MX","name":"Escuinapa","lat":"22.832534","lng":"-105.775391"},{"country":"MX","name":"Sinaloa","lat":"25.82315","lng":"-108.2224"},{"country":"MX","name":"Carboneras","lat":"24.775654","lng":"-107.247691"},{"country":"MX","name":"San Juan","lat":"26.893166","lng":"-107.880472"},{"country":"MX","name":"Serrucho","lat":"28.209375","lng":"-108.304969"},{"country":"MX","name":"Aguacaliente","lat":"23.16176","lng":"-106.086756"},{"country":"MX","name":"Santa Ana","lat":"18.119703","lng":"-93.061744"},{"country":"MX","name":"Santa Cruz","lat":"20.21589","lng":"-105.332094"},{"country":"MX","name":"Concepci\u00f3n","lat":"20.2446","lng":"-105.078067"},{"country":"MX","name":"Jalpa","lat":"18.176427","lng":"-93.063486"},{"country":"MX","name":"\u00c1lamos","lat":"28.188059","lng":"-107.104393"},{"country":"MX","name":"Milpillas","lat":"20.743409","lng":"-104.893034"},{"country":"MX","name":"San Jos\u00e9","lat":"20.763154","lng":"-105.227372"},{"country":"MX","name":"El Anc\u00f3n","lat":"25.151732","lng":"-100.154466"},{"country":"MX","name":"Soledad","lat":"20.506488","lng":"-105.132888"},{"country":"MX","name":"El Zapote","lat":"27.379934","lng":"-108.516445"},{"country":"MX","name":"Cieneguita","lat":"25.485292","lng":"-100.064107"},{"country":"MX","name":"Sext\u00edn","lat":"26.151195","lng":"-105.610374"},{"country":"MX","name":"G\u00f3mez","lat":"25.452115","lng":"-99.35461"},{"country":"MX","name":"El Venadito","lat":"25.685324","lng":"-99.03194"},{"country":"MX","name":"El \u00c9bano","lat":"25.413004","lng":"-99.094606"},{"country":"MX","name":"Cadereyta","lat":"25.588958","lng":"-100.001557"},{"country":"MX","name":"Parras","lat":"25.441562","lng":"-102.179205"},{"country":"MX","name":"Oratorio","lat":"25.583576","lng":"-101.350341"},{"country":"MX","name":"Pitahaya","lat":"28.706356","lng":"-110.588686"},{"country":"MX","name":"Prietas","lat":"28.798687","lng":"-110.56326"},{"country":"MX","name":"Nogales","lat":"31.314044","lng":"-110.945956"},{"country":"MX","name":"Santa Cruz","lat":"20.392768","lng":"-103.949846"},{"country":"MX","name":"Ci\u00e9nega","lat":"23.778117","lng":"-104.994868"},{"country":"MX","name":"Durazno","lat":"24.156414","lng":"-104.668452"},{"country":"MX","name":"Pedro Pablo","lat":"22.434222","lng":"-105.174653"},{"country":"MX","name":"Encarnaci\u00f3n","lat":"24.824487","lng":"-101.045356"},{"country":"MX","name":"Ac\u00fa","lat":"20.546951","lng":"-90.163615"},{"country":"MX","name":"Sauz","lat":"24.35452","lng":"-104.706611"},{"country":"MX","name":"Sih\u00f3","lat":"20.487091","lng":"-90.164567"},{"country":"MX","name":"Sahcabch\u00e9n","lat":"20.30682","lng":"-90.13799"},{"country":"MX","name":"Chun","lat":"20.877829","lng":"-89.860418"},{"country":"MX","name":"Ixcat\u00e1n","lat":"22.039154","lng":"-104.934043"},{"country":"MX","name":"San Miguel","lat":"21.994607","lng":"-104.782359"},{"country":"MX","name":"Los Muchachos","lat":"25.301925","lng":"-101.313128"},{"country":"MX","name":"Comit\u00e1n","lat":"16.244707","lng":"-92.134248"},{"country":"MX","name":"Santa Cruz","lat":"22.061641","lng":"-104.805484"},{"country":"MX","name":"Jes\u00fas Mar\u00eda","lat":"25.091261","lng":"-100.755055"},{"country":"MX","name":"Olmos","lat":"25.958298","lng":"-97.726567"},{"country":"MX","name":"Jes\u00fas Mar\u00eda","lat":"21.722852","lng":"-104.882956"},{"country":"MX","name":"Pimas","lat":"28.714537","lng":"-110.347437"},{"country":"MX","name":"Nuestra Se\u00f1ora","lat":"24.364043","lng":"-104.244405"},{"country":"MX","name":"Ferrer\u00eda","lat":"23.960194","lng":"-104.661224"},{"country":"MX","name":"Turuachic","lat":"26.134884","lng":"-106.710368"},{"country":"MX","name":"Tahonas","lat":"26.034494","lng":"-106.98797"},{"country":"MX","name":"Penjamillo","lat":"20.107366","lng":"-101.93333"},{"country":"MX","name":"Cadej\u00e9","lat":"26.377882","lng":"-112.511881"},{"country":"MX","name":"Agua Zarca","lat":"23.162354","lng":"-103.143499"},{"country":"MX","name":"Xiloxochitla","lat":"19.265838","lng":"-98.211484"},{"country":"MX","name":"Tetla","lat":"19.427219","lng":"-98.086949"},{"country":"MX","name":"Vanegas","lat":"23.869149","lng":"-100.892614"},{"country":"MX","name":"Vistahermosa","lat":"20.272864","lng":"-102.475003"},{"country":"MX","name":"Ario","lat":"20.026179","lng":"-102.347579"},{"country":"MX","name":"Teul","lat":"21.463399","lng":"-103.46131"},{"country":"MX","name":"Tanhuato","lat":"20.285828","lng":"-102.32974"},{"country":"MX","name":"Angamacutiro","lat":"20.149019","lng":"-101.711261"},{"country":"MX","name":"San Crist\u00f3bal","lat":"21.044594","lng":"-103.428188"},{"country":"MX","name":"Zapotitl\u00e1n","lat":"18.328762","lng":"-97.473608"},{"country":"MX","name":"Zacatepec","lat":"18.276214","lng":"-96.859241"},{"country":"MX","name":"Yodocono","lat":"17.385294","lng":"-97.355567"},{"country":"MX","name":"Santa Fe","lat":"20.202657","lng":"-101.828363"},{"country":"MX","name":"Cuer\u00e1mbaro","lat":"20.845078","lng":"-103.662519"},{"country":"MX","name":"Moras","lat":"20.326667","lng":"-102.592749"},{"country":"MX","name":"Casas Ca\u00eddas","lat":"20.421436","lng":"-102.441265"},{"country":"MX","name":"Tlacotepec","lat":"18.404735","lng":"-96.850227"},{"country":"MX","name":"Norma","lat":"23.84496","lng":"-101.960777"},{"country":"MX","name":"San Juan","lat":"18.065183","lng":"-95.149912"},{"country":"MX","name":"Santa Rosa","lat":"22.028434","lng":"-102.569971"},{"country":"MX","name":"San Rafael","lat":"22.10892","lng":"-102.010553"},{"country":"MX","name":"San Jos\u00e9","lat":"23.518486","lng":"-102.085021"},{"country":"MX","name":"Tonatico","lat":"18.805617","lng":"-99.669949"},{"country":"MX","name":"San Felipe","lat":"27.339841","lng":"-106.017046"},{"country":"MX","name":"Potrero","lat":"27.020113","lng":"-105.749094"},{"country":"MX","name":"San Antonio","lat":"27.035332","lng":"-105.946031"},{"country":"MX","name":"Santa Ana","lat":"18.570675","lng":"-100.219668"},{"country":"MX","name":"San Sim\u00f3n","lat":"19.022933","lng":"-100.006549"},{"country":"MX","name":"San Rafael","lat":"18.537284","lng":"-101.388381"},{"country":"MX","name":"Papasquiaro","lat":"24.830256","lng":"-105.337301"},{"country":"MX","name":"San Mateo","lat":"18.962283","lng":"-99.683122"},{"country":"MX","name":"Estanco","lat":"18.900051","lng":"-100.254708"},{"country":"MX","name":"Coatepec","lat":"18.926349","lng":"-99.768246"},{"country":"MX","name":"Tejupilco","lat":"18.904666","lng":"-100.153009"},{"country":"MX","name":"Tlachichilco","lat":"17.622589","lng":"-98.343055"},{"country":"MX","name":"Tepetlapa","lat":"17.666638","lng":"-98.39192"},{"country":"MX","name":"Medell\u00edn","lat":"19.058685","lng":"-96.157806"},{"country":"MX","name":"Cuevecillas","lat":"27.004413","lng":"-105.674254"},{"country":"MX","name":"Tulcingo","lat":"18.045816","lng":"-98.441107"},{"country":"MX","name":"Chilapa","lat":"17.594586","lng":"-99.176389"},{"country":"MX","name":"Chila","lat":"18.109751","lng":"-98.48574"},{"country":"MX","name":"Chiautla","lat":"18.30076","lng":"-98.602699"},{"country":"MX","name":"Sultepec","lat":"18.858469","lng":"-99.966128"},{"country":"MX","name":"Santo Tom\u00e1s","lat":"18.83531","lng":"-100.010106"},{"country":"MX","name":"Texcaltitl\u00e1n","lat":"18.930399","lng":"-99.93956"},{"country":"MX","name":"Tlapa","lat":"17.540418","lng":"-98.579516"},{"country":"MX","name":"Buenavista","lat":"18.460343","lng":"-98.637612"},{"country":"MX","name":"San Miguel","lat":"21.170083","lng":"-104.950709"},{"country":"MX","name":"Las Varillas","lat":"14.81876","lng":"-92.407988"},{"country":"MX","name":"Cohetzala","lat":"18.205806","lng":"-98.804726"},{"country":"MX","name":"Veracruz","lat":"19.180739","lng":"-96.13405"},{"country":"MX","name":"Achotal","lat":"17.736094","lng":"-95.133722"},{"country":"MX","name":"Torre\u00f3n","lat":"27.130486","lng":"-105.787075"},{"country":"MX","name":"Hueyapan","lat":"18.150488","lng":"-95.143752"},{"country":"MX","name":"San Jos\u00e9","lat":"26.911068","lng":"-105.861356"},{"country":"MX","name":"Loma Larga","lat":"18.231247","lng":"-95.087479"},{"country":"MX","name":"Bodegas","lat":"18.352308","lng":"-95.497946"},{"country":"MX","name":"Caborca","lat":"30.720427","lng":"-112.158469"},{"country":"MX","name":"Chihuahue\u00f1o","lat":"30.516667","lng":"-106.65"},{"country":"MX","name":"Navidad","lat":"19.208311","lng":"-104.681537"},{"country":"MX","name":"Zacatepec","lat":"17.824056","lng":"-98.07221"},{"country":"MX","name":"Autl\u00e1n","lat":"19.772494","lng":"-104.365306"},{"country":"MX","name":"Punta de Agua","lat":"27.266028","lng":"-105.208245"},{"country":"MX","name":"Pueblito","lat":"26.989187","lng":"-105.327612"},{"country":"MX","name":"Constituci\u00f3n","lat":"25.033711","lng":"-111.659911"},{"country":"MX","name":"Buena Vista","lat":"25.623449","lng":"-112.060878"},{"country":"MX","name":"Zapotitl\u00e1n","lat":"19.548514","lng":"-103.812169"},{"country":"MX","name":"Laja","lat":"17.739303","lng":"-93.979115"},{"country":"MX","name":"San Agust\u00edn","lat":"26.378094","lng":"-104.303821"},{"country":"MX","name":"Cuevecillas","lat":"27.004372","lng":"-105.674029"},{"country":"MX","name":"Camargo","lat":"27.678417","lng":"-105.171362"},{"country":"MX","name":"Ci\u00e9naga","lat":"26.809972","lng":"-105.429886"},{"country":"MX","name":"La Cofrad\u00eda","lat":"18.818812","lng":"-103.123407"},{"country":"MX","name":"La Ci\u00e9naga","lat":"18.4777","lng":"-103.311553"},{"country":"MX","name":"Mezcalera","lat":"27.257169","lng":"-107.891455"},{"country":"MX","name":"Barranca Seca","lat":"18.533934","lng":"-102.963073"},{"country":"MX","name":"San Antonio","lat":"16.382609","lng":"-92.689899"},{"country":"MX","name":"Cofrad\u00eda","lat":"18.554331","lng":"-103.423065"},{"country":"MX","name":"El Naranjo","lat":"27.271086","lng":"-107.921006"},{"country":"MX","name":"Las Cruces","lat":"16.40645","lng":"-93.185115"},{"country":"MX","name":"Colonia","lat":"26.080785","lng":"-103.535326"},{"country":"MX","name":"Chiapa","lat":"16.713754","lng":"-92.988035"},{"country":"MX","name":"Amatenango","lat":"16.527105","lng":"-92.435012"},{"country":"MX","name":"El Agua","lat":"19.133443","lng":"-103.637374"},{"country":"MX","name":"Zaragoza","lat":"26.107938","lng":"-103.441632"},{"country":"MX","name":"San Juan","lat":"26.033677","lng":"-103.673694"},{"country":"MX","name":"Horizonte","lat":"25.937223","lng":"-103.417033"},{"country":"MX","name":"Santa Ana","lat":"26.974201","lng":"-105.311959"},{"country":"MX","name":"Gomera","lat":"27.011009","lng":"-105.572641"},{"country":"MX","name":"Chi","lat":"21.031882","lng":"-89.481279"},{"country":"MX","name":"San Francisco","lat":"31.236716","lng":"-108.650717"},{"country":"MX","name":"Santa Fe","lat":"20.525986","lng":"-103.084483"},{"country":"MX","name":"Bacalar","lat":"20.827992","lng":"-89.350606"},{"country":"MX","name":"Valencia","lat":"20.601134","lng":"-101.081909"},{"country":"MX","name":"Xoconoxtle","lat":"20.939146","lng":"-100.980752"},{"country":"MX","name":"Temascat\u00edo","lat":"20.695321","lng":"-101.26475"},{"country":"MX","name":"San Isidro","lat":"20.541626","lng":"-101.058798"},{"country":"MX","name":"Tzon","lat":"20.983527","lng":"-89.145181"},{"country":"MX","name":"Sodzil","lat":"20.538995","lng":"-89.605442"},{"country":"MX","name":"Motul","lat":"21.095709","lng":"-89.283315"},{"country":"MX","name":"San Luis","lat":"32.456122","lng":"-114.771861"},{"country":"MX","name":"Telchac","lat":"21.342872","lng":"-89.262955"},{"country":"MX","name":"Sotuta","lat":"20.741859","lng":"-89.577375"},{"country":"MX","name":"Susupuato","lat":"19.215419","lng":"-100.408307"},{"country":"MX","name":"Las Juntas","lat":"18.032867","lng":"-101.749014"},{"country":"MX","name":"El Rinc\u00f3n","lat":"18.033333","lng":"-101.849999"},{"country":"MX","name":"Molino","lat":"20.551886","lng":"-100.712681"},{"country":"MX","name":"Los L\u00f3pez","lat":"21.055857","lng":"-101.091975"},{"country":"MX","name":"Zit\u00e1cuaro","lat":"19.436606","lng":"-100.35691"},{"country":"MX","name":"Octopan","lat":"20.574279","lng":"-100.747847"},{"country":"MX","name":"San Javier","lat":"30.220584","lng":"-110.724915"},{"country":"MX","name":"Acuitzio","lat":"19.494725","lng":"-101.333314"},{"country":"MX","name":"San Andr\u00e9s","lat":"20.801704","lng":"-99.000955"},{"country":"MX","name":"Jes\u00fas Mar\u00eda","lat":"23.917485","lng":"-100.028692"},{"country":"MX","name":"Tac\u00e1mbaro","lat":"19.235136","lng":"-101.458168"},{"country":"MX","name":"Santa Rita","lat":"18.525238","lng":"-101.16052"},{"country":"MX","name":"Santa Fe","lat":"19.672515","lng":"-101.554157"},{"country":"MX","name":"Rancho Viejo","lat":"18.594711","lng":"-101.128013"},{"country":"MX","name":"Camargo","lat":"26.315983","lng":"-98.831651"},{"country":"MX","name":"Garc\u00eda","lat":"25.811473","lng":"-100.594102"},{"country":"MX","name":"Tepehuac\u00e1n","lat":"21.014287","lng":"-98.841991"},{"country":"MX","name":"San Juan","lat":"25.76995","lng":"-101.146718"},{"country":"MX","name":"San Jos\u00e9","lat":"25.788604","lng":"-100.4741"},{"country":"MX","name":"Santa Rita","lat":"25.738936","lng":"-101.134268"},{"country":"MX","name":"San Jos\u00e9","lat":"24.779888","lng":"-100.936935"},{"country":"MX","name":"San Antonio","lat":"24.870621","lng":"-100.995586"},{"country":"MX","name":"Acatita","lat":"25.701611","lng":"-101.146049"},{"country":"MX","name":"Santa Clara","lat":"24.657857","lng":"-100.038415"},{"country":"MX","name":"San Rafael","lat":"23.860244","lng":"-100.650974"},{"country":"MX","name":"San Pedro","lat":"24.149855","lng":"-100.782797"},{"country":"MX","name":"Armenta","lat":"16.333338","lng":"-98.376583"},{"country":"MX","name":"Tapextla","lat":"16.340481","lng":"-98.447136"},{"country":"MX","name":"Pinotepa Nacional","lat":"16.338467","lng":"-98.055316"},{"country":"MX","name":"Jamiltepec","lat":"16.283738","lng":"-97.823869"},{"country":"MX","name":"Zacatepec","lat":"16.763443","lng":"-97.990794"},{"country":"MX","name":"Ipalapa","lat":"16.638412","lng":"-98.031502"},{"country":"MX","name":"Huazolotitlan","lat":"16.304081","lng":"-97.913509"},{"country":"MX","name":"Cortijos","lat":"16.443609","lng":"-98.233208"},{"country":"MX","name":"Mechoac\u00e1n","lat":"16.337124","lng":"-97.836928"},{"country":"MX","name":"Nopalera","lat":"16.943553","lng":"-97.778446"},{"country":"MX","name":"Ixcapa","lat":"16.544082","lng":"-98.144915"},{"country":"MX","name":"Yosotatu","lat":"16.992874","lng":"-97.776194"},{"country":"MX","name":"Jicay\u00e1n","lat":"16.451812","lng":"-98.013666"},{"country":"MX","name":"Tlacamama","lat":"16.415222","lng":"-98.063983"},{"country":"MX","name":"Tetepelcingo","lat":"16.397659","lng":"-97.901668"},{"country":"MX","name":"Reyes","lat":"16.920841","lng":"-97.894143"},{"country":"MX","name":"Acatl\u00e1n","lat":"16.809217","lng":"-98.733584"},{"country":"MX","name":"Cacahuatepec","lat":"16.613763","lng":"-98.155553"},{"country":"MX","name":"Estancia Grande","lat":"16.364813","lng":"-98.250795"},{"country":"MX","name":"Sayultepec","lat":"16.595332","lng":"-98.130044"},{"country":"MX","name":"Ocotl\u00e1n","lat":"16.648263","lng":"-98.166413"},{"country":"MX","name":"Huaxpaltepec","lat":"16.32968","lng":"-97.916717"},{"country":"MX","name":"La Concepci\u00f3n","lat":"16.660071","lng":"-98.258883"},{"country":"MX","name":"Naucalpan","lat":"19.468988","lng":"-99.247578"},{"country":"MX","name":"Zaragoza","lat":"19.147373","lng":"-99.644121"},{"country":"MX","name":"Cuauht\u00e9moc","lat":"19.416521","lng":"-99.55876"},{"country":"MX","name":"Boquilla","lat":"16.14044","lng":"-97.753114"},{"country":"MX","name":"Tenango","lat":"19.106409","lng":"-99.590676"},{"country":"MX","name":"Techuchulco","lat":"19.11302","lng":"-99.524623"},{"country":"MX","name":"Atarasquillo","lat":"19.328551","lng":"-99.468094"},{"country":"MX","name":"Tlapaltitl\u00e1n","lat":"19.280818","lng":"-99.618108"},{"country":"MX","name":"Autopan","lat":"19.354598","lng":"-99.656945"},{"country":"MX","name":"Coatepec","lat":"19.137956","lng":"-99.429978"},{"country":"MX","name":"Mimiapan","lat":"19.448131","lng":"-99.462817"},{"country":"MX","name":"Balderas","lat":"19.109064","lng":"-99.652266"},{"country":"MX","name":"Ajusco","lat":"19.224359","lng":"-99.201878"},{"country":"MX","name":"Atenco","lat":"19.269193","lng":"-99.532012"},{"country":"MX","name":"Ayuc\u00e1n","lat":"19.496624","lng":"-99.361446"},{"country":"MX","name":"Tezonco","lat":"19.305522","lng":"-99.076326"},{"country":"MX","name":"Tepaltitl\u00e1n","lat":"19.322204","lng":"-99.602451"},{"country":"MX","name":"Oyamel","lat":"19.431853","lng":"-99.576452"},{"country":"MX","name":"Cuauhtenco","lat":"19.195526","lng":"-99.631931"},{"country":"MX","name":"Ixtayopan","lat":"19.243467","lng":"-98.997359"},{"country":"MX","name":"Chicahualco","lat":"19.282795","lng":"-99.592863"},{"country":"MX","name":"Atlapulco","lat":"19.255983","lng":"-99.059625"},{"country":"MX","name":"San Francisco","lat":"19.332509","lng":"-99.10126"},{"country":"MX","name":"San Diego","lat":"19.379428","lng":"-99.648569"},{"country":"MX","name":"Amayalco","lat":"19.33115","lng":"-99.26983"},{"country":"MX","name":"Chichicaspa","lat":"19.419091","lng":"-99.330076"},{"country":"MX","name":"Toro","lat":"19.095831","lng":"-99.237273"},{"country":"MX","name":"Lerma","lat":"19.289858","lng":"-99.512357"},{"country":"MX","name":"Almoloya","lat":"19.159806","lng":"-99.487276"},{"country":"MX","name":"Nezahualc\u00f3yotl","lat":"19.400608","lng":"-99.014827"},{"country":"MX","name":"Calimaya","lat":"19.162188","lng":"-99.618327"},{"country":"MX","name":"Zacapexco","lat":"19.721965","lng":"-99.476293"},{"country":"MX","name":"Zumpango","lat":"19.796705","lng":"-99.099464"},{"country":"MX","name":"Joquicingo","lat":"19.049548","lng":"-99.534118"},{"country":"MX","name":"Santa Rosa","lat":"20.436664","lng":"-99.898602"},{"country":"MX","name":"San Sebasti\u00e1n","lat":"20.279883","lng":"-99.688795"},{"country":"MX","name":"San Sebasti\u00e1n","lat":"20.26541","lng":"-99.933602"},{"country":"MX","name":"Tlaxcaltepec","lat":"20.122569","lng":"-100.125611"},{"country":"MX","name":"Dandh\u00f3","lat":"20.407515","lng":"-99.706639"},{"country":"MX","name":"Aculco","lat":"20.083233","lng":"-99.861805"},{"country":"MX","name":"San Bartolom\u00e9","lat":"20.180841","lng":"-100.073578"},{"country":"MX","name":"Puerta","lat":"20.312963","lng":"-99.916681"},{"country":"MX","name":"Potrero","lat":"20.257197","lng":"-99.730047"},{"country":"MX","name":"Polotitl\u00e1n","lat":"20.225915","lng":"-99.815562"},{"country":"MX","name":"Tequisquiapan","lat":"20.524756","lng":"-99.88962"},{"country":"MX","name":"La Venta","lat":"20.370229","lng":"-100.025948"},{"country":"MX","name":"Laguna","lat":"20.478977","lng":"-100.048256"},{"country":"MX","name":"Guadalupe","lat":"20.348995","lng":"-99.938282"},{"country":"MX","name":"Aculco","lat":"20.098382","lng":"-99.828331"},{"country":"MX","name":"San Mart\u00edn","lat":"21.371243","lng":"-98.657677"},{"country":"MX","name":"Ahuacatl\u00e1n","lat":"20.441561","lng":"-99.98666"},{"country":"MX","name":"Yonth\u00e9","lat":"20.473097","lng":"-99.367521"},{"country":"MX","name":"Acateno","lat":"20.130925","lng":"-97.210614"},{"country":"MX","name":"Tezontepec","lat":"20.191875","lng":"-99.272038"},{"country":"MX","name":"Santiago","lat":"20.11505","lng":"-99.547164"},{"country":"MX","name":"M\u00e1cua","lat":"20.136745","lng":"-99.475237"},{"country":"MX","name":"Santa Mar\u00eda","lat":"20.369811","lng":"-99.387908"},{"country":"MX","name":"Daxth\u00f3","lat":"20.244971","lng":"-99.418073"},{"country":"MX","name":"Santa Ana","lat":"20.122865","lng":"-99.346037"},{"country":"MX","name":"Nextlalpan","lat":"20.15151","lng":"-99.387927"},{"country":"MX","name":"San Pedro","lat":"20.329841","lng":"-99.429634"},{"country":"MX","name":"San Pablo","lat":"20.339684","lng":"-99.377041"},{"country":"MX","name":"San Juan","lat":"20.329115","lng":"-99.374242"},{"country":"MX","name":"Atl\u00e1n","lat":"20.336614","lng":"-99.6748"},{"country":"MX","name":"San Francisco","lat":"20.48753","lng":"-99.408484"},{"country":"MX","name":"Bojay","lat":"20.095407","lng":"-99.347084"},{"country":"MX","name":"Tezoquipan","lat":"20.474164","lng":"-99.468518"},{"country":"MX","name":"San Antonio","lat":"20.407148","lng":"-99.369827"},{"country":"MX","name":"Progreso","lat":"20.248747","lng":"-99.18894"},{"country":"MX","name":"Huitexcalco","lat":"20.266204","lng":"-99.280621"},{"country":"MX","name":"Huejutla","lat":"21.142256","lng":"-98.419103"},{"country":"MX","name":"Tempoal","lat":"21.519984","lng":"-98.388292"},{"country":"MX","name":"San Vicente","lat":"21.718857","lng":"-98.587695"},{"country":"MX","name":"Empalme","lat":"27.963395","lng":"-110.809114"},{"country":"MX","name":"\u00cddolo","lat":"21.450271","lng":"-97.413312"},{"country":"MX","name":"San Pedro","lat":"29.286844","lng":"-109.736959"},{"country":"MX","name":"Morelos","lat":"28.295503","lng":"-114.034246"},{"country":"MX","name":"Petlacotla","lat":"20.41186","lng":"-97.914431"},{"country":"MX","name":"Tablas","lat":"24.85","lng":"-107.216667"},{"country":"MX","name":"Tepango","lat":"18.833333","lng":"-98.683333"},{"country":"MX","name":"Aquespala","lat":"15.816667","lng":"-91.933333"},{"country":"MX","name":"Tapias","lat":"23.466667","lng":"-102.583333"},{"country":"MX","name":"Tepexpan","lat":"19.568056","lng":"-99.704167"},{"country":"MX","name":"San Ignacio","lat":"23.75","lng":"-100.483333"},{"country":"MX","name":"Santa Mar\u00eda","lat":"19.933333","lng":"-105.316667"},{"country":"MX","name":"Zoochixtepec","lat":"17.216667","lng":"-96.2"},{"country":"MX","name":"Zoapila","lat":"19.366667","lng":"-97.766667"},{"country":"MX","name":"Santa Mar\u00eda","lat":"25.9","lng":"-105.183333"},{"country":"MX","name":"Zacatenco","lat":"19.5","lng":"-99.116667"},{"country":"MX","name":"Xucu\u00f1uti","lat":"17.733333","lng":"-97.85"},{"country":"MX","name":"Tonantzintla","lat":"19.033333","lng":"-98.3"},{"country":"MX","name":"Trinidad","lat":"21.966667","lng":"-101.316667"},{"country":"MX","name":"Acatl\u00e1n","lat":"18.983333","lng":"-97.916667"},{"country":"MX","name":"Atzitzihuac\u00e1n","lat":"18.8","lng":"-98.6"},{"country":"MX","name":"Chilapa de D\u00edaz","lat":"17.516667","lng":"-97.683333"},{"country":"MX","name":"Yerbabuena","lat":"22.766667","lng":"-99.55"},{"country":"MX","name":"Texmelucan","lat":"19.35","lng":"-97.533333"},{"country":"MX","name":"Santa Catarina","lat":"20.933333","lng":"-101.3"},{"country":"MX","name":"San Pedro","lat":"27.083333","lng":"-103.7"},{"country":"MX","name":"San Pedro","lat":"20.533333","lng":"-105.116667"},{"country":"MX","name":"Yetla","lat":"17.75","lng":"-96.4"},{"country":"MX","name":"Sochiapan","lat":"17.866667","lng":"-97.716667"},{"country":"MX","name":"San Pedro","lat":"22.283333","lng":"-101.05"},{"country":"MX","name":"San Nicol\u00e1s","lat":"20.083333","lng":"-98.4"},{"country":"MX","name":"Zacatempa","lat":"18.866667","lng":"-98.616667"},{"country":"MX","name":"Otzoloapan","lat":"19","lng":"-100.266667"},{"country":"MX","name":"Santo Domingo","lat":"18.533333","lng":"-96.75"},{"country":"MX","name":"Santo Domingo","lat":"18.9","lng":"-98.366667"},{"country":"MX","name":"Terrero","lat":"26.183333","lng":"-105.733333"},{"country":"MX","name":"Xicotzingo","lat":"18.75","lng":"-98.616667"},{"country":"MX","name":"Tonalixco","lat":"19.983333","lng":"-97.833333"},{"country":"MX","name":"San Miguel","lat":"19.366667","lng":"-98.116667"},{"country":"MX","name":"Cajonos","lat":"17.166667","lng":"-96.3"},{"country":"MX","name":"Amatl\u00e1n","lat":"16.4","lng":"-96.5"},{"country":"MX","name":"Itundujia","lat":"16.866667","lng":"-97.65"},{"country":"MX","name":"San Rafael","lat":"18.166667","lng":"-101.766667"},{"country":"MX","name":"Franco","lat":"19.35","lng":"-97.8"},{"country":"MX","name":"San Diego","lat":"24","lng":"-103.966667"},{"country":"MX","name":"Puerto","lat":"22.016667","lng":"-100.066667"},{"country":"MX","name":"Potrero","lat":"28.566667","lng":"-109.716667"},{"country":"MX","name":"Potrero","lat":"18.433333","lng":"-100.916667"},{"country":"MX","name":"Tind\u00fa","lat":"17.583333","lng":"-97.85"},{"country":"MX","name":"Tanque","lat":"27.933333","lng":"-102.216667"},{"country":"MX","name":"Tezonteopan","lat":"18.75","lng":"-98.5"},{"country":"MX","name":"San Pedro","lat":"18","lng":"-97.6"},{"country":"MX","name":"Petapa","lat":"16.683333","lng":"-93.483333"},{"country":"MX","name":"Oxtotipan","lat":"18.95","lng":"-97.85"},{"country":"MX","name":"Sauceda","lat":"22.05","lng":"-100.75"},{"country":"MX","name":"Huixtepec","lat":"17.616667","lng":"-97.95"},{"country":"MX","name":"Santa Mar\u00eda","lat":"19.316667","lng":"-100.35"},{"country":"MX","name":"Malacatepec","lat":"16.983333","lng":"-95.633333"},{"country":"MX","name":"Ajoloapan","lat":"19.978611","lng":"-99.047222"},{"country":"MX","name":"El Jobo","lat":"18.033333","lng":"-92.75"},{"country":"MX","name":"Santa Catarina","lat":"19.216667","lng":"-97.433333"},{"country":"MX","name":"Izhuatepec","lat":"18.783333","lng":"-98.616667"},{"country":"MX","name":"San Pedro","lat":"26.4","lng":"-99.016667"},{"country":"MX","name":"Tetitl\u00e1n","lat":"18.233333","lng":"-97.333333"},{"country":"MX","name":"San Vicente","lat":"23.8","lng":"-100.133333"},{"country":"MX","name":"Rancho","lat":"23.7","lng":"-105.816667"},{"country":"MX","name":"Nacimiento","lat":"28.1","lng":"-101.85"},{"country":"MX","name":"Michapa","lat":"17.533333","lng":"-98"},{"country":"MX","name":"Loberos","lat":"23.5","lng":"-103.65"},{"country":"MX","name":"San Francisco","lat":"22.933333","lng":"-100.983333"},{"country":"MX","name":"Zabache","lat":"16.833333","lng":"-96.733333"},{"country":"MX","name":"Tepetitl\u00e1n","lat":"18.866667","lng":"-99.866667"},{"country":"MX","name":"Lagunas","lat":"17","lng":"-97.95"},{"country":"MX","name":"Los Carros","lat":"18.816667","lng":"-96.35"},{"country":"MX","name":"Tepeolulco","lat":"19.95","lng":"-100.016667"},{"country":"MX","name":"Ocotal","lat":"16.116667","lng":"-93.816667"},{"country":"MX","name":"Xtuc","lat":"20.4","lng":"-89.516667"},{"country":"MX","name":"San Ignacio","lat":"24.066667","lng":"-99.966667"},{"country":"MX","name":"San Juan","lat":"22.683333","lng":"-105.1"},{"country":"MX","name":"Poza Rica","lat":"21.266667","lng":"-98.3"},{"country":"MX","name":"Zacatl\u00e1n","lat":"18.4","lng":"-99.983333"},{"country":"MX","name":"Ojo de Agua","lat":"30.016667","lng":"-109.783333"},{"country":"MX","name":"Tetuache","lat":"30.216667","lng":"-110.333333"},{"country":"MX","name":"San Agust\u00edn","lat":"20.483333","lng":"-99.433333"},{"country":"MX","name":"San Francisco","lat":"15.716667","lng":"-96.583333"},{"country":"MX","name":"San C\u00e1ndido","lat":"18.1","lng":"-93.35"},{"country":"MX","name":"Tetla","lat":"20.983333","lng":"-99.466667"},{"country":"MX","name":"Tejalucan","lat":"18.9","lng":"-98.4"},{"country":"MX","name":"Portezuelo","lat":"18.916667","lng":"-98.35"},{"country":"MX","name":"Estancia","lat":"17.966667","lng":"-97.966667"},{"country":"MX","name":"Regad\u00edo","lat":"16.516667","lng":"-94.3"},{"country":"MX","name":"Palma Real","lat":"20.816667","lng":"-97.766667"},{"country":"MX","name":"Palmas","lat":"22.2","lng":"-99.666667"},{"country":"MX","name":"Tenextepec","lat":"18.866667","lng":"-98.383333"},{"country":"MX","name":"Coatepec","lat":"18.833333","lng":"-98.416667"},{"country":"MX","name":"Xiol","lat":"20.916667","lng":"-89.5"},{"country":"MX","name":"Tlacolula","lat":"17.783333","lng":"-96.8"},{"country":"MX","name":"Sacnict\u00e9","lat":"20.9","lng":"-89.816667"},{"country":"MX","name":"Rocheachic","lat":"28.633333","lng":"-107.883333"},{"country":"MX","name":"Santa Gertrudis","lat":"24.033333","lng":"-99.166667"},{"country":"MX","name":"San Juan","lat":"23.35","lng":"-103.266667"},{"country":"MX","name":"San Juan","lat":"20.866667","lng":"-105.15"},{"country":"MX","name":"Perdido","lat":"23.9","lng":"-101.216667"},{"country":"MX","name":"Minas","lat":"22.716667","lng":"-100.566667"},{"country":"MX","name":"Moreno","lat":"31.116667","lng":"-111.8"},{"country":"MX","name":"Tinaja","lat":"30.883333","lng":"-111.633333"},{"country":"MX","name":"Milpillas","lat":"28.1","lng":"-106.9"},{"country":"MX","name":"San Francisco","lat":"25.05","lng":"-100.6"},{"country":"MX","name":"San Francisco","lat":"25.066667","lng":"-99.166667"},{"country":"MX","name":"San Francisco","lat":"27.5","lng":"-105.816667"},{"country":"MX","name":"Almecatla","lat":"19.133333","lng":"-98.233333"},{"country":"MX","name":"Pie de la Cuesta","lat":"28.05","lng":"-108.183333"},{"country":"MX","name":"Palo Alto","lat":"21.2","lng":"-102.4"},{"country":"MX","name":"Viejo","lat":"29.133333","lng":"-110.4"},{"country":"MX","name":"Chayuco","lat":"17.25","lng":"-98.016667"},{"country":"MX","name":"Panales","lat":"21.766667","lng":"-100.633333"},{"country":"MX","name":"San Felipe","lat":"20.75","lng":"-104.216667"},{"country":"MX","name":"Santa Rosa","lat":"26.516667","lng":"-107.883333"},{"country":"MX","name":"Zautla","lat":"17.916667","lng":"-96.616667"},{"country":"MX","name":"Zapotitl\u00e1n","lat":"17.983333","lng":"-96.583333"},{"country":"MX","name":"San Jos\u00e9","lat":"20.133333","lng":"-89.4"},{"country":"MX","name":"Morelos","lat":"19.683333","lng":"-99.666667"},{"country":"MX","name":"Pascala","lat":"16.983333","lng":"-98.916667"},{"country":"MX","name":"Boquiapan","lat":"17.9","lng":"-94.7"},{"country":"MX","name":"Troje","lat":"23.716667","lng":"-100.666667"},{"country":"MX","name":"San Jos\u00e9","lat":"18.233333","lng":"-101.683333"},{"country":"MX","name":"San Baltasar","lat":"18.966667","lng":"-98.466667"},{"country":"MX","name":"San Bartolo","lat":"19.5","lng":"-99.15"},{"country":"MX","name":"La Muralla","lat":"28.066667","lng":"-106.166667"},{"country":"MX","name":"Mesa","lat":"20.666667","lng":"-102.683333"},{"country":"MX","name":"Laborcita","lat":"26.85","lng":"-105.7"},{"country":"MX","name":"La Palma","lat":"21.383333","lng":"-101.75"},{"country":"MX","name":"Maxtleca","lat":"19.066667","lng":"-99.533333"},{"country":"MX","name":"Mamey","lat":"21.116667","lng":"-105.133333"},{"country":"MX","name":"Moreno","lat":"18.583333","lng":"-96.233333"},{"country":"MX","name":"Mirador","lat":"19.066667","lng":"-96.466667"},{"country":"MX","name":"Los Llanos","lat":"28.183333","lng":"-101.016667"},{"country":"MX","name":"San Antonio","lat":"24.8","lng":"-100.066667"},{"country":"MX","name":"Codorniz","lat":"22.016667","lng":"-102.666667"},{"country":"MX","name":"Mezquital","lat":"21.166667","lng":"-103.383333"},{"country":"MX","name":"San Antonio","lat":"20.25","lng":"-98.383333"},{"country":"MX","name":"San Antonio","lat":"19.083333","lng":"-102.483333"},{"country":"MX","name":"San Antonio","lat":"24.483333","lng":"-99.583333"},{"country":"MX","name":"San Antonio","lat":"23.183333","lng":"-103.216667"},{"country":"MX","name":"La Varita","lat":"27.533333","lng":"-106.116667"},{"country":"MX","name":"Giropa","lat":"28.95","lng":"-109.466667"},{"country":"MX","name":"Mesita","lat":"28.883333","lng":"-108.633333"},{"country":"MX","name":"San Miguel","lat":"22.65","lng":"-103.45"},{"country":"MX","name":"Moyotepec","lat":"17.066667","lng":"-98.666667"},{"country":"MX","name":"La Ceja","lat":"24.283333","lng":"-98.433333"},{"country":"MX","name":"Novillo","lat":"19.083333","lng":"-96.4"},{"country":"MX","name":"La Gloria","lat":"27.133333","lng":"-104.883333"},{"country":"MX","name":"Ferrer\u00eda","lat":"20.15","lng":"-103.75"},{"country":"MX","name":"La Cofrad\u00eda","lat":"18.516667","lng":"-103.333333"},{"country":"MX","name":"San Jos\u00e9","lat":"16.4","lng":"-93.5"},{"country":"MX","name":"Metzquititla","lat":"20.7","lng":"-98.933333"},{"country":"MX","name":"Los \u00c1lamos","lat":"28.666667","lng":"-103.5"},{"country":"MX","name":"San Antonio","lat":"20.316667","lng":"-101.466667"},{"country":"MX","name":"San Isidro","lat":"24.533333","lng":"-100.6"},{"country":"MX","name":"San Isidro","lat":"26.05","lng":"-97.983333"},{"country":"MX","name":"Sotol","lat":"24","lng":"-100.633333"},{"country":"MX","name":"San Antonio","lat":"24.366667","lng":"-99.566667"},{"country":"MX","name":"Granaditas","lat":"26.933333","lng":"-105.866667"},{"country":"MX","name":"Agua Caliente","lat":"28.016667","lng":"-108.75"},{"country":"MX","name":"Boquilla","lat":"26.116667","lng":"-105.183333"},{"country":"MX","name":"Esquipulas","lat":"17.683333","lng":"-93.3"},{"country":"MX","name":"Guadalupe","lat":"23.666667","lng":"-100.2"},{"country":"MX","name":"Ixcateopan","lat":"18.516667","lng":"-99.833333"},{"country":"MX","name":"Carrizalejo","lat":"25.166667","lng":"-99.733333"},{"country":"MX","name":"Mezquite","lat":"25.683333","lng":"-99.45"},{"country":"MX","name":"Buenavista","lat":"23.133333","lng":"-102.833333"},{"country":"MX","name":"Buenavista","lat":"21.716667","lng":"-102.3"},{"country":"MX","name":"Chijolar","lat":"21.883333","lng":"-98.05"},{"country":"MX","name":"El Coyote","lat":"24.9","lng":"-99.783333"},{"country":"MX","name":"Barberena","lat":"22.583333","lng":"-97.9"},{"country":"MX","name":"Jojutla","lat":"18.616667","lng":"-99.183333"},{"country":"MX","name":"Jilotzingo","lat":"19.87","lng":"-99.057778"},{"country":"MX","name":"Jilotepec","lat":"19.952778","lng":"-99.534722"},{"country":"MX","name":"Ixtlahuaca","lat":"19.568056","lng":"-99.7675"},{"country":"MX","name":"El Ebanito","lat":"25.95","lng":"-99.366667"},{"country":"MX","name":"Guadalupe","lat":"26.916667","lng":"-105.433333"},{"country":"MX","name":"Concepci\u00f3n","lat":"25.283333","lng":"-100.8"},{"country":"MX","name":"Capulac","lat":"19.1","lng":"-98.05"},{"country":"MX","name":"Guadalupe","lat":"28.85","lng":"-108.633333"},{"country":"MX","name":"El Refugio","lat":"20.466667","lng":"-105.366667"},{"country":"MX","name":"Esperanza","lat":"24.666667","lng":"-98.583333"},{"country":"MX","name":"Vidrio","lat":"18.266667","lng":"-95.2"},{"country":"MX","name":"Magdalena","lat":"27.066667","lng":"-112.15"},{"country":"MX","name":"Guacayvo","lat":"27.466667","lng":"-107.583333"},{"country":"MX","name":"Huixquilucan","lat":"19.383333","lng":"-99.45"},{"country":"MX","name":"Aquiahuac","lat":"19.25","lng":"-98.266667"},{"country":"MX","name":"Chuburn\u00e1","lat":"21.016667","lng":"-89.633333"},{"country":"MX","name":"Cieneguita","lat":"25.35","lng":"-100.133333"},{"country":"MX","name":"Cruz Verde","lat":"25.2","lng":"-99.833333"},{"country":"MX","name":"Agua Blanca","lat":"25.033333","lng":"-106.566667"},{"country":"MX","name":"Coalcom\u00e1n","lat":"18.783333","lng":"-103.15"},{"country":"MX","name":"Coajomulco","lat":"19.750556","lng":"-99.976389"},{"country":"MX","name":"Amozoc","lat":"19.033333","lng":"-98.05"},{"country":"MX","name":"Amanalco","lat":"19.316667","lng":"-100.016667"},{"country":"MX","name":"Baj\u00edos","lat":"25.666667","lng":"-106.333333"},{"country":"MX","name":"Cofrad\u00eda","lat":"19.966667","lng":"-104.1"},{"country":"MX","name":"Borjas","lat":"26.783333","lng":"-105.65"},{"country":"MX","name":"Casa Blanca","lat":"20.583333","lng":"-100.4"},{"country":"MX","name":"Xilotzingo","lat":"18.966667","lng":"-98.233333"},{"country":"MX","name":"Jiotes","lat":"18.116667","lng":"-96.816667"},{"country":"MX","name":"Tlapala","lat":"18.966667","lng":"-98.433333"},{"country":"MX","name":"San Pablo","lat":"18.983333","lng":"-97.7"},{"country":"MX","name":"Atoyac","lat":"17.2","lng":"-100.433333"},{"country":"MX","name":"Alburquerque","lat":"28.3","lng":"-107.416667"},{"country":"MX","name":"Corral Viejo","lat":"25.05","lng":"-107.133333"},{"country":"MX","name":"Agua Fr\u00eda","lat":"22.8","lng":"-103.583333"},{"country":"MX","name":"Aguilar","lat":"29.45","lng":"-110.366667"},{"country":"MX","name":"Abraham","lat":"15.683333","lng":"-96.6"},{"country":"MX","name":"San Jos\u00e9","lat":"18.7","lng":"-88.266667"},{"country":"MX","name":"Shomege","lat":"19.848333","lng":"-99.901944"},{"country":"MX","name":"San Juanito","lat":"23.333333","lng":"-98.616667"},{"country":"MX","name":"Mar\u00eda Morelos","lat":"30.083333","lng":"-115.75"},{"country":"MX","name":"San Juan","lat":"21.45","lng":"-99.233333"},{"country":"MX","name":"San Andr\u00e9s","lat":"22.2","lng":"-104.05"},{"country":"MX","name":"San Juan","lat":"24.85","lng":"-100.9"},{"country":"MX","name":"Act\u00fan","lat":"20.766667","lng":"-89.983333"},{"country":"MX","name":"Atexcal","lat":"18.366667","lng":"-98.216667"},{"country":"MX","name":"Ayutla","lat":"16.9","lng":"-99.216667"},{"country":"MX","name":"Nuevo","lat":"26.016667","lng":"-98.033333"},{"country":"MX","name":"Saucito","lat":"29.7","lng":"-110.683333"},{"country":"MX","name":"Tenochtitl\u00e1n","lat":"19.7525","lng":"-99.930833"},{"country":"MX","name":"Palo Blanco","lat":"24.916667","lng":"-98.05"},{"country":"MX","name":"Los Uxtlas","lat":"18.366667","lng":"-95.3"},{"country":"MX","name":"San Rafael","lat":"17.616667","lng":"-93.183333"},{"country":"MX","name":"Loma","lat":"15.966667","lng":"-96.416667"},{"country":"MX","name":"San Antonio","lat":"24.5","lng":"-99.533333"},{"country":"MX","name":"Rodeo","lat":"19.633333","lng":"-102.583333"},{"country":"MX","name":"Noria","lat":"23.716667","lng":"-100.683333"},{"country":"MX","name":"Teolocholco","lat":"19.25","lng":"-98.183333"},{"country":"MX","name":"San Antonio","lat":"24.533333","lng":"-102.466667"},{"country":"MX","name":"San Isidro","lat":"20.25","lng":"-101.75"},{"country":"MX","name":"San Antonio","lat":"18.066667","lng":"-96.116667"},{"country":"MX","name":"Cumbres","lat":"18.833333","lng":"-97.3"},{"country":"MX","name":"D\u00edaz Mir\u00f3n","lat":"19.483333","lng":"-99.1"},{"country":"MX","name":"Mariscala","lat":"17.866667","lng":"-98.116667"},{"country":"MX","name":"Valenciana","lat":"20.7","lng":"-101.3"},{"country":"MX","name":"Nepantla","lat":"18.966667","lng":"-98.833333"},{"country":"MX","name":"Cuevas","lat":"26.783333","lng":"-105.516667"},{"country":"MX","name":"Santa Cruz","lat":"20.533333","lng":"-103.433333"},{"country":"MX","name":"Portezuelo","lat":"21","lng":"-105.15"},{"country":"MX","name":"San Luis","lat":"19.833333","lng":"-99.416667"},{"country":"MX","name":"La Presa","lat":"22.983333","lng":"-102.733333"},{"country":"MX","name":"Jaco","lat":"27.833333","lng":"-104"},{"country":"MX","name":"San Jos\u00e9","lat":"26.383333","lng":"-112.15"},{"country":"MX","name":"Coapan","lat":"18.833333","lng":"-97.883333"},{"country":"MX","name":"Acozautla","lat":"18.95","lng":"-98.383333"},{"country":"MX","name":"San Antonio","lat":"19.366667","lng":"-100.416667"},{"country":"MX","name":"El Refugio","lat":"27.05","lng":"-105.466667"},{"country":"MX","name":"Horno","lat":"21.283333","lng":"-104.083333"},{"country":"MX","name":"Santa \u00darsula","lat":"19.3","lng":"-99.15"},{"country":"MX","name":"Terrero","lat":"27.183333","lng":"-105.666667"},{"country":"MX","name":"Piedras","lat":"21.5","lng":"-101.216667"},{"country":"MX","name":"San Jos\u00e9","lat":"20.433333","lng":"-100.966667"},{"country":"MX","name":"Cay\u00e1","lat":"20.666667","lng":"-89.566667"},{"country":"MX","name":"El Gallo","lat":"24.116667","lng":"-98.85"},{"country":"MX","name":"Pueblo Nuevo","lat":"20.816667","lng":"-99.716667"},{"country":"MX","name":"Oncan","lat":"20.966667","lng":"-89.5"},{"country":"MX","name":"Acequia","lat":"21.883333","lng":"-99.9"},{"country":"MX","name":"Cobos","lat":"20.933333","lng":"-97.366667"},{"country":"MX","name":"Santo Domingo","lat":"19.588333","lng":"-99.774722"},{"country":"MX","name":"San Jos\u00e9","lat":"18.433333","lng":"-95.65"},{"country":"MX","name":"Cerrito","lat":"20.533333","lng":"-100.933333"},{"country":"MX","name":"San Jos\u00e9","lat":"23.816667","lng":"-99"},{"country":"MX","name":"Espinos","lat":"19.866667","lng":"-104.566667"},{"country":"MX","name":"Atasta","lat":"18","lng":"-92.95"},{"country":"MX","name":"Tepetotutla","lat":"17.833333","lng":"-96.433333"},{"country":"MX","name":"Duraznillo","lat":"21.75","lng":"-101.25"},{"country":"MX","name":"Pitahayitas","lat":"25.5","lng":"-108.433333"},{"country":"MX","name":"Pita","lat":"20.483333","lng":"-100.433333"},{"country":"MX","name":"San Isidro","lat":"28.9","lng":"-107.783333"},{"country":"MX","name":"Soledad","lat":"28.3","lng":"-108.4"},{"country":"MX","name":"Santa Isabel","lat":"19","lng":"-98.366667"},{"country":"MX","name":"Trojes","lat":"22.4","lng":"-102.9"},{"country":"MX","name":"Mezquite","lat":"20.983333","lng":"-101.483333"},{"country":"MX","name":"Juntas","lat":"18.666667","lng":"-101.583333"},{"country":"MX","name":"La Mira","lat":"18.683333","lng":"-102.283333"},{"country":"MX","name":"Cuayucatepec","lat":"18.5","lng":"-97.483333"},{"country":"MX","name":"San Antonio","lat":"20.45","lng":"-97.15"},{"country":"MX","name":"Nazas","lat":"21.316667","lng":"-101.933333"},{"country":"MX","name":"Buena Vista","lat":"19.166667","lng":"-98.166667"},{"country":"MX","name":"San Ignacio","lat":"20.9","lng":"-101.866667"},{"country":"MX","name":"Zapotitl\u00e1n","lat":"17.216667","lng":"-98.983333"},{"country":"MX","name":"Hacienda","lat":"28.1","lng":"-108.55"},{"country":"MX","name":"Axochitl\u00e1n","lat":"18.283333","lng":"-97.266667"},{"country":"MX","name":"Ojitos","lat":"21.716667","lng":"-100.316667"},{"country":"MX","name":"Nacimiento","lat":"28.066667","lng":"-101.65"},{"country":"MX","name":"Ixtlahuaca","lat":"18.9","lng":"-99.716667"},{"country":"MX","name":"Tutepetongo","lat":"17.766667","lng":"-96.883333"},{"country":"MX","name":"San Agust\u00edn","lat":"22.8","lng":"-103.5"},{"country":"MX","name":"Panales","lat":"21.516667","lng":"-100.55"},{"country":"MX","name":"San Antonio","lat":"15.983333","lng":"-92.066667"},{"country":"MX","name":"Quiotepec","lat":"17.9","lng":"-96.983333"},{"country":"MX","name":"San Jos\u00e9","lat":"19.408333","lng":"-90.575"},{"country":"MX","name":"Sochiapan","lat":"17.666667","lng":"-95.366667"},{"country":"MX","name":"El Mes\u00f3n","lat":"21.283333","lng":"-101.283333"},{"country":"MX","name":"San Isidro","lat":"21.733333","lng":"-100.2"},{"country":"MX","name":"Madro\u00f1o","lat":"21.1","lng":"-99.7"},{"country":"MX","name":"Tepemaxalco","lat":"18.733333","lng":"-98.6"},{"country":"MX","name":"Zautla","lat":"17.183333","lng":"-96.866667"},{"country":"MX","name":"Tianguismanalco","lat":"18.95","lng":"-98.433333"},{"country":"MX","name":"Molino","lat":"19.533333","lng":"-98.816667"},{"country":"MX","name":"M\u00e9xico","lat":"19.434167","lng":"-99.138611"},{"country":"MX","name":"Mexico","lat":"19.434167","lng":"-99.138611"},{"country":"MX","name":"Acatepec","lat":"16.15","lng":"-97.533333"},{"country":"MX","name":"Presidios","lat":"25.283333","lng":"-105.633333"},{"country":"MX","name":"Oxtotla","lat":"18.616667","lng":"-98.383333"},{"country":"MX","name":"Capul\u00edn","lat":"25.566667","lng":"-106.133333"},{"country":"MX","name":"Encinas","lat":"27.316667","lng":"-101.066667"},{"country":"MX","name":"Anacuas","lat":"25.816667","lng":"-97.5"},{"country":"MX","name":"Cantemo","lat":"19.433333","lng":"-89.916667"},{"country":"MX","name":"Alamillo","lat":"28.8","lng":"-106.15"},{"country":"MX","name":"Camich\u00edn","lat":"21.016667","lng":"-104.766667"},{"country":"MX","name":"San Diego","lat":"21.383333","lng":"-100"},{"country":"MX","name":"Cerrito","lat":"32.183333","lng":"-116.05"},{"country":"MX","name":"Nueva Italia","lat":"19.026121","lng":"-102.09136"},{"country":"MX","name":"Amatl\u00e1n","lat":"19.160567","lng":"-102.539424"},{"country":"MX","name":"San Juan","lat":"19.136142","lng":"-102.439367"},{"country":"MX","name":"Puente del Carmen","lat":"20.886402","lng":"-100.641421"},{"country":"MX","name":"Las Juntas","lat":"18.28775","lng":"-101.777794"},{"country":"MX","name":"Coahuayutla","lat":"18.314753","lng":"-101.735104"},{"country":"MX","name":"Capire","lat":"18.837642","lng":"-101.806819"},{"country":"MX","name":"Tomatl\u00e1n","lat":"19.210158","lng":"-102.586892"},{"country":"MX","name":"Apatzing\u00e1n","lat":"19.095224","lng":"-102.351621"},{"country":"MX","name":"San Vicente","lat":"20.728266","lng":"-100.346371"},{"country":"MX","name":"La Griega","lat":"20.666405","lng":"-100.238872"},{"country":"MX","name":"Guadalupe","lat":"20.527956","lng":"-100.114368"},{"country":"MX","name":"Fajardo","lat":"20.851168","lng":"-100.597804"},{"country":"MX","name":"Carbonera","lat":"21.152519","lng":"-100.471847"},{"country":"MX","name":"Chap\u00edn","lat":"19.787809","lng":"-90.389425"},{"country":"MX","name":"Tekax","lat":"20.204267","lng":"-89.28629"},{"country":"MX","name":"San Miguel","lat":"25.662261","lng":"-108.059378"},{"country":"MX","name":"Corrientes","lat":"21.976215","lng":"-105.430613"},{"country":"MX","name":"Palmar","lat":"25.712054","lng":"-107.92751"},{"country":"MX","name":"Hu\u00e9pac","lat":"29.883676","lng":"-110.215284"},{"country":"MX","name":"Coloradas","lat":"22.453688","lng":"-105.343661"},{"country":"MX","name":"La Junta","lat":"25.101309","lng":"-106.784165"},{"country":"MX","name":"Metatitos","lat":"25.429019","lng":"-106.476039"},{"country":"MX","name":"Los Chinos","lat":"28.787188","lng":"-110.09978"},{"country":"MX","name":"Campa","lat":"28.549216","lng":"-109.739297"},{"country":"MX","name":"Noria","lat":"28.64011","lng":"-110.107055"},{"country":"MX","name":"Cozumel","lat":"20.501004","lng":"-86.945979"},{"country":"MX","name":"Tixcacal","lat":"19.857949","lng":"-88.174429"},{"country":"MX","name":"Sahcab\u00e1","lat":"20.684471","lng":"-88.384224"},{"country":"MX","name":"Tepatitl\u00e1n","lat":"20.816923","lng":"-102.763466"},{"country":"MX","name":"San Miguel","lat":"21.49709","lng":"-103.08296"},{"country":"MX","name":"Cofrad\u00eda","lat":"20.029934","lng":"-103.55592"},{"country":"MX","name":"Buenavista","lat":"20.770658","lng":"-102.773866"},{"country":"MX","name":"San Pedro","lat":"25.757989","lng":"-102.982293"},{"country":"MX","name":"San Jos\u00e9","lat":"25.648847","lng":"-103.401618"},{"country":"MX","name":"Lerdo","lat":"25.535383","lng":"-103.525242"},{"country":"MX","name":"Santa Rita","lat":"18.336237","lng":"-91.717421"},{"country":"MX","name":"Santa Mar\u00eda","lat":"20.440188","lng":"-100.79984"},{"country":"MX","name":"San Pedro","lat":"20.228303","lng":"-100.93875"},{"country":"MX","name":"Pejo","lat":"20.034554","lng":"-100.93692"},{"country":"MX","name":"San Francisco","lat":"20.026399","lng":"-100.789064"},{"country":"MX","name":"San Francisco","lat":"20.508628","lng":"-100.413951"},{"country":"MX","name":"Estancia","lat":"20.296263","lng":"-100.860169"},{"country":"MX","name":"El Capul\u00edn","lat":"20.274784","lng":"-100.985017"},{"country":"MX","name":"Rinc\u00f3n","lat":"20.424025","lng":"-100.755131"},{"country":"MX","name":"Piedras","lat":"20.138887","lng":"-100.627105"},{"country":"MX","name":"Apaseo","lat":"20.457479","lng":"-100.622402"},{"country":"MX","name":"Ojo de Agua","lat":"20.228923","lng":"-100.826959"},{"country":"MX","name":"La Ceja","lat":"20.378637","lng":"-100.396101"},{"country":"MX","name":"Carmen","lat":"18.649732","lng":"-91.824709"},{"country":"MX","name":"Tizonazo","lat":"25.965056","lng":"-105.195634"},{"country":"MX","name":"San Francisco","lat":"25.48603","lng":"-104.884586"},{"country":"MX","name":"San Pedro","lat":"24.797815","lng":"-107.602306"},{"country":"MX","name":"Pantelh\u00f3","lat":"17.005144","lng":"-92.470834"},{"country":"MX","name":"Sabana","lat":"17.396039","lng":"-92.214272"},{"country":"MX","name":"La Bola","lat":"18.240431","lng":"-92.297259"},{"country":"MX","name":"Agua Caliente","lat":"24.932918","lng":"-107.384952"},