[{"country":"MY","name":"Tawau","lat":"4.5","lng":"118"},{"country":"MY","name":"Tanah Merah","lat":"5.666667","lng":"102"},{"country":"MY","name":"Sri Aman","lat":"1.5","lng":"111.5"},{"country":"MY","name":"Klang","lat":"3.083333","lng":"101.416667"},{"country":"MY","name":"Pantai Barat","lat":"6.083333","lng":"116.5"},{"country":"MY","name":"Kuching","lat":"1.416667","lng":"110.083333"},{"country":"MY","name":"Pedalaman","lat":"4.833333","lng":"116.166667"},{"country":"MY","name":"Kuching","lat":"1.55","lng":"110.333333"},{"country":"MY","name":"Bintulu","lat":"2.833333","lng":"113.25"},{"country":"MY","name":"Samarahan","lat":"1.25","lng":"110.75"},{"country":"MY","name":"Gombak","lat":"3.3","lng":"101.7"},{"country":"MY","name":"Kuala Lumpur","lat":"3.166667","lng":"101.7"},{"country":"MY","name":"Miri","lat":"3.75","lng":"114.5"},{"country":"MY","name":"Kubang Pasu","lat":"6.405079","lng":"100.439817"},{"country":"MY","name":"Kota Setar","lat":"6.137893","lng":"100.476352"},{"country":"MY","name":"Kangar","lat":"6.4414","lng":"100.198619"},{"country":"MY","name":"Alor Setar","lat":"6.121045","lng":"100.360137"},{"country":"MY","name":"George Town","lat":"5.411229","lng":"100.335426"},{"country":"MY","name":"msa","lat":"5.264522","lng":"100.716667"},{"country":"MY","name":"msa","lat":"5.925563","lng":"100.67555"},{"country":"MY","name":"Pasir Mas","lat":"6.049337","lng":"102.139873"},{"country":"MY","name":"Tumpat","lat":"6.197755","lng":"102.170976"},{"country":"MY","name":"Kampung Lemal","lat":"6.030211","lng":"102.141257"},{"country":"MY","name":"Pulai Chondong","lat":"5.871332","lng":"102.231766"},{"country":"MY","name":"Ketereh","lat":"5.957008","lng":"102.24817"},{"country":"MY","name":"Temangan","lat":"5.711516","lng":"102.151047"},{"country":"MY","name":"Kota Bharu","lat":"6.133275","lng":"102.238603"},{"country":"MY","name":"Kuala Terengganu","lat":"5.3302","lng":"103.1408"},{"country":"MY","name":"Ipoh","lat":"4.5841","lng":"101.0829"},{"country":"MY","name":"Victoria","lat":"5.276667","lng":"115.241667"},{"country":"MY","name":"Limbang","lat":"4.166667","lng":"115.333333"},{"country":"MY","name":"Kuala Selangor","lat":"3.333333","lng":"101.25"},{"country":"MY","name":"Pantai Barat","lat":"6","lng":"116.25"},{"country":"MY","name":"Sandakan","lat":"5.583333","lng":"117.583333"},{"country":"MY","name":"Hulu Selangor","lat":"3.5","lng":"101.583333"},{"country":"MY","name":"Johor Bahru","lat":"1.4655","lng":"103.7578"},{"country":"MY","name":"Kuantan","lat":"3.8077","lng":"103.326"},{"country":"MY","name":"Seremban","lat":"2.7297","lng":"101.9381"},{"country":"MY","name":"Johor","lat":"2","lng":"103.5"},{"country":"MY","name":"Kedah","lat":"6","lng":"100.666667"},{"country":"MY","name":"Kelantan","lat":"5.333333","lng":"102"},{"country":"MY","name":"Kuala Lumpur","lat":"3.116667","lng":"101.683333"},{"country":"MY","name":"Labuan","lat":"5.333333","lng":"115.2"},{"country":"MY","name":"Melaka","lat":"2.25","lng":"102.25"},{"country":"MY","name":"Pahang","lat":"3.5","lng":"102.75"},{"country":"MY","name":"Perak","lat":"5","lng":"101"},{"country":"MY","name":"Perlis","lat":"6.502948","lng":"100.24598"},{"country":"MY","name":"Pulau Pinang","lat":"5.32623","lng":"100.321579"},{"country":"MY","name":"Putrajaya","lat":"2.916667","lng":"101.7"},{"country":"MY","name":"Sabah","lat":"5.5","lng":"117"},{"country":"MY","name":"Sarawak","lat":"2.5","lng":"113.5"},{"country":"MY","name":"Selangor","lat":"3.166667","lng":"101.5"},{"country":"MY","name":"Terengganu","lat":"5","lng":"103"},{"country":"MY","name":"Sibu","lat":"2.416667","lng":"112.25"},{"country":"MY","name":"Klang","lat":"3.033333","lng":"101.45"},{"country":"MY","name":"Kudat","lat":"6.5","lng":"116.666667"},{"country":"MY","name":"Kuala Langat","lat":"2.75","lng":"101.5"},{"country":"MY","name":"Sarikei","lat":"2","lng":"111.666667"},{"country":"MY","name":"Kapit","lat":"2.166667","lng":"113.75"},{"country":"MY","name":"Jeram","lat":"3.216667","lng":"101.383333"},{"country":"MY","name":"Sabak Bernam","lat":"3.583333","lng":"101.116667"},{"country":"MY","name":"Kota Kinabalu","lat":"5.9749","lng":"116.0724"}]