[{"country":"NI","name":"Bel\u00e9n","lat":"11.583333","lng":"-85.966667"},{"country":"NI","name":"Villa Sandino","lat":"12","lng":"-84.833333"},{"country":"NI","name":"Villa Nueva","lat":"12.916667","lng":"-86.733333"},{"country":"NI","name":"Wiwil\u00ed","lat":"13.616667","lng":"-85.866667"},{"country":"NI","name":"San Jos\u00e9 de los Remates","lat":"12.583333","lng":"-85.75"},{"country":"NI","name":"Managua","lat":"12.142387","lng":"-86.255792"},{"country":"NI","name":"San Pedro del Norte","lat":"13.3","lng":"-86.766667"},{"country":"NI","name":"San Juan del Sur","lat":"11.2","lng":"-85.783333"},{"country":"NI","name":"Santo Tom\u00e1s del Norte","lat":"13.216667","lng":"-86.833333"},{"country":"NI","name":"Muelle de los Bueyes","lat":"12.083333","lng":"-84.5"},{"country":"NI","name":"Catarina","lat":"11.916667","lng":"-86.066667"},{"country":"NI","name":"Boaco","lat":"12.583333","lng":"-85.416667"},{"country":"NI","name":"Atl\u00e1ntico Norte","lat":"14","lng":"-84.25"},{"country":"NI","name":"Atl\u00e1ntico Sur","lat":"12.25","lng":"-84.25"},{"country":"NI","name":"Boaco","lat":"12.5","lng":"-85.5"},{"country":"NI","name":"Carazo","lat":"11.75","lng":"-86.25"},{"country":"NI","name":"Chinandega","lat":"12.833333","lng":"-87.083333"},{"country":"NI","name":"Chontales","lat":"12.083333","lng":"-85.166667"},{"country":"NI","name":"Estel\u00ed","lat":"13.166667","lng":"-86.333333"},{"country":"NI","name":"Granada","lat":"11.833333","lng":"-85.916667"},{"country":"NI","name":"Jinotega","lat":"13.75","lng":"-85.583333"},{"country":"NI","name":"Le\u00f3n","lat":"12.583333","lng":"-86.583333"},{"country":"NI","name":"Madriz","lat":"13.5","lng":"-86.416667"},{"country":"NI","name":"Managua","lat":"12","lng":"-86.416667"},{"country":"NI","name":"Masaya","lat":"12","lng":"-86.166667"},{"country":"NI","name":"Matagalpa","lat":"12.916667","lng":"-85.666667"},{"country":"NI","name":"Nueva Segovia","lat":"13.7","lng":"-86.166667"},{"country":"NI","name":"R\u00edo San Juan","lat":"11.333333","lng":"-84.583333"},{"country":"NI","name":"Rivas","lat":"11.3","lng":"-85.75"},{"country":"NI","name":"Carlos Fonseca Amador","lat":"12","lng":"-86.5"},{"country":"NI","name":"Ciudad Sandino","lat":"13.75","lng":"-86.083333"},{"country":"NI","name":"San Francisco del Norte","lat":"13.233333","lng":"-86.7"},{"country":"NI","name":"R\u00edo Blanco","lat":"12.916667","lng":"-85.25"},{"country":"NI","name":"Puerto Cabezas","lat":"14.083333","lng":"-83.916667"},{"country":"NI","name":"Bilwi","lat":"14.035066","lng":"-83.388822"},{"country":"NI","name":"Jinotepe","lat":"11.849622","lng":"-86.199028"},{"country":"NI","name":"Jinotega","lat":"13.091712","lng":"-86.001769"},{"country":"NI","name":"Le\u00f3n","lat":"12.437873","lng":"-86.878042"},{"country":"NI","name":"Estel\u00ed","lat":"13.091853","lng":"-86.353841"},{"country":"NI","name":"Somoto","lat":"13.480819","lng":"-86.582076"},{"country":"NI","name":"Chinandega","lat":"12.62937","lng":"-87.131049"},{"country":"NI","name":"Ocotal","lat":"13.632076","lng":"-86.475161"},{"country":"NI","name":"Masaya","lat":"11.974441","lng":"-86.094169"},{"country":"NI","name":"Bluefields","lat":"12.013661","lng":"-83.763532"},{"country":"NI","name":"Rivas","lat":"11.437155","lng":"-85.826325"},{"country":"NI","name":"Matagalpa","lat":"12.925592","lng":"-85.917474"},{"country":"NI","name":"San Carlos","lat":"11.123604","lng":"-84.777953"},{"country":"NI","name":"Juigalpa","lat":"12.106294","lng":"-85.364522"},{"country":"NI","name":"Boaco","lat":"12.472242","lng":"-85.658597"},{"country":"NI","name":"Granada","lat":"11.929884","lng":"-85.956018"}]