[{"country":"NL","name":"Groningen","lat":"53.216667","lng":"6.55"},{"country":"NL","name":"Middelburg","lat":"51.50036","lng":"3.612964"},{"country":"NL","name":"Lelystad","lat":"52.51764","lng":"5.473989"},{"country":"NL","name":"Hendrik-Ido-Ambacht","lat":"51.836059","lng":"4.653349"},{"country":"NL","name":"Heerlen","lat":"50.887775","lng":"5.974065"},{"country":"NL","name":"Heeze-Leende","lat":"51.361453","lng":"5.567545"},{"country":"NL","name":"Heiloo","lat":"52.601223","lng":"4.709446"},{"country":"NL","name":"Midden-Drenthe","lat":"52.865222","lng":"6.527267"},{"country":"NL","name":"Maasdonk","lat":"51.73047","lng":"5.452443"},{"country":"NL","name":"Montferland","lat":"51.91643","lng":"6.207672"},{"country":"NL","name":"Montfoort","lat":"52.047668","lng":"4.948436"},{"country":"NL","name":"Mook en Middelaar","lat":"51.748158","lng":"5.902079"},{"country":"NL","name":"Muiden","lat":"52.328483","lng":"5.072443"},{"country":"NL","name":"Oldambt","lat":"53.190852","lng":"7.055583"},{"country":"NL","name":"Delfzijl","lat":"53.332639","lng":"6.924231"},{"country":"NL","name":"Den Helder","lat":"52.956142","lng":"4.759368"},{"country":"NL","name":"Naarden","lat":"52.302172","lng":"5.16256"},{"country":"NL","name":"Nederweert","lat":"51.288129","lng":"5.771568"},{"country":"NL","name":"Neerijnen","lat":"51.835877","lng":"5.271091"},{"country":"NL","name":"Deventer","lat":"52.25","lng":"6.2"},{"country":"NL","name":"Diemen","lat":"52.337122","lng":"4.974383"},{"country":"NL","name":"Noordwijkerhout","lat":"52.270588","lng":"4.509115"},{"country":"NL","name":"Doetinchem","lat":"51.966667","lng":"6.3"},{"country":"NL","name":"Doesburg","lat":"52.014283","lng":"6.133922"},{"country":"NL","name":"Dongen","lat":"51.62786","lng":"4.935891"},{"country":"NL","name":"Dokkum","lat":"53.322237","lng":"5.996975"},{"country":"NL","name":"Oisterwijk","lat":"51.552887","lng":"5.201881"},{"country":"NL","name":"Oldebroek","lat":"52.453976","lng":"5.941335"},{"country":"NL","name":"Maasdriel","lat":"51.77337","lng":"5.297112"},{"country":"NL","name":"Dalfsen","lat":"52.51078","lng":"6.258378"},{"country":"NL","name":"Bilthoven","lat":"52.130663","lng":"5.192306"},{"country":"NL","name":"Leens","lat":"53.360703","lng":"6.383419"},{"country":"NL","name":"Delft","lat":"52.018601","lng":"4.378153"},{"country":"NL","name":"Nederlek","lat":"51.905998","lng":"4.665435"},{"country":"NL","name":"Nieuwegein","lat":"52.028431","lng":"5.095389"},{"country":"NL","name":"Neder-Betuwe","lat":"51.921755","lng":"5.574954"},{"country":"NL","name":"Nieuwkoop","lat":"52.171984","lng":"4.780065"},{"country":"NL","name":"Nijkerk","lat":"52.212534","lng":"5.509168"},{"country":"NL","name":"Nijmegen","lat":"51.841679","lng":"5.838129"},{"country":"NL","name":"Noord-Beveland","lat":"51.573851","lng":"3.771156"},{"country":"NL","name":"Noordenveld","lat":"53.095272","lng":"6.427168"},{"country":"NL","name":"Noordoostpolder","lat":"52.717033","lng":"5.772478"},{"country":"NL","name":"Noordwijk","lat":"52.269529","lng":"4.46354"},{"country":"NL","name":"Nuenen","lat":" Gerwen en Nederwetten\"","lng":"51.478581"},{"country":"NL","name":"Nunspeet","lat":"52.335243","lng":"5.787706"},{"country":"NL","name":"Nuth","lat":"50.907023","lng":"5.861553"},{"country":"NL","name":"Oegstgeest","lat":"52.183494","lng":"4.469794"},{"country":"NL","name":"Oirschot","lat":"51.49062","lng":"5.289587"},{"country":"NL","name":"Denekamp","lat":"52.37917","lng":"7.00442"},{"country":"NL","name":"Zuidwolde","lat":"52.674605","lng":"6.424665"},{"country":"NL","name":"Maasgouw","lat":"51.162808","lng":"5.89059"},{"country":"NL","name":"Maassluis","lat":"51.923319","lng":"4.247218"},{"country":"NL","name":"Maastricht","lat":"50.852834","lng":"5.701642"},{"country":"NL","name":"Marum","lat":"53.147401","lng":"6.274695"},{"country":"NL","name":"Medemblik","lat":"52.72496","lng":"5.122045"},{"country":"NL","name":"Meerssen","lat":"50.895177","lng":"5.757105"},{"country":"NL","name":"Menaldumadeel","lat":"53.209593","lng":"5.675411"},{"country":"NL","name":"Menameradiel","lat":"53.209593","lng":"5.675411"},{"country":"NL","name":"Muntendam","lat":"53.137419","lng":"6.86832"},{"country":"NL","name":"Midden-Delfland","lat":"51.968023","lng":"4.316806"},{"country":"NL","name":"Mill en Sint Hubert","lat":"51.687123","lng":"5.770773"},{"country":"NL","name":"Millingen aan de Rijn","lat":"51.864254","lng":"6.030842"},{"country":"NL","name":"Moerdijk","lat":"51.653885","lng":"4.528749"},{"country":"NL","name":"Molenwaard","lat":"51.87316","lng":"4.798808"},{"country":"NL","name":"Deurne","lat":"51.460672","lng":"5.799131"},{"country":"NL","name":"Sliedrecht","lat":"51.829994","lng":"4.771913"},{"country":"NL","name":"Slochteren","lat":"53.233679","lng":"6.78903"},{"country":"NL","name":"Sluis","lat":"51.337227","lng":"3.519366"},{"country":"NL","name":"Smallingerland","lat":"53.116667","lng":"6.033333"},{"country":"NL","name":"Ten Boer","lat":"53.278617","lng":"6.696184"},{"country":"NL","name":"Terneuzen","lat":"51.285498","lng":"3.828174"},{"country":"NL","name":"Terschelling","lat":"53.4","lng":"5.35"},{"country":"NL","name":"Texel","lat":"53.078828","lng":"4.811659"},{"country":"NL","name":"Teylingen","lat":"52.215667","lng":"4.510294"},{"country":"NL","name":"Tholen","lat":"51.583356","lng":"4.133726"},{"country":"NL","name":"Tiel","lat":"51.88463","lng":"5.404292"},{"country":"NL","name":"Tilburg","lat":"51.577874","lng":"5.065554"},{"country":"NL","name":"Tubbergen","lat":"52.404506","lng":"6.782406"},{"country":"NL","name":"Twenterand","lat":"52.458263","lng":"6.587545"},{"country":"NL","name":"Tynaarlo","lat":"53.112197","lng":"6.607768"},{"country":"NL","name":"Burgum","lat":"53.194685","lng":"5.993662"},{"country":"NL","name":"Tietjerksteradeel","lat":"53.203075","lng":"5.962613"},{"country":"NL","name":"Tytsjerksteradiel","lat":"53.203075","lng":"5.962613"},{"country":"NL","name":"Ubbergen","lat":"51.847667","lng":"5.953551"},{"country":"NL","name":"Soest","lat":"52.156361","lng":"5.298542"},{"country":"NL","name":"Someren","lat":"51.385588","lng":"5.69319"},{"country":"NL","name":"Son en Breugel","lat":"51.516985","lng":"5.485824"},{"country":"NL","name":"Uden","lat":"51.658534","lng":"5.652968"},{"country":"NL","name":"Uitgeest","lat":"52.524086","lng":"4.733227"},{"country":"NL","name":"Uithoorn","lat":"52.236434","lng":"4.783493"},{"country":"NL","name":"Uithoorn","lat":"52.241097","lng":"4.844754"},{"country":"NL","name":"Urk","lat":"52.66537","lng":"5.622761"},{"country":"NL","name":"Utrecht","lat":"52.087545","lng":"5.075278"},{"country":"NL","name":"Utrechtse Heuvelrug","lat":"52.036247","lng":"5.382644"},{"country":"NL","name":"Vaals","lat":"50.778484","lng":"5.976736"},{"country":"NL","name":"Valkenburg aan de Geul","lat":"50.863009","lng":"5.818283"},{"country":"NL","name":"Valkenswaard","lat":"51.325754","lng":"5.453232"},{"country":"NL","name":"Veendam","lat":"53.089506","lng":"6.879226"},{"country":"NL","name":"Veenendaal","lat":"52.024589","lng":"5.555618"},{"country":"NL","name":"Veere","lat":"51.539017","lng":"3.556879"},{"country":"NL","name":"Veghel","lat":"51.601853","lng":"5.567488"},{"country":"NL","name":"Veldhoven","lat":"51.412535","lng":"5.380525"},{"country":"NL","name":"Velsen","lat":"52.453711","lng":"4.626311"},{"country":"NL","name":"Venlo","lat":"51.392768","lng":"6.160414"},{"country":"NL","name":"Venray","lat":"51.514123","lng":"5.959274"},{"country":"NL","name":"Vianen","lat":"51.969476","lng":"5.106995"},{"country":"NL","name":"Vlaardingen","lat":"51.917543","lng":"4.325702"},{"country":"NL","name":"Vlagtwedde","lat":"52.95684","lng":"7.120573"},{"country":"NL","name":"Vlieland","lat":"53.255538","lng":"4.965607"},{"country":"NL","name":"Vlissingen","lat":"51.459145","lng":"3.623255"},{"country":"NL","name":"Vlist","lat":"51.980764","lng":"4.782459"},{"country":"NL","name":"Voerendaal","lat":"50.871169","lng":"5.914945"},{"country":"NL","name":"Voorschoten","lat":"52.125333","lng":"4.440143"},{"country":"NL","name":"Voorst","lat":"52.229652","lng":"6.09992"},{"country":"NL","name":"Twello","lat":"52.235551","lng":"6.100746"},{"country":"NL","name":"Vught","lat":"51.658216","lng":"5.267461"},{"country":"NL","name":"Waalre","lat":"51.387571","lng":"5.463805"},{"country":"NL","name":"Waalwijk","lat":"51.689699","lng":"5.017206"},{"country":"NL","name":"Waddinxveen","lat":"52.042474","lng":"4.64486"},{"country":"NL","name":"Wageningen","lat":"51.96876","lng":"5.666746"},{"country":"NL","name":"Wassenaar","lat":"52.137915","lng":"4.375464"},{"country":"NL","name":"Waterland","lat":"52.453189","lng":"5.024992"},{"country":"NL","name":"Weert","lat":"51.234181","lng":"5.690673"},{"country":"NL","name":"Weesp","lat":"52.301245","lng":"5.059909"},{"country":"NL","name":"Werkendam","lat":"51.77072","lng":"4.850821"},{"country":"NL","name":"West Maas en Waal","lat":"51.858156","lng":"5.498158"},{"country":"NL","name":"Westerveld","lat":"52.841513","lng":"6.296152"},{"country":"NL","name":"Westervoort","lat":"51.959487","lng":"5.974351"},{"country":"NL","name":"Westland","lat":"51.998243","lng":"4.21745"},{"country":"NL","name":"Weststellingwerf","lat":"52.876469","lng":"6.019979"},{"country":"NL","name":"Westvoorne","lat":"51.893082","lng":"4.089215"},{"country":"NL","name":"Wierden","lat":"52.342473","lng":"6.557949"},{"country":"NL","name":"Wijchen","lat":"51.818839","lng":"5.698623"},{"country":"NL","name":"Wijdemeren","lat":"52.227557","lng":"5.084446"},{"country":"NL","name":"Wijk bij Duurstede","lat":"51.988156","lng":"5.326232"},{"country":"NL","name":"Winsum","lat":"53.330259","lng":"6.505803"},{"country":"NL","name":"Winterswijk","lat":"51.972258","lng":"6.725438"},{"country":"NL","name":"Woensdrecht","lat":"51.409481","lng":"4.33512"},{"country":"NL","name":"Woerden","lat":"52.106755","lng":"4.900662"},{"country":"NL","name":"Wormerland","lat":"52.500981","lng":"4.856545"},{"country":"NL","name":"Zaandam","lat":"52.439266","lng":"4.810557"},{"country":"NL","name":"Zaanstad","lat":"52.46876","lng":"4.771754"},{"country":"NL","name":"Woudenberg","lat":"52.083412","lng":"5.412189"},{"country":"NL","name":"Woudrichem","lat":"51.786512","lng":"5.002597"},{"country":"NL","name":"Zaltbommel","lat":"51.786804","lng":"5.152544"},{"country":"NL","name":"Zandvoort","lat":"52.357686","lng":"4.543879"},{"country":"NL","name":"Zederik","lat":"51.931595","lng":"5.014322"},{"country":"NL","name":"Zeevang","lat":"52.559511","lng":"5.008823"},{"country":"NL","name":"Zeewolde","lat":"52.344196","lng":"5.459035"},{"country":"NL","name":"Zeist","lat":"52.108557","lng":"5.25628"},{"country":"NL","name":"Zevenaar","lat":"51.953764","lng":"6.077266"},{"country":"NL","name":"Zoetermeer","lat":"52.059538","lng":"4.488315"},{"country":"NL","name":"Zoetermeer","lat":"52.057102","lng":"4.495946"},{"country":"NL","name":"Zoeterwoude","lat":"52.114098","lng":"4.51142"},{"country":"NL","name":"Zuidhorn","lat":"53.277186","lng":"6.371436"},{"country":"NL","name":"Oldebroek","lat":"52.445567","lng":"5.901554"},{"country":"NL","name":"Lopik","lat":"51.973659","lng":"4.947496"},{"country":"NL","name":"Loppersum","lat":"53.331473","lng":"6.746094"},{"country":"NL","name":"Losser","lat":"52.260911","lng":"7.008838"},{"country":"NL","name":"Lekkerkerk","lat":"51.900061","lng":"4.684142"},{"country":"NL","name":"Lichtenvoorde","lat":"51.987502","lng":"6.56955"},{"country":"NL","name":"Lobith","lat":"51.863177","lng":"6.114955"},{"country":"NL","name":"Joure","lat":"52.966816","lng":"5.796605"},{"country":"NL","name":"Vlijmen","lat":"51.6984","lng":"5.221648"},{"country":"NL","name":"Vriezenveen","lat":"52.41012","lng":"6.623554"},{"country":"NL","name":"Vries","lat":"53.077193","lng":"6.573984"},{"country":"NL","name":"Vaals","lat":"50.769835","lng":"5.994864"},{"country":"NL","name":"Valkenburg","lat":"50.864835","lng":"5.827774"},{"country":"NL","name":"Valkenswaard","lat":"51.352662","lng":"5.456101"},{"country":"NL","name":"Veendam","lat":"53.114857","lng":"6.896614"},{"country":"NL","name":"Veenendaal","lat":"52.024371","lng":"5.559791"},{"country":"NL","name":"Veghel","lat":"51.618548","lng":"5.550439"},{"country":"NL","name":"Veldhoven","lat":"51.416667","lng":"5.416667"},{"country":"NL","name":"Venlo","lat":"51.370837","lng":"6.175101"},{"country":"NL","name":"Venray","lat":"51.524517","lng":"5.975006"},{"country":"NL","name":"Vianen","lat":"51.987057","lng":"5.095258"},{"country":"NL","name":"Vlaardingen","lat":"51.921038","lng":"4.321877"},{"country":"NL","name":"Vlissingen","lat":"51.449399","lng":"3.572279"},{"country":"NL","name":"Voerendaal","lat":"50.879763","lng":"5.934949"},{"country":"NL","name":"Voorschoten","lat":"52.13098","lng":"4.465828"},{"country":"NL","name":"Vught","lat":"51.655197","lng":"5.294188"},{"country":"NL","name":"Wommels","lat":"53.109979","lng":"5.592668"},{"country":"NL","name":"Wognum","lat":"52.677065","lng":"5.026141"},{"country":"NL","name":"Wissenkerke","lat":"51.585505","lng":"3.747221"},{"country":"NL","name":"Winschoten","lat":"53.144032","lng":"7.03518"},{"country":"NL","name":"Wijhe","lat":"52.386373","lng":"6.134668"},{"country":"NL","name":"West-Terschelling","lat":"53.360927","lng":"5.214717"},{"country":"NL","name":"Wolvega","lat":"52.875453","lng":"5.996908"},{"country":"NL","name":"Westervoort","lat":"51.963667","lng":"5.971273"},{"country":"NL","name":"Werkendam","lat":"51.809796","lng":"4.89371"},{"country":"NL","name":"Weesp","lat":"52.30773","lng":"5.039749"},{"country":"NL","name":"Weert","lat":"51.250562","lng":"5.717901"},{"country":"NL","name":"Wassenaar","lat":"52.110844","lng":"4.355982"},{"country":"NL","name":"Wageningen","lat":"51.973279","lng":"5.667556"},{"country":"NL","name":"Waalre","lat":"51.390482","lng":"5.43095"},{"country":"NL","name":"Waalwijk","lat":"51.685764","lng":"5.072072"},{"country":"NL","name":"Waddinxveen","lat":"52.048048","lng":"4.652653"},{"country":"NL","name":"Wierden","lat":"52.362795","lng":"6.590944"},{"country":"NL","name":"Wijchen","lat":"51.816174","lng":"5.749562"},{"country":"NL","name":"Wijk bij Duurstede","lat":"51.976012","lng":"5.34058"},{"country":"NL","name":"Winsum","lat":"53.32724","lng":"6.530143"},{"country":"NL","name":"Winterswijk","lat":"51.971776","lng":"6.719631"},{"country":"NL","name":"Woerden","lat":"52.092526","lng":"4.905165"},{"country":"NL","name":"Wormer","lat":"52.500324","lng":"4.826833"},{"country":"NL","name":"Woudenberg","lat":"52.08016","lng":"5.420615"},{"country":"NL","name":"Woudrichem","lat":"51.811967","lng":"4.99719"},{"country":"NL","name":"Bleskensgraaf","lat":"51.872001","lng":"4.784624"},{"country":"NL","name":"Naarden","lat":"52.292164","lng":"5.149612"},{"country":"NL","name":"Nederweert","lat":"51.285013","lng":"5.749804"},{"country":"NL","name":"Neerijnen","lat":"51.83442","lng":"5.278538"},{"country":"NL","name":"Nieuwegein","lat":"52.014842","lng":"5.100406"},{"country":"NL","name":"Nieuwveen","lat":"52.200398","lng":"4.751426"},{"country":"NL","name":"Nijkerk","lat":"52.221637","lng":"5.494962"},{"country":"NL","name":"Nijmegen","lat":"51.833333","lng":"5.866667"},{"country":"NL","name":"Noordwijk","lat":"52.24095","lng":"4.453895"},{"country":"NL","name":"Noordwijkerhout","lat":"52.269556","lng":"4.488424"},{"country":"NL","name":"Nuenen","lat":"51.466843","lng":"5.571992"},{"country":"NL","name":"Nunspeet","lat":"52.384479","lng":"5.799894"},{"country":"NL","name":"Nuth","lat":"50.917304","lng":"5.886024"},{"country":"NL","name":"Naaldwijk","lat":"51.997897","lng":"4.220444"},{"country":"NL","name":"Nieuwerkerk aan den IJssel","lat":"51.980819","lng":"4.611205"},{"country":"NL","name":"Opheusden","lat":"51.933309","lng":"5.634228"},{"country":"NL","name":"Oegstgeest","lat":"52.172361","lng":"4.45907"},{"country":"NL","name":"Oirschot","lat":"51.50343","lng":"5.308304"},{"country":"NL","name":"Oisterwijk","lat":"51.583449","lng":"5.208564"},{"country":"NL","name":"Oldenzaal","lat":"52.311841","lng":"6.929745"},{"country":"NL","name":"Ommen","lat":"52.52023","lng":"6.426631"},{"country":"NL","name":"Oosterhout","lat":"51.65","lng":"4.883333"},{"country":"NL","name":"Oosterwolde","lat":"52.989767","lng":"6.293353"},{"country":"NL","name":"Oostzaan","lat":"52.446898","lng":"4.8713"},{"country":"NL","name":"Opmeer","lat":"52.705864","lng":"4.937754"},{"country":"NL","name":"Oss","lat":"51.766667","lng":"5.533333"},{"country":"NL","name":"Oud-Beijerland","lat":"51.817051","lng":"4.417294"},{"country":"NL","name":"Ouderkerk aan de Amstel","lat":"52.293992","lng":"4.918374"},{"country":"NL","name":"Ouderkerk aan den IJssel","lat":"51.93326","lng":"4.638494"},{"country":"NL","name":"Oudewater","lat":"52.025333","lng":"4.865822"},{"country":"NL","name":"Oude Pekela","lat":"53.108871","lng":"7.01527"},{"country":"NL","name":"Oosterbeek","lat":"51.983333","lng":"5.85"},{"country":"NL","name":"Oostburg","lat":"51.328206","lng":"3.500821"},{"country":"NL","name":"Oosthuizen","lat":"52.571258","lng":"4.997017"},{"country":"NL","name":"Emmeloord","lat":"52.709969","lng":"5.751237"},{"country":"NL","name":"Elst","lat":"51.92158","lng":"5.834157"},{"country":"NL","name":"Oost-Vlieland","lat":"53.295776","lng":"5.067536"},{"country":"NL","name":"Ten Boer","lat":"53.275977","lng":"6.689844"},{"country":"NL","name":"Terneuzen","lat":"51.331784","lng":"3.840803"},{"country":"NL","name":"Tholen","lat":"51.538943","lng":"4.217106"},{"country":"NL","name":"Tiel","lat":"51.889251","lng":"5.442649"},{"country":"NL","name":"Tilburg","lat":"51.576922","lng":"5.106331"},{"country":"NL","name":"Tubbergen","lat":"52.405786","lng":"6.786368"},{"country":"NL","name":"Uden","lat":"51.663777","lng":"5.62398"},{"country":"NL","name":"Uitgeest","lat":"52.531713","lng":"4.705922"},{"country":"NL","name":"Urk","lat":"52.661259","lng":"5.594415"},{"country":"NL","name":"Maastricht","lat":"50.85","lng":"5.683333"},{"country":"NL","name":"Amsterdam","lat":"52.35","lng":"4.916667"},{"country":"NL","name":"Heerhugowaard","lat":"52.682102","lng":"4.843631"},{"country":"NL","name":"Hellendoorn","lat":"52.390223","lng":"6.464343"},{"country":"NL","name":"Dordrecht","lat":"51.800653","lng":"4.698199"},{"country":"NL","name":"Delft","lat":"51.999677","lng":"4.364052"},{"country":"NL","name":"Delfzijl","lat":"53.300194","lng":"6.931293"},{"country":"NL","name":"Den Helder","lat":"52.923657","lng":"4.75793"},{"country":"NL","name":"Made","lat":"51.676892","lng":"4.792749"},{"country":"NL","name":"Dronten","lat":"52.522719","lng":"5.71876"},{"country":"NL","name":"Druten","lat":"51.894314","lng":"5.601302"},{"country":"NL","name":"Duiven","lat":"51.944895","lng":"6.024904"},{"country":"NL","name":"Deurne","lat":"51.437014","lng":"5.822449"},{"country":"NL","name":"Deventer","lat":"52.269266","lng":"6.237946"},{"country":"NL","name":"Diemen","lat":"52.339032","lng":"4.98623"},{"country":"NL","name":"Doesburg","lat":"52.019345","lng":"6.148554"},{"country":"NL","name":"Den Haag","lat":"52.068661","lng":"4.286349"},{"country":"NL","name":"Doetinchem","lat":"51.962161","lng":"6.279554"},{"country":"NL","name":"Damwoude","lat":"53.289982","lng":"5.995736"},{"country":"NL","name":"Damw\u00e2ld","lat":"53.289982","lng":"5.995736"},{"country":"NL","name":"Dalfsen","lat":"52.524614","lng":"6.272139"},{"country":"NL","name":"Dantumadeel","lat":"53.274259","lng":"5.985454"},{"country":"NL","name":"Dantumadiel","lat":"53.274259","lng":"5.985454"},{"country":"NL","name":"De Bilt","lat":"52.141367","lng":"5.168281"},{"country":"NL","name":"Ermelo","lat":"52.288264","lng":"5.655384"},{"country":"NL","name":"Etten-Leur","lat":"51.577106","lng":"4.642526"},{"country":"NL","name":"Ferwerderadiel","lat":"53.321127","lng":"5.824331"},{"country":"NL","name":"Ferwerderadeel","lat":"53.321127","lng":"5.824331"},{"country":"NL","name":"Franekeradeel","lat":"53.197384","lng":"5.532757"},{"country":"NL","name":"Frjentsjerteradiel","lat":"53.197384","lng":"5.532757"},{"country":"NL","name":"Geldrop-Mierlo","lat":"51.432501","lng":"5.585471"},{"country":"NL","name":"Giessenlanden","lat":"51.87976","lng":"4.934487"},{"country":"NL","name":"Gouda","lat":"52.019175","lng":"4.707902"},{"country":"NL","name":"Graft-De Rijp","lat":"52.551117","lng":"4.817589"},{"country":"NL","name":"Grootegast","lat":"53.215568","lng":"6.282154"},{"country":"NL","name":"Gulpen-Wittem","lat":"50.798077","lng":"5.901505"},{"country":"NL","name":"Goeree-Overflakkee","lat":"51.753513","lng":"4.11264"},{"country":"NL","name":"Hoogkarspel","lat":"52.692357","lng":"5.175796"},{"country":"NL","name":"IJmuiden","lat":"52.454746","lng":"4.603171"},{"country":"NL","name":"Leiden","lat":"52.152742","lng":"4.483599"},{"country":"NL","name":"Leiderdorp","lat":"52.156402","lng":"4.541707"},{"country":"NL","name":"Leidschendam-Voorburg","lat":"52.087003","lng":"4.416108"},{"country":"NL","name":"Lelystad","lat":"52.475423","lng":"5.438113"},{"country":"NL","name":"Lemsterland","lat":"52.860261","lng":"5.759207"},{"country":"NL","name":"Leudal","lat":"51.232587","lng":"5.876716"},{"country":"NL","name":"Leusden","lat":"52.124184","lng":"5.412453"},{"country":"NL","name":"Lingewaal","lat":"51.850158","lng":"5.079067"},{"country":"NL","name":"Lingewaard","lat":"51.905049","lng":"5.951687"},{"country":"NL","name":"Lisse","lat":"52.256014","lng":"4.545264"},{"country":"NL","name":"Littenseradiel","lat":"53.118947","lng":"5.645643"},{"country":"NL","name":"Lochem","lat":"52.184781","lng":"6.336997"},{"country":"NL","name":"Lopik","lat":"51.989911","lng":"4.948512"},{"country":"NL","name":"Loppersum","lat":"53.338486","lng":"6.721492"},{"country":"NL","name":"Losser","lat":"52.298191","lng":"7.001064"},{"country":"NL","name":"Leeuwarden","lat":"53.20139","lng":"5.808588"},{"country":"NL","name":"Ljouwert","lat":"53.20139","lng":"5.808588"},{"country":"NL","name":"Scherpenzeel","lat":"52.091115","lng":"5.49916"},{"country":"NL","name":"Baarle-Nassau","lat":"51.435437","lng":"4.911797"},{"country":"NL","name":"Baarn","lat":"52.206015","lng":"5.271438"},{"country":"NL","name":"Barendrecht","lat":"51.849735","lng":"4.525401"},{"country":"NL","name":"Barneveld","lat":"52.168802","lng":"5.639852"},{"country":"NL","name":"Bedum","lat":"53.294624","lng":"6.597676"},{"country":"NL","name":"Beek","lat":"50.932372","lng":"5.805867"},{"country":"NL","name":"Beemster","lat":"52.558949","lng":"4.917952"},{"country":"NL","name":"Beesel","lat":"51.270161","lng":"6.067705"},{"country":"NL","name":"Bellingwedde","lat":"53.098349","lng":"7.11884"},{"country":"NL","name":"Wedde","lat":"53.069017","lng":"7.073197"},{"country":"NL","name":"Bergambacht","lat":"51.93141","lng":"4.75597"},{"country":"NL","name":"Bergen op Zoom","lat":"51.50451","lng":"4.291081"},{"country":"NL","name":"Best","lat":"51.5","lng":"5.383333"},{"country":"NL","name":"Oldenzaal","lat":"52.307498","lng":"6.907498"},{"country":"NL","name":"Olst-Wijhe","lat":"52.368759","lng":"6.150795"},{"country":"NL","name":"Ommen","lat":"52.516587","lng":"6.456306"},{"country":"NL","name":"Onderbanken","lat":"50.969743","lng":"5.965315"},{"country":"NL","name":"Oost Gelre","lat":"52.003587","lng":"6.568411"},{"country":"NL","name":"Oosterhout","lat":"51.634345","lng":"4.863986"},{"country":"NL","name":"Ooststellingwerf","lat":"52.982644","lng":"6.275146"},{"country":"NL","name":"Oostzaan","lat":"52.45228","lng":"4.875888"},{"country":"NL","name":"Opmeer","lat":"52.71468","lng":"4.953338"},{"country":"NL","name":"Opsterland","lat":"53.048489","lng":"6.121277"},{"country":"NL","name":"Oss","lat":"51.781028","lng":"5.581107"},{"country":"NL","name":"Oud-Beijerland","lat":"51.808664","lng":"4.412586"},{"country":"NL","name":"Oude IJsselstreek","lat":"51.908196","lng":"6.407699"},{"country":"NL","name":"Ouder-Amstel","lat":"52.289347","lng":"4.913911"},{"country":"NL","name":"Ouderkerk","lat":"51.965078","lng":"4.6708"},{"country":"NL","name":"Oudewater","lat":"52.028405","lng":"4.862427"},{"country":"NL","name":"Overbetuwe","lat":"51.92439","lng":"5.77218"},{"country":"NL","name":"Papendrecht","lat":"51.832802","lng":"4.704743"},{"country":"NL","name":"Peel en Maas","lat":"51.335659","lng":"5.996962"},{"country":"NL","name":"Alphen aan den Rijn","lat":"52.129737","lng":"4.688924"},{"country":"NL","name":"Ameland","lat":"53.45024","lng":"5.782766"},{"country":"NL","name":"Alphen-Chaam","lat":"51.50495","lng":"4.879732"},{"country":"NL","name":"Amersfoort","lat":"52.173752","lng":"5.389537"},{"country":"NL","name":"Amstelveen","lat":"52.286187","lng":"4.852157"},{"country":"NL","name":"Amsterdam","lat":"52.373015","lng":"4.898557"},{"country":"NL","name":"Apeldoorn","lat":"52.187221","lng":"5.919695"},{"country":"NL","name":"Arnhem","lat":"52.001125","lng":"5.896409"},{"country":"NL","name":"Assen","lat":"52.996346","lng":"6.552555"},{"country":"NL","name":"Asten","lat":"51.392311","lng":"5.779102"},{"country":"NL","name":"Aalsmeer","lat":"52.266667","lng":"4.766667"},{"country":"NL","name":"Aalten","lat":"51.92597","lng":"6.58045"},{"country":"NL","name":"Alblasserdam","lat":"51.866729","lng":"4.66268"},{"country":"NL","name":"Alkmaar","lat":"52.635818","lng":"4.75561"},{"country":"NL","name":"Almelo","lat":"52.359606","lng":"6.656797"},{"country":"NL","name":"Alphen","lat":"51.482986","lng":"4.956203"},{"country":"NL","name":"Alphen aan den Rijn","lat":"52.135141","lng":"4.654932"},{"country":"NL","name":"Amersfoort","lat":"52.156022","lng":"5.389526"},{"country":"NL","name":"Amstelveen","lat":"52.310658","lng":"4.876789"},{"country":"NL","name":"Apeldoorn","lat":"52.216667","lng":"5.966667"},{"country":"NL","name":"Appingedam","lat":"53.322206","lng":"6.84878"},{"country":"NL","name":"Asten","lat":"51.405948","lng":"5.749224"},{"country":"NL","name":"Ballum","lat":"53.444056","lng":"5.68756"},{"country":"NL","name":"Buitenpost","lat":"53.254334","lng":"6.152933"},{"country":"NL","name":"Gieten","lat":"53.006641","lng":"6.764338"},{"country":"NL","name":"Mijdrecht","lat":"52.208085","lng":"4.878136"},{"country":"NL","name":"Poortugaal","lat":"51.85494","lng":"4.396311"},{"country":"NL","name":"Roelofarendsveen","lat":"52.200025","lng":"4.631574"},{"country":"NL","name":"Almere","lat":"52.383922","lng":"5.233585"},{"country":"NL","name":"Loon op Zand","lat":"51.637825","lng":"5.048596"},{"country":"NL","name":"Aa en Hunze","lat":"52.997964","lng":"6.708645"},{"country":"NL","name":"Aalburg","lat":"51.740726","lng":"5.06578"},{"country":"NL","name":"Aalsmeer","lat":"52.253592","lng":"4.752155"},{"country":"NL","name":"Almere","lat":"52.374692","lng":"5.246816"},{"country":"NL","name":"Aalten","lat":"51.924199","lng":"6.565744"},{"country":"NL","name":"Achtkarspelen","lat":"53.211673","lng":"6.137759"},{"country":"NL","name":"Alblasserdam","lat":"51.862677","lng":"4.663828"},{"country":"NL","name":"Albrandswaard","lat":"51.85154","lng":"4.437727"},{"country":"NL","name":"Alkmaar","lat":"52.637398","lng":"4.751827"},{"country":"NL","name":"Almelo","lat":"52.344633","lng":"6.659425"},{"country":"NL","name":"Zutphen","lat":"52.13145","lng":"6.231319"},{"country":"NL","name":"Zwartewaterland","lat":"52.606432","lng":"6.064256"},{"country":"NL","name":"Zwolle","lat":"52.513375","lng":"6.111103"},{"country":"NL","name":"Grou","lat":"53.094559","lng":"5.83745"},{"country":"NL","name":"Asperen","lat":"51.882555","lng":"5.10497"},{"country":"NL","name":"Cuijk","lat":"51.728069","lng":"5.881147"},{"country":"NL","name":"Nieuw-Loosdrecht","lat":"52.200882","lng":"5.134442"},{"country":"NL","name":"Pijnacker-Nootdorp","lat":"52.026311","lng":"4.413036"},{"country":"NL","name":"Purmerend","lat":"52.499074","lng":"4.971039"},{"country":"NL","name":"Putten","lat":"52.244383","lng":"5.578272"},{"country":"NL","name":"Raalte","lat":"52.402992","lng":"6.287732"},{"country":"NL","name":"Reimerswaal","lat":"51.420401","lng":"4.131688"},{"country":"NL","name":"Renkum","lat":"51.990355","lng":"5.787228"},{"country":"NL","name":"Renswoude","lat":"52.072945","lng":"5.533518"},{"country":"NL","name":"Reusel-De Mierden","lat":"51.37729","lng":"5.147986"},{"country":"NL","name":"Rheden","lat":"52.033863","lng":"6.045469"},{"country":"NL","name":"Rhenen","lat":"51.979015","lng":"5.558983"},{"country":"NL","name":"Ridderkerk","lat":"51.869689","lng":"4.597854"},{"country":"NL","name":"Rijnwaarden","lat":"51.883713","lng":"6.081887"},{"country":"NL","name":"Rijnwoude","lat":"52.105115","lng":"4.58548"},{"country":"NL","name":"Rijssen-Holten","lat":"52.290354","lng":"6.440965"},{"country":"NL","name":"Rijswijk","lat":"52.034896","lng":"4.327849"},{"country":"NL","name":"Roerdalen","lat":"51.144662","lng":"6.057965"},{"country":"NL","name":"Roermond","lat":"51.199987","lng":"6.008998"},{"country":"NL","name":"Roosendaal","lat":"51.51149","lng":"4.4226"},{"country":"NL","name":"Rotterdam","lat":"51.88246","lng":"4.287838"},{"country":"NL","name":"Rozendaal","lat":"52.040514","lng":"5.968257"},{"country":"NL","name":"Rucphen","lat":"51.523572","lng":"4.565858"},{"country":"NL","name":"Schagen","lat":"52.785588","lng":"4.748039"},{"country":"NL","name":"Schermer","lat":"52.603284","lng":"4.835135"},{"country":"NL","name":"Schiedam","lat":"51.926498","lng":"4.386751"},{"country":"NL","name":"Schiermonnikoog","lat":"53.487069","lng":"6.229173"},{"country":"NL","name":"Schijndel","lat":"51.622366","lng":"5.436672"},{"country":"NL","name":"Schinnen","lat":"50.950716","lng":"5.887705"},{"country":"NL","name":"Schoonhoven","lat":"51.952624","lng":"4.84939"},{"country":"NL","name":"Schouwen-Duiveland","lat":"51.702629","lng":"3.926323"},{"country":"NL","name":"Simpelveld","lat":"50.829013","lng":"5.984102"},{"country":"NL","name":"Sint Anthonis","lat":"51.618259","lng":"5.843535"},{"country":"NL","name":"Sint-Michielsgestel","lat":"51.660756","lng":"5.378511"},{"country":"NL","name":"Sint-Oedenrode","lat":"51.563698","lng":"5.465368"},{"country":"NL","name":"Sittard-Geleen","lat":"51.00469","lng":"5.832379"},{"country":"NL","name":"Skarsterl\u00e2n","lat":"52.958628","lng":"5.787146"},{"country":"NL","name":"Spijkenisse","lat":"51.838155","lng":"4.351908"},{"country":"NL","name":"Stadskanaal","lat":"53.000053","lng":"6.989057"},{"country":"NL","name":"Staphorst","lat":"52.632408","lng":"6.207366"},{"country":"NL","name":"Stede Broec","lat":"52.700243","lng":"5.22733"},{"country":"NL","name":"Steenbergen","lat":"51.60081","lng":"4.320766"},{"country":"NL","name":"Steenwijkerland","lat":"52.746634","lng":"6.014256"},{"country":"NL","name":"Stein","lat":"50.973583","lng":"5.761261"},{"country":"NL","name":"Stichtse Vecht","lat":"52.189296","lng":"5.009091"},{"country":"NL","name":"Strijen","lat":"51.746211","lng":"4.550981"},{"country":"NL","name":"S\u00fadwest-Frysl\u00e2n","lat":"52.997297","lng":"5.525767"},{"country":"NL","name":"Zwijndrecht","lat":"51.821356","lng":"4.607737"},{"country":"NL","name":"Wijk en Aalburg","lat":"51.757179","lng":"5.130263"},{"country":"NL","name":"Zuidplas","lat":"52.002468","lng":"4.613007"},{"country":"NL","name":"Zundert","lat":"51.473518","lng":"4.641802"},{"country":"NL","name":"De Ronde Venen","lat":"52.23013","lng":"4.926744"},{"country":"NL","name":"Appingedam","lat":"53.319262","lng":"6.848642"},{"country":"NL","name":"Pekela","lat":"53.070981","lng":"6.970994"},{"country":"NL","name":"The Hague","lat":"52.083333","lng":"4.3"},{"country":"NL","name":"\u2019s-Gravenhage","lat":"52.083333","lng":"4.3"},{"country":"NL","name":"Haarlem","lat":"52.366667","lng":"4.65"},{"country":"NL","name":"Assen","lat":"52.994749","lng":"6.563223"},{"country":"NL","name":"Arnhem","lat":"51.979818","lng":"5.925636"},{"country":"NL","name":"Zwolle","lat":"52.505751","lng":"6.085822"},{"country":"NL","name":"\u2019s-Hertogenbosch","lat":"51.700196","lng":"5.306806"},{"country":"NL","name":"Utrecht","lat":"52.093813","lng":"5.119095"},{"country":"NL","name":"Heumen","lat":"51.774383","lng":"5.813119"},{"country":"NL","name":"Heusden","lat":"51.699752","lng":"5.165984"},{"country":"NL","name":"Hellevoetsluis","lat":"51.837634","lng":"4.125475"},{"country":"NL","name":"Hillegom","lat":"52.296159","lng":"4.578224"},{"country":"NL","name":"Hilvarenbeek","lat":"51.477719","lng":"5.147782"},{"country":"NL","name":"Helmond","lat":"51.479679","lng":"5.655588"},{"country":"NL","name":"Hilversum","lat":"52.222521","lng":"5.167891"},{"country":"NL","name":"Hof van Twente","lat":"52.225853","lng":"6.584647"},{"country":"NL","name":"Hollands Kroon","lat":"52.829333","lng":"4.948945"},{"country":"NL","name":"Hoogeveen","lat":"52.718204","lng":"6.518026"},{"country":"NL","name":"Hoogezand-Sappemeer","lat":"53.146116","lng":"6.73611"},{"country":"NL","name":"Hoorn","lat":"52.653371","lng":"5.065343"},{"country":"NL","name":"Horst aan de Maas","lat":"51.452342","lng":"6.032065"},{"country":"NL","name":"Echt-Susteren","lat":"51.088397","lng":"5.908577"},{"country":"NL","name":"Hendrik-Ido-Ambacht","lat":"51.842725","lng":"4.639746"},{"country":"NL","name":"Hengelo","lat":"52.259101","lng":"6.778756"},{"country":"NL","name":"Het Bildt","lat":"53.283971","lng":"5.648705"},{"country":"NL","name":"Drenthe","lat":"52.833333","lng":"6.583333"},{"country":"NL","name":"Flevoland","lat":"52.533333","lng":"5.666667"},{"country":"NL","name":"Gelderland","lat":"52","lng":"5.833333"},{"country":"NL","name":"Groningen","lat":"53.25","lng":"6.75"},{"country":"NL","name":"Limburg","lat":"51.25","lng":"6"},{"country":"NL","name":"Noord-Brabant","lat":"51.666667","lng":"5"},{"country":"NL","name":"Noord-Holland","lat":"52.583333","lng":"4.916667"},{"country":"NL","name":"Overijssel","lat":"52.416667","lng":"6.5"},{"country":"NL","name":"Utrecht","lat":"52","lng":"5.25"},{"country":"NL","name":"Zeeland","lat":"51.416667","lng":"3.75"},{"country":"NL","name":"Zuid-Holland","lat":"52","lng":"4.666667"},{"country":"NL","name":"Gennep","lat":"51.700631","lng":"5.984469"},{"country":"NL","name":"Goes","lat":"51.514999","lng":"3.839492"},{"country":"NL","name":"Groesbeek","lat":"51.784123","lng":"5.929679"},{"country":"NL","name":"Groningen","lat":"53.223685","lng":"6.564786"},{"country":"NL","name":"Grave","lat":"51.739702","lng":"5.743658"},{"country":"NL","name":"Gaasterl\u00e2n-Sleat","lat":"52.885109","lng":"5.556759"},{"country":"NL","name":"Emmen","lat":"52.752427","lng":"6.959378"},{"country":"NL","name":"Ede","lat":"52.081177","lng":"5.7449"},{"country":"NL","name":"Eemnes","lat":"52.252528","lng":"5.28391"},{"country":"NL","name":"Eijsden-Margraten","lat":"50.806102","lng":"5.771847"},{"country":"NL","name":"Frysl\u00e2n","lat":"53.166667","lng":"5.833333"},{"country":"NL","name":"Frysl\u00e2n","lat":"53.166667","lng":"5.833333"},{"country":"NL","name":"Enkhuizen","lat":"52.716526","lng":"5.276148"},{"country":"NL","name":"Enschede","lat":"52.219089","lng":"6.880406"},{"country":"NL","name":"Epe","lat":"52.333944","lng":"5.961752"},{"country":"NL","name":"Geertruidenberg","lat":"51.696336","lng":"4.878363"},{"country":"NL","name":"Goirle","lat":"51.508746","lng":"5.033813"},{"country":"NL","name":"Edam-Volendam","lat":"52.503725","lng":"5.042886"},{"country":"NL","name":"Barneveld","lat":"52.141642","lng":"5.584486"},{"country":"NL","name":"Barendrecht","lat":"51.853922","lng":"4.538639"},{"country":"NL","name":"Baarn","lat":"52.211494","lng":"5.29222"},{"country":"NL","name":"Baarle-Nassau","lat":"51.445401","lng":"4.929484"},{"country":"NL","name":"Bedum","lat":"53.299126","lng":"6.604137"},{"country":"NL","name":"Middenbeemster","lat":"52.550491","lng":"4.916609"},{"country":"NL","name":"Reuver","lat":"51.285526","lng":"6.076371"},{"country":"NL","name":"Beek","lat":"50.939978","lng":"5.796491"},{"country":"NL","name":"Gemert-Bakel","lat":"51.540134","lng":"5.751974"},{"country":"NL","name":"Geldermalsen","lat":"51.888812","lng":"5.226888"},{"country":"NL","name":"Eersel","lat":"51.395794","lng":"5.319558"},{"country":"NL","name":"Eemsmond","lat":"53.414665","lng":"6.702476"},{"country":"NL","name":"Eindhoven","lat":"51.450371","lng":"5.452785"},{"country":"NL","name":"Elburg","lat":"52.414867","lng":"5.848679"},{"country":"NL","name":"Gilze en Rijen","lat":"51.556563","lng":"4.912533"},{"country":"NL","name":"Gorinchem","lat":"51.838734","lng":"4.977125"},{"country":"NL","name":"Capelle aan den IJssel","lat":"51.937929","lng":"4.578969"},{"country":"NL","name":"Castricum","lat":"52.555774","lng":"4.689445"},{"country":"NL","name":"Coevorden","lat":"52.743437","lng":"6.724871"},{"country":"NL","name":"Cranendonck","lat":"51.288117","lng":"5.599764"},{"country":"NL","name":"Cromstrijen","lat":"51.743384","lng":"4.452785"},{"country":"NL","name":"Cuijk","lat":"51.717386","lng":"5.857726"},{"country":"NL","name":"Culemborg","lat":"51.944652","lng":"5.209456"},{"country":"NL","name":"Budel","lat":"51.27159","lng":"5.57471"},{"country":"NL","name":"Capelle aan den IJssel","lat":"51.929856","lng":"4.579586"},{"country":"NL","name":"Castricum","lat":"52.549912","lng":"4.670831"},{"country":"NL","name":"Coevorden","lat":"52.664762","lng":"6.742616"},{"country":"NL","name":"Culemborg","lat":"51.951872","lng":"5.231729"},{"country":"NL","name":"Numansdorp","lat":"51.731226","lng":"4.440564"},{"country":"NL","name":"Menterwolde","lat":"53.166036","lng":"6.877011"},{"country":"NL","name":"Meppel","lat":"52.708851","lng":"6.197271"},{"country":"NL","name":"Middelburg","lat":"51.497193","lng":"3.654591"},{"country":"NL","name":"IJsselstein","lat":"52.02912","lng":"5.028676"},{"country":"NL","name":"Hilvarenbeek","lat":"51.484585","lng":"5.132665"},{"country":"NL","name":"Hilversum","lat":"52.231896","lng":"5.179877"},{"country":"NL","name":"Hoogeveen","lat":"52.727704","lng":"6.489559"},{"country":"NL","name":"Hoogezand","lat":"53.163488","lng":"6.769863"},{"country":"NL","name":"Anna Paulowna","lat":"52.866667","lng":"4.866667"},{"country":"NL","name":"Bemmel","lat":"51.890107","lng":"5.891289"},{"country":"NL","name":"Bergschenhoek","lat":"51.987249","lng":"4.515815"},{"country":"NL","name":"Beek en Donk","lat":"51.516667","lng":"5.633333"},{"country":"NL","name":"Beilen","lat":"52.860718","lng":"6.515184"},{"country":"NL","name":"Bovenkarspel","lat":"52.698043","lng":"5.255178"},{"country":"NL","name":"Beek-Ubbergen","lat":"51.828858","lng":"5.932991"},{"country":"NL","name":"Beneden-Leeuwen","lat":"51.878054","lng":"5.517077"},{"country":"NL","name":"IJsselstein","lat":"52.024982","lng":"5.018862"},{"country":"NL","name":"\u2019s-Hertogenbosch","lat":"51.707865","lng":"5.318194"},{"country":"NL","name":"Haaksbergen","lat":"52.155137","lng":"6.754036"},{"country":"NL","name":"Haaren","lat":"51.618306","lng":"5.22779"},{"country":"NL","name":"Haarlem","lat":"52.380745","lng":"4.644004"},{"country":"NL","name":"Roden","lat":"53.139972","lng":"6.426214"},{"country":"NL","name":"Raalte","lat":"52.383776","lng":"6.280611"},{"country":"NL","name":"Renswoude","lat":"52.074493","lng":"5.540471"},{"country":"NL","name":"Reusel","lat":"51.361839","lng":"5.165557"},{"country":"NL","name":"Rhenen","lat":"51.963321","lng":"5.570359"},{"country":"NL","name":"Ridderkerk","lat":"51.872419","lng":"4.612876"},{"country":"NL","name":"Rijssen","lat":"52.308315","lng":"6.519603"},{"country":"NL","name":"Rijswijk","lat":"52.025498","lng":"4.310793"},{"country":"NL","name":"Haarlemmerliede en Spaarnwoude","lat":"52.404885","lng":"4.71578"},{"country":"NL","name":"Haarlemmermeer","lat":"52.306226","lng":"4.684176"},{"country":"NL","name":"Halderberge","lat":"51.588058","lng":"4.520299"},{"country":"NL","name":"Hardenberg","lat":"52.593116","lng":"6.534761"},{"country":"NL","name":"Harderwijk","lat":"52.3454","lng":"5.639483"},{"country":"NL","name":"Hardinxveld-Giessendam","lat":"51.825935","lng":"4.86428"},{"country":"NL","name":"Haren","lat":"53.156929","lng":"6.630628"},{"country":"NL","name":"Harlingen","lat":"53.176434","lng":"5.449131"},{"country":"NL","name":"Hattem","lat":"52.475661","lng":"6.051952"},{"country":"NL","name":"Heemskerk","lat":"52.514423","lng":"4.652324"},{"country":"NL","name":"Heemstede","lat":"52.346067","lng":"4.615695"},{"country":"NL","name":"Heerde","lat":"52.404672","lng":"6.044163"},{"country":"NL","name":"Heerenveen","lat":"52.942203","lng":"6.044099"},{"country":"NL","name":"Roermond","lat":"51.192695","lng":"5.988403"},{"country":"NL","name":"Roosendaal","lat":"51.537721","lng":"4.492456"},{"country":"NL","name":"Rotterdam","lat":"51.916667","lng":"4.5"},{"country":"NL","name":"Rozendaal","lat":"52.007364","lng":"5.965358"},{"country":"NL","name":"Rucphen","lat":"51.532362","lng":"4.558424"},{"country":"NL","name":"Rockanje","lat":"51.871485","lng":"4.069312"},{"country":"NL","name":"Kampen","lat":"52.558086","lng":"5.897808"},{"country":"NL","name":"Kapelle","lat":"51.647731","lng":"3.963151"},{"country":"NL","name":"Katwijk","lat":"52.195881","lng":"4.40584"},{"country":"NL","name":"Kerkrade","lat":"50.867438","lng":"6.066076"},{"country":"NL","name":"Kollum","lat":"53.276953","lng":"6.152927"},{"country":"NL","name":"Krimpen aan den IJssel","lat":"51.907205","lng":"4.578253"},{"country":"NL","name":"Kaatsheuvel","lat":"51.666667","lng":"5.066667"},{"country":"NL","name":"Kerkdriel","lat":"51.771634","lng":"5.335338"},{"country":"NL","name":"Kruiningen","lat":"51.45","lng":"4.033333"},{"country":"NL","name":"De Goorn","lat":"52.627549","lng":"4.94391"},{"country":"NL","name":"Didam","lat":"51.940861","lng":"6.138833"},{"country":"NL","name":"De Steeg","lat":"52.019687","lng":"6.060995"},{"country":"NL","name":"Drachten","lat":"53.112536","lng":"6.098897"},{"country":"NL","name":"Den Burg","lat":"53.056223","lng":"4.796742"},{"country":"NL","name":"Hoorn","lat":"52.649035","lng":"5.063112"},{"country":"NL","name":"Horst","lat":"51.451931","lng":"6.052266"},{"country":"NL","name":"Houten","lat":"52.033333","lng":"5.166667"},{"country":"NL","name":"Huizen","lat":"52.303148","lng":"5.258999"},{"country":"NL","name":"Hulst","lat":"51.281099","lng":"4.052964"},{"country":"NL","name":"Heythuysen","lat":"51.25072","lng":"5.896357"},{"country":"NL","name":"Hazerswoude-Rijndijk","lat":"52.126653","lng":"4.593365"},{"country":"NL","name":"Hoogerheide","lat":"51.425239","lng":"4.334323"},{"country":"NL","name":"Malden","lat":"51.7837","lng":"5.85321"},{"country":"NL","name":"Maasbracht","lat":"51.145124","lng":"5.889301"},{"country":"NL","name":"Maassluis","lat":"51.915011","lng":"4.273756"},{"country":"NL","name":"Marum","lat":"53.150866","lng":"6.265491"},{"country":"NL","name":"Meerssen","lat":"50.883747","lng":"5.758779"},{"country":"NL","name":"Houten","lat":"51.999317","lng":"5.189702"},{"country":"NL","name":"Huizen","lat":"52.296638","lng":"5.241316"},{"country":"NL","name":"Hulst","lat":"51.318973","lng":"4.086905"},{"country":"NL","name":"Doorn","lat":"52.036875","lng":"5.343049"},{"country":"NL","name":"Domburg","lat":"51.562776","lng":"3.500941"},{"country":"NL","name":"Diever","lat":"52.857015","lng":"6.318489"},{"country":"NL","name":"Piershil","lat":"51.79563","lng":"4.314671"},{"country":"NL","name":"Papendrecht","lat":"51.837307","lng":"4.698733"},{"country":"NL","name":"Panningen","lat":"51.329272","lng":"5.982866"},{"country":"NL","name":"Pijnacker","lat":"52.018346","lng":"4.418111"},{"country":"NL","name":"Purmerend","lat":"52.509624","lng":"4.963885"},{"country":"NL","name":"Putten","lat":"52.260897","lng":"5.613074"},{"country":"NL","name":"Kaag en Braassem","lat":"52.189631","lng":"4.633253"},{"country":"NL","name":"Meppel","lat":"52.7","lng":"6.2"},{"country":"NL","name":"Mill","lat":"51.685025","lng":"5.783565"},{"country":"NL","name":"Millingen aan de Rijn","lat":"51.863041","lng":"6.048631"},{"country":"NL","name":"Montfoort","lat":"52.048133","lng":"4.956201"},{"country":"NL","name":"Mook","lat":"51.749816","lng":"5.88601"},{"country":"NL","name":"Muiden","lat":"52.327246","lng":"5.072443"},{"country":"NL","name":"Maarssen","lat":"52.143509","lng":"5.044809"},{"country":"NL","name":"Monnickendam","lat":"52.454115","lng":"5.038797"},{"country":"NL","name":"Meerkerk","lat":"51.91689","lng":"4.990528"},{"country":"NL","name":"Hasselt","lat":"52.59199","lng":"6.096794"},{"country":"NL","name":"Zaltbommel","lat":"51.806782","lng":"5.243605"},{"country":"NL","name":"Zandvoort","lat":"52.371424","lng":"4.527049"},{"country":"NL","name":"Zeewolde","lat":"52.330224","lng":"5.536412"},{"country":"NL","name":"Zeist","lat":"52.094411","lng":"5.241944"},{"country":"NL","name":"Zevenaar","lat":"51.925387","lng":"6.095747"},{"country":"NL","name":"Zoeterwoude","lat":"52.121128","lng":"4.496406"},{"country":"NL","name":"Zuidhorn","lat":"53.25101","lng":"6.408798"},{"country":"NL","name":"Zundert","lat":"51.469444","lng":"4.658109"},{"country":"NL","name":"Zutphen","lat":"52.140449","lng":"6.204791"},{"country":"NL","name":"Zwijndrecht","lat":"51.816684","lng":"4.61763"},{"country":"NL","name":"Zeeland","lat":"51.696891","lng":"5.674621"},{"country":"NL","name":"Zuid-Scharwoude","lat":"52.685708","lng":"4.806205"},{"country":"NL","name":"Zevenbergen","lat":"51.647748","lng":"4.599608"},{"country":"NL","name":"Zierikzee","lat":"51.651451","lng":"3.916771"},{"country":"NL","name":"Goor","lat":"52.23549","lng":"6.585339"},{"country":"NL","name":"Geffen","lat":"51.739506","lng":"5.468606"},{"country":"NL","name":"Gendringen","lat":"51.873406","lng":"6.373995"},{"country":"NL","name":"Beetstersweach","lat":"53.062336","lng":"6.078687"},{"country":"NL","name":"Beetsterzwaag","lat":"53.062336","lng":"6.078687"},{"country":"NL","name":"Menaam","lat":"53.221067","lng":"5.663839"},{"country":"NL","name":"Menaldum","lat":"53.221067","lng":"5.663839"},{"country":"NL","name":"Snits","lat":"53.032883","lng":"5.663313"},{"country":"NL","name":"Sneek","lat":"53.032883","lng":"5.663313"},{"country":"NL","name":"Harlingen","lat":"53.173766","lng":"5.430244"},{"country":"NL","name":"It Hearrenfean","lat":"52.959349","lng":"5.918921"},{"country":"NL","name":"Heerenveen","lat":"52.959349","lng":"5.918921"},{"country":"NL","name":"Landgraaf","lat":"50.911665","lng":"6.046677"},{"country":"NL","name":"Landsmeer","lat":"52.431132","lng":"4.91894"},{"country":"NL","name":"Laren","lat":"52.248702","lng":"5.230203"},{"country":"NL","name":"Leek","lat":"53.162932","lng":"6.371627"},{"country":"NL","name":"Leerdam","lat":"51.895588","lng":"5.09177"},{"country":"NL","name":"Leiden","lat":"52.176281","lng":"4.528154"},{"country":"NL","name":"Leiderdorp","lat":"52.15638","lng":"4.537878"},{"country":"NL","name":"Leidschendam","lat":"52.089817","lng":"4.393978"},{"country":"NL","name":"Lemmer","lat":"52.846182","lng":"5.709116"},{"country":"NL","name":"Leusden","lat":"52.133333","lng":"5.466667"},{"country":"NL","name":"Lisse","lat":"52.253825","lng":"4.547463"},{"country":"NL","name":"Lochem","lat":"52.160808","lng":"6.4151"},{"country":"NL","name":"Leeuwarden","lat":"53.186022","lng":"5.811114"},{"country":"NL","name":"Ljouwert","lat":"53.186022","lng":"5.811114"},{"country":"NL","name":"Leeuwarderadeel","lat":"53.260041","lng":"5.777798"},{"country":"NL","name":"Ljouwerteradiel","lat":"53.260041","lng":"5.777798"},{"country":"NL","name":"Bergeijk","lat":"51.301817","lng":"5.339462"},{"country":"NL","name":"Bergen","lat":"52.657833","lng":"4.676104"},{"country":"NL","name":"Bergen","lat":"51.577167","lng":"6.090145"},{"country":"NL","name":"Berkelland","lat":"52.105555","lng":"6.576169"},{"country":"NL","name":"Bernheze","lat":"51.684025","lng":"5.519367"},{"country":"NL","name":"Bernisse","lat":"51.827241","lng":"4.233157"},{"country":"NL","name":"Abbenbroek","lat":"51.849024","lng":"4.248172"},{"country":"NL","name":"Bergambacht","lat":"51.933771","lng":"4.786438"},{"country":"NL","name":"Bergen","lat":"51.600383","lng":"6.034003"},{"country":"NL","name":"Bergen op Zoom","lat":"51.494492","lng":"4.283509"},{"country":"NL","name":"Bergeijk","lat":"51.318699","lng":"5.359563"},{"country":"NL","name":"Best","lat":"51.504884","lng":"5.392854"},{"country":"NL","name":"Borculo","lat":"52.116011","lng":"6.520741"},{"country":"NL","name":"Kampen","lat":"52.561814","lng":"5.915354"},{"country":"NL","name":"Heesch","lat":"51.732164","lng":"5.525301"},{"country":"NL","name":"Overveen","lat":"52.393298","lng":"4.606588"},{"country":"NL","name":"Beuningen","lat":"51.859498","lng":"5.743623"},{"country":"NL","name":"Beverwijk","lat":"52.488567","lng":"4.648004"},{"country":"NL","name":"Binnenmaas","lat":"51.800703","lng":"4.533138"},{"country":"NL","name":"Beuningen","lat":"51.859898","lng":"5.766456"},{"country":"NL","name":"Beverwijk","lat":"52.49126","lng":"4.652082"},{"country":"NL","name":"Maasdam","lat":"51.789286","lng":"4.555145"},{"country":"NL","name":"Bladel","lat":"51.370134","lng":"5.242834"},{"country":"NL","name":"Blaricum","lat":"52.28548","lng":"5.268299"},{"country":"NL","name":"Bloemendaal","lat":"52.362295","lng":"4.589684"},{"country":"NL","name":"Bladel","lat":"51.369191","lng":"5.218936"},{"country":"NL","name":"Blaricum","lat":"52.273551","lng":"5.24929"},{"country":"NL","name":"Boarnsterhim","lat":"53.09117","lng":"5.831521"},{"country":"NL","name":"Bodegraven-Reeuwijk","lat":"52.060847","lng":"4.766569"},{"country":"NL","name":"Boekel","lat":"51.604895","lng":"5.69357"},{"country":"NL","name":"Katwijk","lat":"52.190288","lng":"4.421288"},{"country":"NL","name":"Kapelle","lat":"51.482231","lng":"3.965237"},{"country":"NL","name":"Kerkrade","lat":"50.873374","lng":"6.048759"},{"country":"NL","name":"Borger-Odoorn","lat":"52.905007","lng":"6.880421"},{"country":"NL","name":"Borne","lat":"52.311202","lng":"6.744039"},{"country":"NL","name":"Borsele","lat":"51.441906","lng":"3.811268"},{"country":"NL","name":"Boskoop","lat":"52.081461","lng":"4.670703"},{"country":"NL","name":"Boxmeer","lat":"51.633333","lng":"5.95"},{"country":"NL","name":"Boxtel","lat":"51.584716","lng":"5.326539"},{"country":"NL","name":"Breda","lat":"51.577904","lng":"4.760387"},{"country":"NL","name":"Brielle","lat":"51.888187","lng":"4.184806"},{"country":"NL","name":"Bronckhorst","lat":"52.056476","lng":"6.295099"},{"country":"NL","name":"Brummen","lat":"52.110634","lng":"6.117909"},{"country":"NL","name":"Brunssum","lat":"50.944511","lng":"5.976184"},{"country":"NL","name":"Bunnik","lat":"52.042276","lng":"5.216644"},{"country":"NL","name":"Bunschoten","lat":"52.242487","lng":"5.358365"},{"country":"NL","name":"Buren","lat":"51.944297","lng":"5.414289"},{"country":"NL","name":"Bussum","lat":"52.270951","lng":"5.165177"},{"country":"NL","name":"Hengelo","lat":"52.267379","lng":"6.789658"},{"country":"NL","name":"Sint Annaparochie","lat":"53.276414","lng":"5.656969"},{"country":"NL","name":"Stiens","lat":"53.259824","lng":"5.764857"},{"country":"NL","name":"Schipluiden","lat":"51.974596","lng":"4.319217"},{"country":"NL","name":"Schinveld","lat":"50.968895","lng":"5.981717"},{"country":"NL","name":"Sint Odili\u00ebnberg","lat":"51.144741","lng":"6.001897"},{"country":"NL","name":"Stein","lat":"50.968414","lng":"5.767249"},{"country":"NL","name":"Steenwijk","lat":"52.78565","lng":"6.137477"},{"country":"NL","name":"Steenbergen","lat":"51.585542","lng":"4.322397"},{"country":"NL","name":"Staphorst","lat":"52.644273","lng":"6.210885"},{"country":"NL","name":"Stadskanaal","lat":"53.00692","lng":"6.9225"},{"country":"NL","name":"Spijkenisse","lat":"51.841105","lng":"4.315098"},{"country":"NL","name":"Son en Breugel","lat":"51.516667","lng":"5.5"},{"country":"NL","name":"Someren","lat":"51.385715","lng":"5.712161"},{"country":"NL","name":"Soest","lat":"52.180667","lng":"5.302906"},{"country":"NL","name":"Slochteren","lat":"53.218315","lng":"6.810277"},{"country":"NL","name":"Sliedrecht","lat":"51.827601","lng":"4.773104"},{"country":"NL","name":"Sittard","lat":"50.995734","lng":"5.874759"},{"country":"NL","name":"Sint-Oedenrode","lat":"51.568126","lng":"5.457817"},{"country":"NL","name":"Sint-Michielsgestel","lat":"51.642734","lng":"5.355776"},{"country":"NL","name":"Sint Anthonis","lat":"51.627215","lng":"5.880679"},{"country":"NL","name":"Simpelveld","lat":"50.834094","lng":"5.97529"},{"country":"NL","name":"Schoonhoven","lat":"51.948241","lng":"4.847943"},{"country":"NL","name":"Schinnen","lat":"50.943293","lng":"5.892579"},{"country":"NL","name":"Schijndel","lat":"51.622291","lng":"5.440344"},{"country":"NL","name":"Schiermonnikoog","lat":"53.480255","lng":"6.152092"},{"country":"NL","name":"Schiedam","lat":"51.932178","lng":"4.39268"},{"country":"NL","name":"Scherpenzeel","lat":"52.08418","lng":"5.511402"},{"country":"NL","name":"Stompetoren","lat":"52.615347","lng":"4.822788"},{"country":"NL","name":"Schagen","lat":"52.787325","lng":"4.806897"},{"country":"NL","name":"Strijen","lat":"51.744569","lng":"4.55104"},{"country":"NL","name":"Stolwijk","lat":"51.971961","lng":"4.772934"},{"country":"NL","name":"Sellingen","lat":"52.944533","lng":"7.152027"},{"country":"NL","name":"Sassenheim","lat":"52.224359","lng":"4.522668"},{"country":"NL","name":"Hillegom","lat":"52.29385","lng":"4.593843"},{"country":"NL","name":"Koggenland","lat":"52.639613","lng":"4.951756"},{"country":"NL","name":"Kollumerland en Nieuwkruisland","lat":"53.290657","lng":"6.169148"},{"country":"NL","name":"Korendijk","lat":"51.764289","lng":"4.320224"},{"country":"NL","name":"Krimpen aan den IJssel","lat":"51.914922","lng":"4.598776"},{"country":"NL","name":"Laarbeek","lat":"51.531179","lng":"5.612496"},{"country":"NL","name":"Landerd","lat":"51.715617","lng":"5.659534"},{"country":"NL","name":"Landgraaf","lat":"50.906518","lng":"6.039527"},{"country":"NL","name":"Landsmeer","lat":"52.451713","lng":"4.923949"},{"country":"NL","name":"Lansingerland","lat":"52.002795","lng":"4.507084"},{"country":"NL","name":"Langedijk","lat":"52.691512","lng":"4.786589"},{"country":"NL","name":"Laren","lat":"52.245184","lng":"5.217013"},{"country":"NL","name":"Leek","lat":"53.168815","lng":"6.369762"},{"country":"NL","name":"Leerdam","lat":"51.901507","lng":"5.08765"},{"country":"NL","name":"Etten-Leur","lat":"51.574216","lng":"4.666667"},{"country":"NL","name":"Echt","lat":"51.112082","lng":"5.870914"},{"country":"NL","name":"Elburg","lat":"52.448691","lng":"5.833627"},{"country":"NL","name":"Emmen","lat":"52.792471","lng":"6.894744"},{"country":"NL","name":"Enschede","lat":"52.219515","lng":"6.891235"},{"country":"NL","name":"Epe","lat":"52.348095","lng":"5.984471"},{"country":"NL","name":"Gennep","lat":"51.694099","lng":"5.977146"},{"country":"NL","name":"Uithuizen","lat":"53.40825","lng":"6.670896"},{"country":"NL","name":"Ede","lat":"52.035253","lng":"5.677743"},{"country":"NL","name":"Eemnes","lat":"52.252639","lng":"5.262364"},{"country":"NL","name":"Eersel","lat":"51.356604","lng":"5.31992"},{"country":"NL","name":"Ermelo","lat":"52.297759","lng":"5.632076"},{"country":"NL","name":"Geldrop","lat":"51.422362","lng":"5.571822"},{"country":"NL","name":"Gemert","lat":"51.556798","lng":"5.679565"},{"country":"NL","name":"Goirle","lat":"51.52349","lng":"5.071676"},{"country":"NL","name":"Gorinchem","lat":"51.82965","lng":"4.973111"},{"country":"NL","name":"Hoornaar","lat":"51.880385","lng":"4.946843"},{"country":"NL","name":"Raamsdonksveer","lat":"51.699337","lng":"4.879164"},{"country":"NL","name":"Rijen","lat":"51.591992","lng":"4.916758"},{"country":"NL","name":"Balk","lat":"52.898539","lng":"5.58716"},{"country":"NL","name":"Eijsden","lat":"50.777735","lng":"5.710742"},{"country":"NL","name":"Enkhuizen","lat":"52.712352","lng":"5.279958"},{"country":"NL","name":"Ferwerd","lat":"53.338486","lng":"5.829148"},{"country":"NL","name":"Ferwert","lat":"53.338486","lng":"5.829148"},{"country":"NL","name":"Frjentsjer","lat":"53.1896","lng":"5.542568"},{"country":"NL","name":"Franeker","lat":"53.1896","lng":"5.542568"},{"country":"NL","name":"Goes","lat":"51.503848","lng":"3.899894"},{"country":"NL","name":"Middelharnis","lat":"51.756017","lng":"4.163479"},{"country":"NL","name":"Volendam","lat":"52.497109","lng":"5.074467"},{"country":"NL","name":"Eindhoven","lat":"51.45","lng":"5.466667"},{"country":"NL","name":"Geldermalsen","lat":"51.883333","lng":"5.3"},{"country":"NL","name":"Halfweg","lat":"52.383033","lng":"4.757441"},{"country":"NL","name":"Hardinxveld-Giessendam","lat":"51.82658","lng":"4.851569"},{"country":"NL","name":"De Rijp","lat":"52.558168","lng":"4.841879"},{"country":"NL","name":"Gouda","lat":"52.022582","lng":"4.707001"},{"country":"NL","name":"Grave","lat":"51.758614","lng":"5.739412"},{"country":"NL","name":"Groesbeek","lat":"51.773859","lng":"5.940149"},{"country":"NL","name":"Grootegast","lat":"53.211598","lng":"6.2752"},{"country":"NL","name":"Gulpen","lat":"50.815591","lng":"5.890796"},{"country":"NL","name":"Haaksbergen","lat":"52.156875","lng":"6.739496"},{"country":"NL","name":"Haaren","lat":"51.601402","lng":"5.225937"},{"country":"NL","name":"Hardenberg","lat":"52.574315","lng":"6.622013"},{"country":"NL","name":"Harderwijk","lat":"52.35","lng":"5.633333"},{"country":"NL","name":"Haren","lat":"53.176674","lng":"6.630369"},{"country":"NL","name":"Hattem","lat":"52.47238","lng":"6.069615"},{"country":"NL","name":"Heemskerk","lat":"52.511077","lng":"4.671646"},{"country":"NL","name":"Heemstede","lat":"52.35","lng":"4.616667"},{"country":"NL","name":"Heerde","lat":"52.389029","lng":"6.03942"},{"country":"NL","name":"Heerhugowaard","lat":"52.663987","lng":"4.827289"},{"country":"NL","name":"Heerlen","lat":"50.882832","lng":"5.962319"},{"country":"NL","name":"Heeze","lat":"51.382801","lng":"5.571454"},{"country":"NL","name":"Dongen","lat":"51.637539","lng":"4.953611"},{"country":"NL","name":"Dordrecht","lat":"51.799015","lng":"4.741591"},{"country":"NL","name":"Drimmelen","lat":"51.695075","lng":"4.754146"},{"country":"NL","name":"Dronten","lat":"52.5","lng":"5.716667"},{"country":"NL","name":"Druten","lat":"51.871836","lng":"5.613225"},{"country":"NL","name":"Duiven","lat":"51.947395","lng":"6.017203"},{"country":"NL","name":"De Marne","lat":"53.369883","lng":"6.362637"},{"country":"NL","name":"De Wolden","lat":"52.693366","lng":"6.369423"},{"country":"NL","name":"Dinkelland","lat":"52.364774","lng":"6.915223"},{"country":"NL","name":"Dongeradeel","lat":"53.360686","lng":"6.033377"},{"country":"NL","name":"Drechterland","lat":"52.664629","lng":"5.167441"},{"country":"NL","name":"Heiloo","lat":"52.60252","lng":"4.68815"},{"country":"NL","name":"Hellevoetsluis","lat":"51.827088","lng":"4.130596"},{"country":"NL","name":"Helmond","lat":"51.481431","lng":"5.700121"},{"country":"NL","name":"Hoofddorp","lat":"52.312058","lng":"4.693128"},{"country":"NL","name":"Nijverdal","lat":"52.355828","lng":"6.48779"},{"country":"NL","name":"Oudenbosch","lat":"51.587974","lng":"4.529467"},{"country":"NL","name":"Boekel","lat":"51.60165","lng":"5.673885"},{"country":"NL","name":"Bodegraven","lat":"52.086135","lng":"4.756828"},{"country":"NL","name":"Exloo","lat":"52.880206","lng":"6.86107"},{"country":"NL","name":"Borne","lat":"52.301356","lng":"6.748199"},{"country":"NL","name":"Heinkenszand","lat":"51.473","lng":"3.812778"},{"country":"NL","name":"Boskoop","lat":"52.069873","lng":"4.667693"},{"country":"NL","name":"Boxmeer","lat":"51.644012","lng":"5.960815"},{"country":"NL","name":"Boxtel","lat":"51.590116","lng":"5.328162"},{"country":"NL","name":"Breda","lat":"51.566667","lng":"4.8"},{"country":"NL","name":"Brielle","lat":"51.900408","lng":"4.171243"},{"country":"NL","name":"Hengelo","lat":"52.051098","lng":"6.311347"},{"country":"NL","name":"Brummen","lat":"52.089817","lng":"6.156512"},{"country":"NL","name":"Brunssum","lat":"50.95","lng":"5.966667"},{"country":"NL","name":"Odijk","lat":"52.052239","lng":"5.235418"},{"country":"NL","name":"Maurik","lat":"51.95991","lng":"5.420958"},{"country":"NL","name":"Bussum","lat":"52.2655","lng":"5.179357"},{"country":"NL","name":"Bunschoten-Spakenburg","lat":"52.241667","lng":"5.374795"}]