[{"country":"PK","name":"Lahore","lat":"31.549722","lng":"74.343611"},{"country":"PK","name":"Qila Saifull\u0101h","lat":"30.701297","lng":"68.359932"},{"country":"PK","name":"Chiniot","lat":"31.72","lng":"72.978889"},{"country":"PK","name":"Batgr\u0101m","lat":"34.681841","lng":"73.031712"},{"country":"PK","name":"Karachi","lat":"24.9056","lng":"67.0822"},{"country":"PK","name":"W\u0101shuk","lat":"27.75","lng":"64.5"},{"country":"PK","name":"Naw\u0101bsh\u0101h","lat":"26.366552","lng":"68.31772"},{"country":"PK","name":"Khairpur","lat":"26.834771","lng":"69.064438"},{"country":"PK","name":"Shik\u0101rpur","lat":"27.95321","lng":"68.609189"},{"country":"PK","name":"L\u0101rk\u0101na","lat":"27.521108","lng":"68.192084"},{"country":"PK","name":"Jacob\u0101b\u0101d","lat":"28.222096","lng":"68.490198"},{"country":"PK","name":"Rah\u012bmy\u0101r Kh\u0101n","lat":"28.460202","lng":"70.528368"},{"country":"PK","name":"Bah\u0101walpur","lat":"28.839932","lng":"71.712717"},{"country":"PK","name":"B\u0101rkh\u0101n","lat":"29.984818","lng":"69.699439"},{"country":"PK","name":"Dera Bugti","lat":"28.942498","lng":"69.06883"},{"country":"PK","name":"Kohlu","lat":"29.644141","lng":"68.80721"},{"country":"PK","name":"Loralai","lat":"30.302526","lng":"68.846363"},{"country":"PK","name":"Bol\u0101n","lat":"29.211453","lng":"67.73273"},{"country":"PK","name":"Nas\u012br\u0101b\u0101d","lat":"28.626434","lng":"68.12925"},{"country":"PK","name":"J\u0101far\u0101b\u0101d","lat":"28.301041","lng":"68.197833"},{"country":"PK","name":"Bah\u0101walnagar","lat":"29.641057","lng":"73.025311"},{"country":"PK","name":"S\u0101h\u012bw\u0101l","lat":"30.548242","lng":"72.913648"},{"country":"PK","name":"Mult\u0101n","lat":"29.933116","lng":"71.386067"},{"country":"PK","name":"Muzaffargarh","lat":"30.037392","lng":"71.058757"},{"country":"PK","name":"R\u0101walpindi","lat":"33.429868","lng":"73.230917"},{"country":"PK","name":"Attock","lat":"33.508119","lng":"72.334163"},{"country":"PK","name":"Gujr\u0101t","lat":"32.700495","lng":"74.054468"},{"country":"PK","name":"S\u0101nghar","lat":"25.979642","lng":"69.29361"},{"country":"PK","name":"Jhang","lat":"31.328036","lng":"72.355009"},{"country":"PK","name":"Mi\u0101nw\u0101li","lat":"32.701261","lng":"71.51325"},{"country":"PK","name":"Sargodha","lat":"32.089576","lng":"72.719736"},{"country":"PK","name":"Faisal\u0101b\u0101d","lat":"31.23089","lng":"73.197533"},{"country":"PK","name":"Kas\u016br","lat":"31.006952","lng":"74.135338"},{"country":"PK","name":"Lahore","lat":"31.486275","lng":"74.397895"},{"country":"PK","name":"Shekh\u016bpura","lat":"31.709691","lng":"74.138204"},{"country":"PK","name":"Gujr\u0101nw\u0101la","lat":"32.188499","lng":"74.053622"},{"country":"PK","name":"Aw\u0101r\u0101n","lat":"26.211568","lng":"65.429442"},{"country":"PK","name":"M\u016bsa Khel","lat":"30.849368","lng":"69.900687"},{"country":"PK","name":"Zi\u0101rat","lat":"30.435911","lng":"67.509622"},{"country":"PK","name":"Jhelum","lat":"32.820503","lng":"73.355997"},{"country":"PK","name":"Kas\u016br","lat":"31.115556","lng":"74.446667"},{"country":"PK","name":"Isl\u0101m\u0101b\u0101d","lat":"33.69","lng":"73.0551"},{"country":"PK","name":"Kashmor at Kandhkot","lat":"28.265175","lng":"69.228005"},{"country":"PK","name":"\u012adg\u0101h","lat":"35.3447","lng":"74.8561"},{"country":"PK","name":"Gw\u0101dar","lat":"25.12163","lng":"62.325411"},{"country":"PK","name":"Uthal","lat":"25.807222","lng":"66.621944"},{"country":"PK","name":"Aw\u0101r\u0101n","lat":"26.4555","lng":"65.2312"},{"country":"PK","name":"Kh\u0101r\u0101n","lat":"28.583333","lng":"65.416667"},{"country":"PK","name":"Khuzd\u0101r","lat":"27.738385","lng":"66.643365"},{"country":"PK","name":"Mastung","lat":"29.799358","lng":"66.845053"},{"country":"PK","name":"Gand\u0101va","lat":"28.6127","lng":"67.4854"},{"country":"PK","name":"Jhatpat","lat":"28.374772","lng":"68.348744"},{"country":"PK","name":"Dera Mur\u0101d Jam\u0101li","lat":"28.546568","lng":"68.223081"},{"country":"PK","name":"Dera Bugti","lat":"29.03069","lng":"69.150992"},{"country":"PK","name":"Kohlu","lat":"29.896151","lng":"69.251988"},{"country":"PK","name":"Sibi","lat":"29.5448","lng":"67.8764"},{"country":"PK","name":"\u067e\u0634\u06cc","lat":"30.580278","lng":"66.996111"},{"country":"PK","name":"Pishin","lat":"30.580278","lng":"66.996111"},{"country":"PK","name":"Zhob","lat":"31.341111","lng":"69.448056"},{"country":"PK","name":"Qila Abdull\u0101h","lat":"30.729167","lng":"66.660833"},{"country":"PK","name":"M\u016bsa Khel B\u0101z\u0101r","lat":"30.860573","lng":"69.822953"},{"country":"PK","name":"Palandri","lat":"33.717702","lng":"73.687389"},{"country":"PK","name":"Bhimbar","lat":"32.975675","lng":"74.079259"},{"country":"PK","name":"Kotli","lat":"33.516667","lng":"73.916667"},{"country":"PK","name":"Toba Tek Singh","lat":"30.974326","lng":"72.482694"},{"country":"PK","name":"Zi\u0101rat","lat":"30.382295","lng":"67.728218"},{"country":"PK","name":"Loralai","lat":"30.370531","lng":"68.597981"},{"country":"PK","name":"B\u0101rkh\u0101n","lat":"29.897696","lng":"69.52555"},{"country":"PK","name":"\u0628\u0627\u0631\u06a9\u06be\u0627\u0646","lat":"29.897696","lng":"69.52555"},{"country":"PK","name":"Muzaffar\u0101b\u0101d","lat":"34.37002","lng":"73.47082"},{"country":"PK","name":"Panjg\u016br","lat":"26.964461","lng":"64.09028"},{"country":"PK","name":"Jacob\u0101b\u0101d","lat":"28.281004","lng":"68.438759"},{"country":"PK","name":"Tando Muhammad Kh\u0101n","lat":"25.123007","lng":"68.535773"},{"country":"PK","name":"Jamshoro","lat":"25.439393","lng":"68.290271"},{"country":"PK","name":"Hyder\u0101b\u0101d","lat":"25.39242","lng":"68.373656"},{"country":"PK","name":"S\u0101nghar","lat":"26.046558","lng":"68.9481"},{"country":"PK","name":"Naw\u0101bsh\u0101h","lat":"26.248334","lng":"68.409554"},{"country":"PK","name":"Bad\u012bn","lat":"24.655994","lng":"68.838412"},{"country":"PK","name":"Umarkot","lat":"25.36157","lng":"69.736241"},{"country":"PK","name":"Sibi","lat":"29.840645","lng":"68.015519"},{"country":"PK","name":"Hunza-Nagar","lat":"36.497215","lng":"75.004144"},{"country":"PK","name":"B\u0101gh","lat":"33.996108","lng":"73.757687"},{"country":"PK","name":"Muzaffar\u0101b\u0101d","lat":"34.342795","lng":"73.589864"},{"country":"PK","name":"Si\u0101lkot","lat":"32.443325","lng":"74.56817"},{"country":"PK","name":"Sukkur","lat":"27.499586","lng":"69.14697"},{"country":"PK","name":"Sw\u0101t","lat":"35.241602","lng":"72.499333"},{"country":"PK","name":"Vih\u0101ri","lat":"30.008427","lng":"72.391169"},{"country":"PK","name":"M\u012brpur","lat":"33.215559","lng":"73.751436"},{"country":"PK","name":"P\u016bnch","lat":"33.816906","lng":"73.825201"},{"country":"PK","name":"Koh\u0101t","lat":"33.449111","lng":"71.543938"},{"country":"PK","name":"Kohist\u0101n","lat":"35.325001","lng":"73.229233"},{"country":"PK","name":"Malakand","lat":"34.536347","lng":"71.884702"},{"country":"PK","name":"M\u0101nsehra","lat":"34.648273","lng":"73.464695"},{"country":"PK","name":"Mard\u0101n","lat":"34.306708","lng":"72.090417"},{"country":"PK","name":"Pesh\u0101war","lat":"33.985119","lng":"71.557837"},{"country":"PK","name":"Abbott\u0101b\u0101d","lat":"34.094972","lng":"73.260429"},{"country":"PK","name":"B\u0101jaur","lat":"34.757318","lng":"71.490673"},{"country":"PK","name":"Mohmand","lat":"34.46386","lng":"71.351161"},{"country":"PK","name":"Khyber","lat":"33.961134","lng":"71.057703"},{"country":"PK","name":"Orakzai","lat":"33.707767","lng":"71.00238"},{"country":"PK","name":"Kurram","lat":"33.710172","lng":"70.340096"},{"country":"PK","name":"North Waz\u012brist\u0101n","lat":"32.950871","lng":"69.957639"},{"country":"PK","name":"Bannu","lat":"32.903565","lng":"70.636761"},{"country":"PK","name":"Dera Ism\u0101\u012bl Kh\u0101n","lat":"31.859627","lng":"70.648788"},{"country":"PK","name":"South Waz\u012brist\u0101n","lat":"32.303972","lng":"69.682074"},{"country":"PK","name":"Kotli","lat":"33.445591","lng":"73.915571"},{"country":"PK","name":"Qila Saifull\u0101h","lat":"30.953922","lng":"68.339962"},{"country":"PK","name":"Pish\u012bn","lat":"30.818095","lng":"67.213891"},{"country":"PK","name":"Qila Abdull\u0101h","lat":"30.69854","lng":"66.556112"},{"country":"PK","name":"Quetta","lat":"30.174576","lng":"66.762027"},{"country":"PK","name":"Mastung","lat":"29.794547","lng":"66.720678"},{"country":"PK","name":"Dera Gh\u0101zi Kh\u0101n","lat":"30.474997","lng":"70.404471"},{"country":"PK","name":"Chitr\u0101l","lat":"36.258291","lng":"72.243024"},{"country":"PK","name":"Mati\u0101ri","lat":"25.596092","lng":"68.446665"},{"country":"PK","name":"Dera Gh\u0101zi Kh\u0101n","lat":"30.056142","lng":"70.634766"},{"country":"PK","name":"Muzaffargarh","lat":"30.07537","lng":"71.192129"},{"country":"PK","name":"R\u0101janpur","lat":"29.103513","lng":"70.325038"},{"country":"PK","name":"Thatta","lat":"24.747449","lng":"67.923528"},{"country":"PK","name":"Tando All\u0101hy\u0101r","lat":"25.462626","lng":"68.719233"},{"country":"PK","name":"M\u012brpur Kh\u0101s","lat":"25.5251","lng":"69.0159"},{"country":"PK","name":"Shik\u0101rpur","lat":"27.957057","lng":"68.637886"},{"country":"PK","name":"Sh\u0101hd\u0101dkot","lat":"27.847709","lng":"67.905497"},{"country":"PK","name":"Naushahro F\u012broz","lat":"26.842382","lng":"68.122984"},{"country":"PK","name":"Ghotki","lat":"28.00604","lng":"69.316077"},{"country":"PK","name":"Upper D\u012br","lat":"35.308785","lng":"72.046918"},{"country":"PK","name":"Buner","lat":"34.443014","lng":"72.499333"},{"country":"PK","name":"Sk\u0101rdu","lat":"35.401161","lng":"75.626334"},{"country":"PK","name":"Sh\u0101hd\u0101dkot at Kambar","lat":"27.636567","lng":"67.727043"},{"country":"PK","name":"Tando All\u0101hy\u0101r","lat":"25.472187","lng":"68.785611"},{"country":"PK","name":"Tando Muhammad Kh\u0101n","lat":"25.013091","lng":"68.487142"},{"country":"PK","name":"Umarkot","lat":"25.375147","lng":"69.805854"},{"country":"PK","name":"Batagr\u0101m","lat":"34.741282","lng":"73.180859"},{"country":"PK","name":"Kh\u0101new\u0101l","lat":"30.373391","lng":"72.060962"},{"country":"PK","name":"Mati\u0101ri","lat":"25.875823","lng":"68.413379"},{"country":"PK","name":"Nank\u0101na S\u0101hib","lat":"31.481981","lng":"73.69882"},{"country":"PK","name":"Sudhnutti","lat":"33.701448","lng":"73.75304"},{"country":"PK","name":"Toba Tek Singh","lat":"30.928575","lng":"72.536923"},{"country":"PK","name":"Naushahro F\u012broz","lat":"26.875596","lng":"68.120671"},{"country":"PK","name":"Ghotki","lat":"27.815686","lng":"69.658067"},{"country":"PK","name":"Lodhr\u0101n","lat":"29.68691","lng":"71.690204"},{"country":"PK","name":"P\u0101kpattan","lat":"30.300978","lng":"73.260132"},{"country":"PK","name":"Ok\u0101ra","lat":"30.709391","lng":"73.688821"},{"country":"PK","name":"H\u0101fiz\u0101b\u0101d","lat":"32.021914","lng":"73.513149"},{"country":"PK","name":"Mandi Bah\u0101udd\u012bn","lat":"32.442056","lng":"73.461835"},{"country":"PK","name":"Chakw\u0101l","lat":"32.897792","lng":"72.531137"},{"country":"PK","name":"Khush\u0101b","lat":"32.18259","lng":"72.110996"},{"country":"PK","name":"Bhakkar","lat":"31.646991","lng":"71.43428"},{"country":"PK","name":"Leiah","lat":"30.967067","lng":"71.257885"},{"country":"PK","name":"N\u0101row\u0101l","lat":"32.211138","lng":"74.953175"},{"country":"PK","name":"Lakki Marwat","lat":"32.599208","lng":"70.851187"},{"country":"PK","name":"T\u0101nk","lat":"32.240003","lng":"70.392559"},{"country":"PK","name":"Karak","lat":"33.136086","lng":"71.083361"},{"country":"PK","name":"Hangu","lat":"33.447183","lng":"70.887723"},{"country":"PK","name":"Ch\u0101rsadda","lat":"34.25102","lng":"71.690372"},{"country":"PK","name":"Nowshera","lat":"33.925378","lng":"71.980917"},{"country":"PK","name":"Sh\u0101ngla","lat":"34.685156","lng":"72.701385"},{"country":"PK","name":"Har\u012bpur","lat":"33.9459","lng":"72.911456"},{"country":"PK","name":"Sw\u0101bi","lat":"34.141325","lng":"72.476645"},{"country":"PK","name":"Lower D\u012br","lat":"34.851941","lng":"71.853352"},{"country":"PK","name":"Ghizar","lat":"36.291955","lng":"73.43102"},{"country":"PK","name":"Ghanche","lat":"35.216948","lng":"76.42429"},{"country":"PK","name":"Bhimbar","lat":"33.009414","lng":"74.117623"},{"country":"PK","name":"J\u0101mshoro","lat":"25.741121","lng":"67.813636"},{"country":"PK","name":"New M\u012brpur","lat":"33.141757","lng":"73.767357"},{"country":"PK","name":"L\u0101rk\u0101na","lat":"27.555082","lng":"68.214137"},{"country":"PK","name":"D\u0101du","lat":"26.732865","lng":"67.776306"},{"country":"PK","name":"Ch\u0101rsadda","lat":"34.143453","lng":"71.731731"},{"country":"PK","name":"Alp\u016brai","lat":"34.920577","lng":"72.632556"},{"country":"PK","name":"T\u012bmurgara","lat":"34.826359","lng":"71.841488"},{"country":"PK","name":"Kal\u0101t","lat":"29.022515","lng":"66.591604"},{"country":"PK","name":"Khairpur","lat":"27.529483","lng":"68.761698"},{"country":"PK","name":"Sukkur","lat":"27.705164","lng":"68.857383"},{"country":"PK","name":"Nowshera","lat":"34.005823","lng":"71.997727"},{"country":"PK","name":"Hangu","lat":"33.531085","lng":"71.05934"},{"country":"PK","name":"Kandhkot","lat":"28.243963","lng":"69.182354"},{"country":"PK","name":"Besh\u0101m","lat":"34.929953","lng":"72.879077"},{"country":"PK","name":"Koh\u0101t","lat":"33.581958","lng":"71.449291"},{"country":"PK","name":"Attock City","lat":"33.773114","lng":"72.3741"},{"country":"PK","name":"Daggar","lat":"34.510279","lng":"72.48432"},{"country":"PK","name":"Pesh\u0101war","lat":"34.008","lng":"71.578488"},{"country":"PK","name":"Sw\u0101bi","lat":"34.119881","lng":"72.469871"},{"country":"PK","name":"Gujr\u0101t","lat":"32.572842","lng":"74.078969"},{"country":"PK","name":"Mard\u0101n","lat":"34.201946","lng":"72.052539"},{"country":"PK","name":"Bannu","lat":"32.985414","lng":"70.602701"},{"country":"PK","name":"Quetta","lat":"30.199004","lng":"67.009708"},{"country":"PK","name":"Karak","lat":"33.117377","lng":"71.094903"},{"country":"PK","name":"R\u0101wala Kot","lat":"33.857816","lng":"73.760426"},{"country":"PK","name":"B\u0101gh","lat":"33.981106","lng":"73.776084"},{"country":"PK","name":"Zhob","lat":"31.364444","lng":"69.207492"},{"country":"PK","name":"Gw\u0101dar","lat":"25.39336","lng":"63.181044"},{"country":"PK","name":"Kech","lat":"26.017915","lng":"63.110307"},{"country":"PK","name":"Panjg\u016br","lat":"26.737496","lng":"64.203797"},{"country":"PK","name":"Kh\u0101r\u0101n","lat":"27.963081","lng":"64.57113"},{"country":"PK","name":"Ch\u0101gai","lat":"28.987646","lng":"63.59087"},{"country":"PK","name":"Khuzd\u0101r","lat":"27.486797","lng":"66.587031"},{"country":"PK","name":"Lasbela","lat":"25.786336","lng":"66.603301"},{"country":"PK","name":"Jhal Magsi","lat":"28.368809","lng":"67.542999"},{"country":"PK","name":"Kal\u0101t","lat":"28.882421","lng":"66.531649"},{"country":"PK","name":"Thatta","lat":"24.490255","lng":"67.922841"},{"country":"PK","name":"Kar\u0101chi","lat":"25.07267","lng":"67.203464"},{"country":"PK","name":"D\u0101du","lat":"26.873257","lng":"67.508953"},{"country":"PK","name":"Hyder\u0101b\u0101d","lat":"25.432441","lng":"68.484207"},{"country":"PK","name":"Bad\u012bn","lat":"24.724375","lng":"68.874567"},{"country":"PK","name":"Thar P\u0101rkar","lat":"24.820847","lng":"70.180019"},{"country":"PK","name":"M\u012brpur Kh\u0101s","lat":"25.281369","lng":"69.154127"},{"country":"PK","name":"Bah\u0101walpur","lat":"29.4","lng":"71.683333"},{"country":"PK","name":"Lodhr\u0101n","lat":"29.540507","lng":"71.63357"},{"country":"PK","name":"Mult\u0101n","lat":"30.195556","lng":"71.475278"},{"country":"PK","name":"Kh\u0101new\u0101l","lat":"30.3","lng":"71.933333"},{"country":"PK","name":"S\u0101h\u012bw\u0101l","lat":"30.666667","lng":"73.1"},{"country":"PK","name":"Faisal\u0101b\u0101d","lat":"31.416667","lng":"73.083333"},{"country":"PK","name":"Ok\u0101ra","lat":"30.808056","lng":"73.445833"},{"country":"PK","name":"Jhang City","lat":"31.306773","lng":"72.32814"},{"country":"PK","name":"Nank\u0101na S\u0101hib","lat":"31.4475","lng":"73.697222"},{"country":"PK","name":"Vih\u0101ri","lat":"30.033333","lng":"72.35"},{"country":"PK","name":"Sheikhupura","lat":"31.713056","lng":"73.978333"},{"country":"PK","name":"N\u0101row\u0101l","lat":"32.1","lng":"74.883333"},{"country":"PK","name":"Gujr\u0101nw\u0101la","lat":"32.161667","lng":"74.188309"},{"country":"PK","name":"Si\u0101lkot","lat":"32.510103","lng":"74.54313"},{"country":"PK","name":"H\u0101fiz\u0101b\u0101d","lat":"32.067857","lng":"73.685449"},{"country":"PK","name":"Sargodha","lat":"32.083611","lng":"72.671111"},{"country":"PK","name":"Mandi Bah\u0101udd\u012bn","lat":"32.583387","lng":"73.484315"},{"country":"PK","name":"Jhelum","lat":"32.933132","lng":"73.726367"},{"country":"PK","name":"Khush\u0101b","lat":"32.296667","lng":"72.3525"},{"country":"PK","name":"Mi\u0101nw\u0101li","lat":"32.574095","lng":"71.526386"},{"country":"PK","name":"Bhakkar","lat":"31.625247","lng":"71.06574"},{"country":"PK","name":"Leiah","lat":"30.961279","lng":"70.939043"},{"country":"PK","name":"Dera Ism\u0101\u012bl Kh\u0101n","lat":"31.832691","lng":"70.902398"},{"country":"PK","name":"Lakki Marwat","lat":"32.607953","lng":"70.911416"},{"country":"PK","name":"T\u0101nk","lat":"32.221683","lng":"70.379282"},{"country":"PK","name":"Saidu Shar\u012bf","lat":"34.7447","lng":"72.3546"},{"country":"PK","name":"D\u012br","lat":"35.205833","lng":"71.875556"},{"country":"PK","name":"Abbott\u0101b\u0101d","lat":"34.146852","lng":"73.214488"},{"country":"PK","name":"Har\u012bpur","lat":"33.999967","lng":"72.934093"},{"country":"PK","name":"R\u0101walpindi","lat":"33.6007","lng":"73.0679"},{"country":"PK","name":"Dasu","lat":"35.291687","lng":"73.290602"},{"country":"PK","name":"M\u0101nsehra","lat":"34.333333","lng":"73.2"},{"country":"PK","name":"Athmuqam","lat":"34.571733","lng":"73.897236"},{"country":"PK","name":"G\u0101kuch","lat":"36.176826","lng":"73.763834"},{"country":"PK","name":"Chitr\u0101l","lat":"35.846227","lng":"71.785801"},{"country":"PK","name":"Al\u012b\u0101bad","lat":"36.307028","lng":"74.615449"},{"country":"PK","name":"Sk\u0101rdu","lat":"35.288511","lng":"75.633338"},{"country":"PK","name":"Gilgit","lat":"35.918685","lng":"74.312451"},{"country":"PK","name":"\u06af\u0644\u06af\u062a","lat":"35.918685","lng":"74.312451"},{"country":"PK","name":"Khapalu","lat":"35.152682","lng":"76.344044"},{"country":"PK","name":"Chil\u0101s","lat":"35.411722","lng":"74.103521"},{"country":"PK","name":"\u0686\u0644\u0627\u0633","lat":"35.411722","lng":"74.103521"},{"country":"PK","name":"Nushki","lat":"29.554232","lng":"66.021479"},{"country":"PK","name":"Turbat","lat":"26.002284","lng":"63.043994"},{"country":"PK","name":"D\u0101lband\u012bn","lat":"28.894702","lng":"64.410094"},{"country":"PK","name":"P\u0101kpattan","lat":"30.341044","lng":"73.386642"},{"country":"PK","name":"Bah\u0101walnagar","lat":"29.998659","lng":"73.253604"},{"country":"PK","name":"Chakw\u0101l","lat":"32.933376","lng":"72.858531"},{"country":"PK","name":"Malakand","lat":"34.565609","lng":"71.930432"},{"country":"PK","name":"Isl\u0101m\u0101b\u0101d","lat":"33.710395","lng":"73.133821"},{"country":"PK","name":"Khyber Pakhtunkhwa","lat":"34.459933","lng":"72.502373"}]