[{"country":"PL","name":"Warszawa","lat":"52.25","lng":"21"},{"country":"PL","name":"Bia\u0142ystok","lat":"53.133333","lng":"23.15"},{"country":"PL","name":"Wroc\u0142aw","lat":"51.1","lng":"17.033333"},{"country":"PL","name":"Kostrzyn","lat":"52.590891","lng":"14.651163"},{"country":"PL","name":"Szczecin","lat":"53.439531","lng":"14.593891"},{"country":"PL","name":"Piszczaty","lat":"53.057278","lng":"22.612252"},{"country":"PL","name":"Jaka\u0107","lat":"53.005303","lng":"21.930548"},{"country":"PL","name":"Rafa\u0142\u00f3wka","lat":"53.052599","lng":"23.335745"},{"country":"PL","name":"Mieleszkowce","lat":"53.524103","lng":"23.56104"},{"country":"PL","name":"Krak\u00f3w","lat":"50.057531","lng":"19.980216"},{"country":"PL","name":"Sucha","lat":"49.737591","lng":"19.587148"},{"country":"PL","name":"Opole","lat":"50.672115","lng":"17.925325"},{"country":"PL","name":"\u0141\u00f3d\u017a","lat":"51.75","lng":"19.466667"},{"country":"PL","name":"Lublin","lat":"51.25","lng":"22.566667"},{"country":"PL","name":"Pozna\u0144","lat":"52.416667","lng":"16.966667"},{"country":"PL","name":"Gda\u0144sk","lat":"54.36085","lng":"18.658291"},{"country":"PL","name":"Soko\u0142\u00f3w","lat":"52.407477","lng":"22.251923"},{"country":"PL","name":"Le\u015bna","lat":"52.132811","lng":"23.028264"},{"country":"PL","name":"Olsztyn","lat":"53.779949","lng":"20.494162"},{"country":"PL","name":"Polubicze","lat":"51.768896","lng":"23.106942"},{"country":"PL","name":"Mi\u0119dzybrodzie","lat":"49.786687","lng":"19.192368"},{"country":"PL","name":"Katowice","lat":"50.258415","lng":"19.027545"},{"country":"PL","name":"St\u0119pna","lat":"53.04393","lng":"21.463716"},{"country":"PL","name":"Duczymin","lat":"53.255662","lng":"20.798759"},{"country":"PL","name":"Dolno\u015bl\u0105skie","lat":"51","lng":"16.5"},{"country":"PL","name":"Kujawsko-Pomorskie","lat":"53","lng":"18.5"},{"country":"PL","name":"\u0141\u00f3dzkie","lat":"51.5","lng":"19.5"},{"country":"PL","name":"Lubelskie","lat":"51","lng":"23"},{"country":"PL","name":"Lubuskie","lat":"52.25","lng":"15.25"},{"country":"PL","name":"Ma\u0142opolskie","lat":"49.75","lng":"20.5"},{"country":"PL","name":"Mazowieckie","lat":"52.25","lng":"21"},{"country":"PL","name":"Opolskie","lat":"50.5","lng":"18"},{"country":"PL","name":"Podkarpackie","lat":"50","lng":"22"},{"country":"PL","name":"Podlaskie","lat":"53.25","lng":"23"},{"country":"PL","name":"Pomorskie","lat":"54.25","lng":"18"},{"country":"PL","name":"\u015al\u0105skie","lat":"50.25","lng":"19"},{"country":"PL","name":"\u015awi\u0119tokrzyskie","lat":"50.75","lng":"20.75"},{"country":"PL","name":"Warmi\u0144sko-Mazurskie","lat":"53.833333","lng":"21"},{"country":"PL","name":"Wielkopolskie","lat":"52.25","lng":"17"},{"country":"PL","name":"Zachodniopomorskie","lat":"53.5","lng":"15.5"},{"country":"PL","name":"Kielce","lat":"50.873686","lng":"20.630266"},{"country":"PL","name":"Warszawa","lat":"52.25","lng":"21"},{"country":"PL","name":"Warsaw","lat":"52.25","lng":"21"},{"country":"PL","name":"Baran\u00f3w","lat":"50.497419","lng":"21.543136"},{"country":"PL","name":"Zielona G\u00f3ra","lat":"51.939345","lng":"15.505772"},{"country":"PL","name":"\u017barka","lat":"51.209468","lng":"15.018326"},{"country":"PL","name":"Aleksandr\u00f3w","lat":"51.81773","lng":"19.300709"},{"country":"PL","name":"Aleksandr\u00f3w","lat":"52.877639","lng":"18.703163"},{"country":"PL","name":"Pruszcz","lat":"53.330562","lng":"18.195844"},{"country":"PL","name":"Bydgoszcz","lat":"53.127062","lng":"18.019987"},{"country":"PL","name":"Ostr\u00f3w","lat":"51.496571","lng":"22.856735"},{"country":"PL","name":"Le\u017cno","lat":"53.284532","lng":"19.694289"},{"country":"PL","name":"Rzesz\u00f3w","lat":"50.037246","lng":"22.004949"}]