[{"country":"PW","name":"Ngaraard","lat":"7.616667","lng":"134.625"},{"country":"PW","name":"Aimeliik","lat":"7.441667","lng":"134.491667"},{"country":"PW","name":"Airai","lat":"7.366667","lng":"134.55"},{"country":"PW","name":"Angaur","lat":"6.9","lng":"134.15"},{"country":"PW","name":"Kayangel","lat":"8.066667","lng":"134.708333"},{"country":"PW","name":"Hatohobei","lat":"3","lng":"131.175"},{"country":"PW","name":"Koror","lat":"7.333333","lng":"134.475"},{"country":"PW","name":"Ngarchelong","lat":"7.7","lng":"134.625"},{"country":"PW","name":"Ngatpang","lat":"7.466667","lng":"134.533333"},{"country":"PW","name":"Ngchesar","lat":"7.45","lng":"134.583333"},{"country":"PW","name":"Ngeremlengui","lat":"7.541667","lng":"134.5625"},{"country":"PW","name":"Ngeremlengui","lat":"7.541667","lng":"134.5625"},{"country":"PW","name":"Ngiwal","lat":"7.55","lng":"134.616667"},{"country":"PW","name":"Peleliu","lat":"7.008333","lng":"134.244444"},{"country":"PW","name":"Ngardmau","lat":"7.595833","lng":"134.558333"},{"country":"PW","name":"Ngardmau","lat":"7.595833","lng":"134.558333"},{"country":"PW","name":"Melekeok","lat":"7.483333","lng":"134.6"},{"country":"PW","name":"Melekeok","lat":"7.483333","lng":"134.6"},{"country":"PW","name":"Sonsorol","lat":"5.333333","lng":"132.216667"},{"country":"PW","name":"Melekeok","lat":"7.493333","lng":"134.634167"}]