[{"country":"RS","name":"Bistrica","lat":"43.469189","lng":"19.656179"},{"country":"RS","name":"\u0106i\u0107evac","lat":"43.683529","lng":"21.446756"},{"country":"RS","name":"\u040b\u0438\u045b\u0435\u0432\u0430\u0446","lat":"43.683529","lng":"21.446756"},{"country":"RS","name":"Kragujevac","lat":"44.036335","lng":"20.857995"},{"country":"RS","name":"\u041a\u0440\u0430\u0433\u0443\u0458\u0435\u0432\u0430\u0446","lat":"44.036335","lng":"20.857995"},{"country":"RS","name":"\u041d\u043e\u0432\u0438 \u0411\u0435\u0447\u0435\u0458","lat":"45.644274","lng":"20.224503"},{"country":"RS","name":"Novi Be\u010dej","lat":"45.644274","lng":"20.224503"},{"country":"RS","name":"Beograd","lat":"44.69158","lng":"20.426086"},{"country":"RS","name":"\u0411\u0435\u043e\u0433\u0440\u0430\u0434","lat":"44.69158","lng":"20.426086"},{"country":"RS","name":"Ni\u0161","lat":"43.316622","lng":"21.934096"},{"country":"RS","name":"\u041d\u0438\u0448","lat":"43.316622","lng":"21.934096"},{"country":"RS","name":"Novi Sad","lat":"45.284","lng":"19.826324"},{"country":"RS","name":"\u041d\u043e\u0432\u0438 \u0421\u0430\u0434","lat":"45.284","lng":"19.826324"},{"country":"RS","name":"\u0410\u0434\u0430","lat":"45.792158","lng":"20.024381"},{"country":"RS","name":"Ada","lat":"45.792158","lng":"20.024381"},{"country":"RS","name":"\u0410\u043b\u0435\u043a\u0441\u0430\u043d\u0434\u0440\u043e\u0432\u0430\u0446","lat":"43.484643","lng":"21.004009"},{"country":"RS","name":"Aleksandrovac","lat":"43.484643","lng":"21.004009"},{"country":"RS","name":"\u0410\u043b\u0435\u043a\u0441\u0438\u043d\u0430\u0446","lat":"43.518085","lng":"21.694001"},{"country":"RS","name":"Aleksinac","lat":"43.518085","lng":"21.694001"},{"country":"RS","name":"\u0410\u043b\u0438\u0431\u0443\u043d\u0430\u0440","lat":"45.095193","lng":"20.946024"},{"country":"RS","name":"Alibunar","lat":"45.095193","lng":"20.946024"},{"country":"RS","name":"\u0410\u043f\u0430\u0442\u0438\u043d","lat":"45.638167","lng":"19.02224"},{"country":"RS","name":"Apatin","lat":"45.638167","lng":"19.02224"},{"country":"RS","name":"\u0410\u0440\u0430\u043d\u0452\u0435\u043b\u043e\u0432\u0430\u0446","lat":"44.316424","lng":"20.529957"},{"country":"RS","name":"Aran\u0111elovac","lat":"44.316424","lng":"20.529957"},{"country":"RS","name":"\u0410\u0440\u0438\u0459\u0435","lat":"43.682762","lng":"20.040063"},{"country":"RS","name":"Arilje","lat":"43.682762","lng":"20.040063"},{"country":"RS","name":"\u0411\u0430\u0431\u0443\u0448\u043d\u0438\u0446\u0430","lat":"43.024","lng":"22.419208"},{"country":"RS","name":"Babu\u0161nica","lat":"43.024","lng":"22.419208"},{"country":"RS","name":"\u0411\u0430\u0447","lat":"45.385298","lng":"19.147825"},{"country":"RS","name":"Ba\u010d","lat":"45.385298","lng":"19.147825"},{"country":"RS","name":"\u0411\u0430\u0447\u043a\u0430 \u041f\u0430\u043b\u0430\u043d\u043a\u0430","lat":"45.334146","lng":"19.409417"},{"country":"RS","name":"Ba\u010dka Palanka","lat":"45.334146","lng":"19.409417"},{"country":"RS","name":"Ba\u010dka Topola","lat":"45.812299","lng":"19.606036"},{"country":"RS","name":"\u0411\u0430\u0447\u043a\u0430 \u0422\u043e\u043f\u043e\u043b\u0430","lat":"45.812299","lng":"19.606036"},{"country":"RS","name":"Ba\u010dki Petrovac","lat":"45.348779","lng":"19.583425"},{"country":"RS","name":"\u0411\u0430\u0447\u043a\u0438 \u041f\u0435\u0442\u0440\u043e\u0432\u0430\u0446","lat":"45.348779","lng":"19.583425"},{"country":"RS","name":"Bajina Ba\u0161ta","lat":"43.918211","lng":"19.516039"},{"country":"RS","name":"\u0411\u0430\u0458\u0438\u043d\u0430 \u0411\u0430\u0448\u0442\u0430","lat":"43.918211","lng":"19.516039"},{"country":"RS","name":"Barajevo","lat":"44.574633","lng":"20.392259"},{"country":"RS","name":"\u0411\u0430\u0440\u0430\u0458\u0435\u0432\u043e","lat":"44.574633","lng":"20.392259"},{"country":"RS","name":"Bato\u010dina","lat":"44.125521","lng":"21.055171"},{"country":"RS","name":"\u0411\u0430\u0442\u043e\u0447\u0438\u043d\u0430","lat":"44.125521","lng":"21.055171"},{"country":"RS","name":"Be\u010dej","lat":"45.648516","lng":"19.96648"},{"country":"RS","name":"\u0411\u0435\u0447\u0435\u0458","lat":"45.648516","lng":"19.96648"},{"country":"RS","name":"Bela Crkva","lat":"44.9097","lng":"21.351963"},{"country":"RS","name":"\u0411\u0435\u043b\u0430 \u0426\u0440\u043a\u0432\u0430","lat":"44.9097","lng":"21.351963"},{"country":"RS","name":"Bela Palanka","lat":"43.244363","lng":"22.293478"},{"country":"RS","name":"\u0411\u0435\u043b\u0430 \u041f\u0430\u043b\u0430\u043d\u043a\u0430","lat":"43.244363","lng":"22.293478"},{"country":"RS","name":"Beo\u010din","lat":"45.192263","lng":"19.638191"},{"country":"RS","name":"\u0411\u0435\u043e\u0447\u0438\u043d","lat":"45.192263","lng":"19.638191"},{"country":"RS","name":"Blace","lat":"43.303029","lng":"21.283152"},{"country":"RS","name":"\u0411\u043b\u0430\u0446\u0435","lat":"43.303029","lng":"21.283152"},{"country":"RS","name":"Bojnik","lat":"43.02676","lng":"21.684876"},{"country":"RS","name":"\u0411\u043e\u0458\u043d\u0438\u043a","lat":"43.02676","lng":"21.684876"},{"country":"RS","name":"Boljevac","lat":"43.864947","lng":"21.899444"},{"country":"RS","name":"\u0411\u043e\u0459\u0435\u0432\u0430\u0446","lat":"43.864947","lng":"21.899444"},{"country":"RS","name":"Bor","lat":"44.093283","lng":"22.062057"},{"country":"RS","name":"\u0411\u043e\u0440","lat":"44.093283","lng":"22.062057"},{"country":"RS","name":"Bosilegrad","lat":"42.468461","lng":"22.384068"},{"country":"RS","name":"\u0411\u043e\u0441\u0438\u043b\u0435\u0433\u0440\u0430\u0434","lat":"42.468461","lng":"22.384068"},{"country":"RS","name":"Brus","lat":"43.341021","lng":"21.021581"},{"country":"RS","name":"\u0411\u0440\u0443\u0441","lat":"43.341021","lng":"21.021581"},{"country":"RS","name":"Bujanovac","lat":"42.425646","lng":"21.789575"},{"country":"RS","name":"\u0411\u0443\u0458\u0430\u043d\u043e\u0432\u0430\u0446","lat":"42.425646","lng":"21.789575"},{"country":"RS","name":"\u010ca\u010dak","lat":"43.88743","lng":"20.395133"},{"country":"RS","name":"\u0427\u0430\u0447\u0430\u043a","lat":"43.88743","lng":"20.395133"},{"country":"RS","name":"\u010cajetina","lat":"43.70111","lng":"19.70329"},{"country":"RS","name":"\u0427\u0430\u0458\u0435\u0442\u0438\u043d\u0430","lat":"43.70111","lng":"19.70329"},{"country":"RS","name":"\u010coka","lat":"45.917358","lng":"20.209214"},{"country":"RS","name":"\u0427\u043e\u043a\u0430","lat":"45.917358","lng":"20.209214"},{"country":"RS","name":"Crna Trava","lat":"42.848119","lng":"22.328552"},{"country":"RS","name":"\u0426\u0440\u043d\u0430 \u0422\u0440\u0430\u0432\u0430","lat":"42.848119","lng":"22.328552"},{"country":"RS","name":"\u010cukarica","lat":"44.707533","lng":"20.371028"},{"country":"RS","name":"\u0427\u0443\u043a\u0430\u0440\u0438\u0446\u0430","lat":"44.707533","lng":"20.371028"},{"country":"RS","name":"\u0106uprija","lat":"43.974026","lng":"21.416407"},{"country":"RS","name":"\u040b\u0443\u043f\u0440\u0438\u0458\u0430","lat":"43.974026","lng":"21.416407"},{"country":"RS","name":"Despotovac","lat":"44.08578","lng":"21.556587"},{"country":"RS","name":"\u0414\u0435\u0441\u043f\u043e\u0442\u043e\u0432\u0430\u0446","lat":"44.08578","lng":"21.556587"},{"country":"RS","name":"Dimitrovgrad","lat":"43.038669","lng":"22.790157"},{"country":"RS","name":"\u0414\u0438\u043c\u0438\u0442\u0440\u043e\u0432\u0433\u0440\u0430\u0434","lat":"43.038669","lng":"22.790157"},{"country":"RS","name":"Doljevac","lat":"43.21488","lng":"21.849048"},{"country":"RS","name":"\u0414\u043e\u0459\u0435\u0432\u0430\u0446","lat":"43.21488","lng":"21.849048"},{"country":"RS","name":"Gad\u017ein Han","lat":"43.163725","lng":"22.08971"},{"country":"RS","name":"\u0413\u0430\u045f\u0438\u043d \u0425\u0430\u043d","lat":"43.163725","lng":"22.08971"},{"country":"RS","name":"Golubac","lat":"44.617251","lng":"21.624473"},{"country":"RS","name":"\u0413\u043e\u043b\u0443\u0431\u0430\u0446","lat":"44.617251","lng":"21.624473"},{"country":"RS","name":"Gornji Milanovac","lat":"44.069822","lng":"20.357804"},{"country":"RS","name":"\u0413\u043e\u0440\u045a\u0438 \u041c\u0438\u043b\u0430\u043d\u043e\u0432\u0430\u0446","lat":"44.069822","lng":"20.357804"},{"country":"RS","name":"Grocka","lat":"44.664726","lng":"20.660727"},{"country":"RS","name":"\u0413\u0440\u043e\u0446\u043a\u0430","lat":"44.664726","lng":"20.660727"},{"country":"RS","name":"In\u0111ija","lat":"45.104787","lng":"20.117334"},{"country":"RS","name":"\u0418\u043d\u0452\u0438\u0458\u0430","lat":"45.104787","lng":"20.117334"},{"country":"RS","name":"Irig","lat":"45.098758","lng":"19.853556"},{"country":"RS","name":"\u0418\u0440\u0438\u0433","lat":"45.098758","lng":"19.853556"},{"country":"RS","name":"Ivanjica","lat":"43.487044","lng":"20.218489"},{"country":"RS","name":"\u0418\u0432\u0430\u045a\u0438\u0446\u0430","lat":"43.487044","lng":"20.218489"},{"country":"RS","name":"Jagodina","lat":"43.989864","lng":"21.204434"},{"country":"RS","name":"\u0408\u0430\u0433\u043e\u0434\u0438\u043d\u0430","lat":"43.989864","lng":"21.204434"},{"country":"RS","name":"Kanji\u017ea","lat":"46.048995","lng":"19.951743"},{"country":"RS","name":"\u041a\u0430\u045a\u0438\u0436\u0430","lat":"46.048995","lng":"19.951743"},{"country":"RS","name":"Kikinda","lat":"45.803342","lng":"20.448647"},{"country":"RS","name":"\u041a\u0438\u043a\u0438\u043d\u0434\u0430","lat":"45.803342","lng":"20.448647"},{"country":"RS","name":"Kladovo","lat":"44.57431","lng":"22.479241"},{"country":"RS","name":"\u041a\u043b\u0430\u0434\u043e\u0432\u043e","lat":"44.57431","lng":"22.479241"},{"country":"RS","name":"Kni\u0107","lat":"43.930045","lng":"20.713341"},{"country":"RS","name":"\u041a\u043d\u0438\u045b","lat":"43.930045","lng":"20.713341"},{"country":"RS","name":"Knja\u017eevac","lat":"43.571167","lng":"22.330625"},{"country":"RS","name":"\u041a\u045a\u0430\u0436\u0435\u0432\u0430\u0446","lat":"43.571167","lng":"22.330625"},{"country":"RS","name":"Koceljeva","lat":"44.487855","lng":"19.760027"},{"country":"RS","name":"\u041a\u043e\u0441\u0435\u0459\u0435\u0432\u0430","lat":"44.487855","lng":"19.760027"},{"country":"RS","name":"Kova\u010dica","lat":"45.120876","lng":"20.669305"},{"country":"RS","name":"\u041a\u043e\u0432\u0430\u0447\u0438\u0446\u0430","lat":"45.120876","lng":"20.669305"},{"country":"RS","name":"Kovin","lat":"44.81607","lng":"21.013542"},{"country":"RS","name":"\u041a\u043e\u0432\u0438\u043d","lat":"44.81607","lng":"21.013542"},{"country":"RS","name":"Kraljevo","lat":"43.636253","lng":"20.63123"},{"country":"RS","name":"\u041a\u0440\u0430\u0459\u0435\u0432\u043e","lat":"43.636253","lng":"20.63123"},{"country":"RS","name":"Kru\u0161evac","lat":"43.523331","lng":"21.351459"},{"country":"RS","name":"\u041a\u0440\u0443\u0448\u0435\u0432\u0430\u0446","lat":"43.523331","lng":"21.351459"},{"country":"RS","name":"Ku\u010devo","lat":"44.483178","lng":"21.723355"},{"country":"RS","name":"\u041a\u0443\u0447\u0435\u0432\u043e","lat":"44.483178","lng":"21.723355"},{"country":"RS","name":"Kula","lat":"45.655259","lng":"19.450305"},{"country":"RS","name":"\u041a\u0443\u043b\u0430","lat":"45.655259","lng":"19.450305"},{"country":"RS","name":"Kur\u0161umlija","lat":"43.090962","lng":"21.240042"},{"country":"RS","name":"\u041a\u0443\u0440\u0448\u0443\u043c\u043b\u0438\u0458\u0430","lat":"43.090962","lng":"21.240042"},{"country":"RS","name":"Lajkovac","lat":"44.371212","lng":"20.158618"},{"country":"RS","name":"\u041b\u0430\u0458\u043a\u043e\u0432\u0430\u0446","lat":"44.371212","lng":"20.158618"},{"country":"RS","name":"Lapovo","lat":"44.189874","lng":"21.092104"},{"country":"RS","name":"\u041b\u0430\u043f\u043e\u0432\u043e","lat":"44.189874","lng":"21.092104"},{"country":"RS","name":"Lazarevac","lat":"44.404235","lng":"20.32028"},{"country":"RS","name":"\u041b\u0430\u0437\u0430\u0440\u0435\u0432\u0430\u0446","lat":"44.404235","lng":"20.32028"},{"country":"RS","name":"Lebane","lat":"42.889211","lng":"21.73085"},{"country":"RS","name":"\u041b\u0435\u0431\u0430\u043d\u0435","lat":"42.889211","lng":"21.73085"},{"country":"RS","name":"Leskovac","lat":"42.95062","lng":"21.95765"},{"country":"RS","name":"\u041b\u0435\u0441\u043a\u043e\u0432\u0430\u0446","lat":"42.95062","lng":"21.95765"},{"country":"RS","name":"Ljig","lat":"44.220064","lng":"20.288062"},{"country":"RS","name":"\u0409\u0438\u0433","lat":"44.220064","lng":"20.288062"},{"country":"RS","name":"Lu\u010dani","lat":"43.762568","lng":"20.270965"},{"country":"RS","name":"\u041b\u0443\u0447\u0430\u043d\u0438","lat":"43.762568","lng":"20.270965"},{"country":"RS","name":"Majdanpek","lat":"44.404555","lng":"22.063684"},{"country":"RS","name":"\u041c\u0430\u0458\u0434\u0430\u043d\u043f\u0435\u043a","lat":"44.404555","lng":"22.063684"},{"country":"RS","name":"Mali I\u0111o\u0161","lat":"45.692439","lng":"19.685832"},{"country":"RS","name":"\u041c\u0430\u043b\u0438 \u0418\u0452\u043e\u0448","lat":"45.692439","lng":"19.685832"},{"country":"RS","name":"Malo Crni\u0107e","lat":"44.546021","lng":"21.344312"},{"country":"RS","name":"\u041c\u0430\u043b\u043e \u0426\u0440\u043d\u0438\u045b\u0435","lat":"44.546021","lng":"21.344312"},{"country":"RS","name":"Medve\u0111a","lat":"42.829537","lng":"21.553348"},{"country":"RS","name":"\u041c\u0435\u0434\u0432\u0435\u0452\u0430","lat":"42.829537","lng":"21.553348"},{"country":"RS","name":"Mero\u0161ina","lat":"43.308171","lng":"21.687958"},{"country":"RS","name":"\u041c\u0435\u0440\u043e\u0448\u0438\u043d\u0430","lat":"43.308171","lng":"21.687958"},{"country":"RS","name":"Mionica","lat":"44.208459","lng":"20.076313"},{"country":"RS","name":"\u041c\u0438\u043e\u043d\u0438\u0446\u0430","lat":"44.208459","lng":"20.076313"},{"country":"RS","name":"Mladenovac","lat":"44.445","lng":"20.698056"},{"country":"RS","name":"\u041c\u043b\u0430\u0434\u0435\u043d\u043e\u0432\u0430\u0446","lat":"44.445","lng":"20.698056"},{"country":"RS","name":"Negotin","lat":"44.264733","lng":"22.426208"},{"country":"RS","name":"\u041d\u0435\u0433\u043e\u0442\u0438\u043d","lat":"44.264733","lng":"22.426208"},{"country":"RS","name":"Nova Crnja","lat":"45.689133","lng":"20.666679"},{"country":"RS","name":"\u041d\u043e\u0432\u0430 \u0426\u0440\u045a\u0430","lat":"45.689133","lng":"20.666679"},{"country":"RS","name":"Nova Varo\u0161","lat":"43.49081","lng":"19.841739"},{"country":"RS","name":"\u041d\u043e\u0432\u0430 \u0412\u0430\u0440\u043e\u0448","lat":"43.49081","lng":"19.841739"},{"country":"RS","name":"Novi Beograd","lat":"44.80975","lng":"20.391204"},{"country":"RS","name":"\u041d\u043e\u0432\u0438 \u0411\u0435\u043e\u0433\u0440\u0430\u0434","lat":"44.80975","lng":"20.391204"},{"country":"RS","name":"Novi Kne\u017eevac","lat":"46.067891","lng":"20.178028"},{"country":"RS","name":"\u041d\u043e\u0432\u0438 \u041a\u043d\u0435\u0436\u0435\u0432\u0430\u0446","lat":"46.067891","lng":"20.178028"},{"country":"RS","name":"Novi Pazar","lat":"43.148947","lng":"20.474061"},{"country":"RS","name":"\u041d\u043e\u0432\u0438 \u041f\u0430\u0437\u0430\u0440","lat":"43.148947","lng":"20.474061"},{"country":"RS","name":"Obrenovac","lat":"44.618435","lng":"20.157146"},{"country":"RS","name":"\u041e\u0431\u0440\u0435\u043d\u043e\u0432\u0430\u0446","lat":"44.618435","lng":"20.157146"},{"country":"RS","name":"Od\u017eaci","lat":"45.520551","lng":"19.248119"},{"country":"RS","name":"\u041e\u045f\u0430\u0446\u0438","lat":"45.520551","lng":"19.248119"},{"country":"RS","name":"Opovo","lat":"45.080998","lng":"20.505894"},{"country":"RS","name":"\u041e\u043f\u043e\u0432\u043e","lat":"45.080998","lng":"20.505894"},{"country":"RS","name":"Palilula","lat":"44.919803","lng":"20.452558"},{"country":"RS","name":"\u041f\u0430\u043b\u0438\u043b\u0443\u043b\u0430","lat":"44.919803","lng":"20.452558"},{"country":"RS","name":"Pan\u010devo","lat":"44.874367","lng":"20.737636"},{"country":"RS","name":"\u041f\u0430\u043d\u0447\u0435\u0432\u043e","lat":"44.874367","lng":"20.737636"},{"country":"RS","name":"Para\u0107in","lat":"43.868041","lng":"21.506525"},{"country":"RS","name":"\u041f\u0430\u0440\u0430\u045b\u0438\u043d","lat":"43.868041","lng":"21.506525"},{"country":"RS","name":"Pe\u0107inci","lat":"44.804444","lng":"20.008244"},{"country":"RS","name":"\u041f\u0435\u045b\u0438\u043d\u0446\u0438","lat":"44.804444","lng":"20.008244"},{"country":"RS","name":"Petrovac na Mlavi","lat":"44.362577","lng":"21.44742"},{"country":"RS","name":"\u041f\u0435\u0442\u0440\u043e\u0432\u0430\u0446 \u043d\u0430 \u041c\u043b\u0430\u0432\u0438","lat":"44.362577","lng":"21.44742"},{"country":"RS","name":"Pirot","lat":"43.20366","lng":"22.639465"},{"country":"RS","name":"\u041f\u0438\u0440\u043e\u0442","lat":"43.20366","lng":"22.639465"},{"country":"RS","name":"Plandi\u0161te","lat":"45.244081","lng":"21.061427"},{"country":"RS","name":"\u041f\u043b\u0430\u043d\u0434\u0438\u0448\u0442\u0435","lat":"45.244081","lng":"21.061427"},{"country":"RS","name":"Po\u017earevac","lat":"44.665093","lng":"21.201671"},{"country":"RS","name":"\u041f\u043e\u0436\u0430\u0440\u0435\u0432\u0430\u0446","lat":"44.665093","lng":"21.201671"},{"country":"RS","name":"Po\u017eega","lat":"43.906193","lng":"20.038575"},{"country":"RS","name":"\u041f\u043e\u0436\u0435\u0433\u0430","lat":"43.906193","lng":"20.038575"},{"country":"RS","name":"Pre\u0161evo","lat":"42.317108","lng":"21.66759"},{"country":"RS","name":"\u041f\u0440\u0435\u0448\u0435\u0432\u043e","lat":"42.317108","lng":"21.66759"},{"country":"RS","name":"Priboj","lat":"43.524089","lng":"19.440578"},{"country":"RS","name":"\u041f\u0440\u0438\u0431\u043e\u0458","lat":"43.524089","lng":"19.440578"},{"country":"RS","name":"Prijepolje","lat":"43.333493","lng":"19.666749"},{"country":"RS","name":"\u041f\u0440\u0438\u0458\u0435\u043f\u043e\u0459\u0435","lat":"43.333493","lng":"19.666749"},{"country":"RS","name":"Prokuplje","lat":"43.197859","lng":"21.503475"},{"country":"RS","name":"\u041f\u0440\u043e\u043a\u0443\u043f\u0459\u0435","lat":"43.197859","lng":"21.503475"},{"country":"RS","name":"Ra\u010da","lat":"44.210938","lng":"20.921589"},{"country":"RS","name":"\u0420\u0430\u0447\u0430","lat":"44.210938","lng":"20.921589"},{"country":"RS","name":"Ra\u0161ka","lat":"43.329713","lng":"20.637594"},{"country":"RS","name":"\u0420\u0430\u0448\u043a\u0430","lat":"43.329713","lng":"20.637594"},{"country":"RS","name":"Ra\u017eanj","lat":"43.720415","lng":"21.579539"},{"country":"RS","name":"\u0420\u0430\u0436\u0430\u045a","lat":"43.720415","lng":"21.579539"},{"country":"RS","name":"Rekovac","lat":"43.819586","lng":"21.089832"},{"country":"RS","name":"\u0420\u0435\u043a\u043e\u0432\u0430\u0446","lat":"43.819586","lng":"21.089832"},{"country":"RS","name":"Ruma","lat":"44.907584","lng":"19.840815"},{"country":"RS","name":"\u0420\u0443\u043c\u0430","lat":"44.907584","lng":"19.840815"},{"country":"RS","name":"\u0160abac","lat":"44.702106","lng":"19.596112"},{"country":"RS","name":"\u0428\u0430\u0431\u0430\u0446","lat":"44.702106","lng":"19.596112"},{"country":"RS","name":"Savski Venac","lat":"44.785007","lng":"20.450799"},{"country":"RS","name":"\u0421\u0430\u0432\u0441\u043a\u0438 \u0412\u0435\u043d\u0430\u0446","lat":"44.785007","lng":"20.450799"},{"country":"RS","name":"Se\u010danj","lat":"45.350764","lng":"20.796413"},{"country":"RS","name":"\u0421\u0435\u0447\u0430\u045a","lat":"45.350764","lng":"20.796413"},{"country":"RS","name":"Senta","lat":"45.894688","lng":"19.965464"},{"country":"RS","name":"\u0421\u0435\u043d\u0442\u0430","lat":"45.894688","lng":"19.965464"},{"country":"RS","name":"Sjenica","lat":"43.22539","lng":"20.033206"},{"country":"RS","name":"\u0421\u0458\u0435\u043d\u0438\u0446\u0430","lat":"43.22539","lng":"20.033206"},{"country":"RS","name":"Smederevo","lat":"44.583407","lng":"20.960644"},{"country":"RS","name":"\u0421\u043c\u0435\u0434\u0435\u0440\u0435\u0432\u043e","lat":"44.583407","lng":"20.960644"},{"country":"RS","name":"Smederevska Palanka","lat":"44.396843","lng":"20.897437"},{"country":"RS","name":"\u0421\u043c\u0435\u0434\u0435\u0440\u0435\u0432\u0441\u043a\u0430 \u041f\u0430\u043b\u0430\u043d\u043a\u0430","lat":"44.396843","lng":"20.897437"},{"country":"RS","name":"Sokobanja","lat":"43.667839","lng":"21.876204"},{"country":"RS","name":"\u0421\u043e\u043a\u043e\u0431\u0430\u045a\u0430","lat":"43.667839","lng":"21.876204"},{"country":"RS","name":"Sombor","lat":"45.828754","lng":"19.140413"},{"country":"RS","name":"\u0421\u043e\u043c\u0431\u043e\u0440","lat":"45.828754","lng":"19.140413"},{"country":"RS","name":"Sopot","lat":"44.525171","lng":"20.542012"},{"country":"RS","name":"\u0421\u043e\u043f\u043e\u0442","lat":"44.525171","lng":"20.542012"},{"country":"RS","name":"Srbobran","lat":"45.571165","lng":"19.819344"},{"country":"RS","name":"\u0421\u0440\u0431\u043e\u0431\u0440\u0430\u043d","lat":"45.571165","lng":"19.819344"},{"country":"RS","name":"Stara Pazova","lat":"44.967879","lng":"20.18921"},{"country":"RS","name":"\u0421\u0442\u0430\u0440\u0430 \u041f\u0430\u0437\u043e\u0432\u0430","lat":"44.967879","lng":"20.18921"},{"country":"RS","name":"Stari Grad","lat":"44.823378","lng":"20.461273"},{"country":"RS","name":"\u0421\u0442\u0430\u0440\u0438 \u0413\u0440\u0430\u0434","lat":"44.823378","lng":"20.461273"},{"country":"RS","name":"Subotica","lat":"46.023896","lng":"19.623486"},{"country":"RS","name":"\u0421\u0443\u0431\u043e\u0442\u0438\u0446\u0430","lat":"46.023896","lng":"19.623486"},{"country":"RS","name":"Surdulica","lat":"42.683129","lng":"22.297896"},{"country":"RS","name":"\u0421\u0443\u0440\u0434\u0443\u043b\u0438\u0446\u0430","lat":"42.683129","lng":"22.297896"},{"country":"RS","name":"Svilajnac","lat":"44.202389","lng":"21.245747"},{"country":"RS","name":"\u0421\u0432\u0438\u043b\u0430\u0458\u043d\u0430\u0446","lat":"44.202389","lng":"21.245747"},{"country":"RS","name":"Svrljig","lat":"43.421913","lng":"22.125344"},{"country":"RS","name":"\u0421\u0432\u0440\u0459\u0438\u0433","lat":"43.421913","lng":"22.125344"},{"country":"RS","name":"Temerin","lat":"45.425688","lng":"19.8661"},{"country":"RS","name":"\u0422\u0435\u043c\u0435\u0440\u0438\u043d","lat":"45.425688","lng":"19.8661"},{"country":"RS","name":"Titel","lat":"45.247406","lng":"20.189119"},{"country":"RS","name":"\u0422\u0438\u0442\u0435\u043b","lat":"45.247406","lng":"20.189119"},{"country":"RS","name":"Topola","lat":"44.238309","lng":"20.694753"},{"country":"RS","name":"\u0422\u043e\u043f\u043e\u043b\u0430","lat":"44.238309","lng":"20.694753"},{"country":"RS","name":"Trgovi\u0161te","lat":"42.382296","lng":"22.129513"},{"country":"RS","name":"\u0422\u0440\u0433\u043e\u0432\u0438\u0448\u0442\u0435","lat":"42.382296","lng":"22.129513"},{"country":"RS","name":"Trstenik","lat":"43.630841","lng":"21.044184"},{"country":"RS","name":"\u0422\u0440\u0441\u0442\u0435\u043d\u0438\u043a","lat":"43.630841","lng":"21.044184"},{"country":"RS","name":"Tutin","lat":"43.007233","lng":"20.308366"},{"country":"RS","name":"\u0422\u0443\u0442\u0438\u043d","lat":"43.007233","lng":"20.308366"},{"country":"RS","name":"Ub","lat":"44.470984","lng":"20.026138"},{"country":"RS","name":"\u0423\u0431","lat":"44.470984","lng":"20.026138"},{"country":"RS","name":"U\u017eice","lat":"43.866472","lng":"19.683962"},{"country":"RS","name":"\u0423\u0436\u0438\u0446\u0435","lat":"43.866472","lng":"19.683962"},{"country":"RS","name":"Valjevo","lat":"44.271245","lng":"19.820129"},{"country":"RS","name":"\u0412\u0430\u0459\u0435\u0432\u043e","lat":"44.271245","lng":"19.820129"},{"country":"RS","name":"Varvarin","lat":"43.730843","lng":"21.286258"},{"country":"RS","name":"\u0412\u0430\u0440\u0432\u0430\u0440\u0438\u043d","lat":"43.730843","lng":"21.286258"},{"country":"RS","name":"Velika Plana","lat":"44.354829","lng":"21.078172"},{"country":"RS","name":"\u0412\u0435\u043b\u0438\u043a\u0430 \u041f\u043b\u0430\u043d\u0430","lat":"44.354829","lng":"21.078172"},{"country":"RS","name":"Veliko Gradi\u0161te","lat":"44.699662","lng":"21.435044"},{"country":"RS","name":"\u0412\u0435\u043b\u0438\u043a\u043e \u0413\u0440\u0430\u0434\u0438\u0448\u0442\u0435","lat":"44.699662","lng":"21.435044"},{"country":"RS","name":"Vladi\u010din Han","lat":"42.71957","lng":"22.030824"},{"country":"RS","name":"\u0412\u043b\u0430\u0434\u0438\u0447\u0438\u043d \u0425\u0430\u043d","lat":"42.71957","lng":"22.030824"},{"country":"RS","name":"Vlasotince","lat":"42.973831","lng":"22.190393"},{"country":"RS","name":"\u0412\u043b\u0430\u0441\u043e\u0442\u0438\u043d\u0446\u0435","lat":"42.973831","lng":"22.190393"},{"country":"RS","name":"Vo\u017edovac","lat":"44.691664","lng":"20.508577"},{"country":"RS","name":"\u0412\u043e\u0436\u0434\u043e\u0432\u0430\u0446","lat":"44.691664","lng":"20.508577"},{"country":"RS","name":"Vra\u010dar","lat":"44.798836","lng":"20.474224"},{"country":"RS","name":"\u0412\u0440\u0430\u0447\u0430\u0440","lat":"44.798836","lng":"20.474224"},{"country":"RS","name":"Vranje","lat":"42.495031","lng":"21.995917"},{"country":"RS","name":"\u0412\u0440\u0430\u045a\u0435","lat":"42.495031","lng":"21.995917"},{"country":"RS","name":"Vrbas","lat":"45.517157","lng":"19.622423"},{"country":"RS","name":"\u0412\u0440\u0431\u0430\u0441","lat":"45.517157","lng":"19.622423"},{"country":"RS","name":"Vrnja\u010dka Banja","lat":"43.601928","lng":"20.849773"},{"country":"RS","name":"\u0412\u0440\u045a\u0430\u0447\u043a\u0430 \u0411\u0430\u045a\u0430","lat":"43.601928","lng":"20.849773"},{"country":"RS","name":"Vr\u0161ac","lat":"45.084157","lng":"21.276611"},{"country":"RS","name":"\u0412\u0440\u0448\u0430\u0446","lat":"45.084157","lng":"21.276611"},{"country":"RS","name":"\u017dabalj","lat":"45.402439","lng":"20.07593"},{"country":"RS","name":"\u0416\u0430\u0431\u0430\u0459","lat":"45.402439","lng":"20.07593"},{"country":"RS","name":"\u017dabari","lat":"44.391413","lng":"21.223577"},{"country":"RS","name":"\u0416\u0430\u0431\u0430\u0440\u0438","lat":"44.391413","lng":"21.223577"},{"country":"RS","name":"\u017dagubica","lat":"44.219385","lng":"21.743652"},{"country":"RS","name":"\u0416\u0430\u0433\u0443\u0431\u0438\u0446\u0430","lat":"44.219385","lng":"21.743652"},{"country":"RS","name":"Zaje\u010dar","lat":"43.919811","lng":"22.285252"},{"country":"RS","name":"\u0417\u0430\u0458\u0435\u0447\u0430\u0440","lat":"43.919811","lng":"22.285252"},{"country":"RS","name":"\u0417\u0435\u043c\u0443\u043d","lat":"44.874107","lng":"20.319772"},{"country":"RS","name":"Zemun","lat":"44.874107","lng":"20.319772"},{"country":"RS","name":"\u017diti\u0161te","lat":"45.509997","lng":"20.613522"},{"country":"RS","name":"\u0416\u0438\u0442\u0438\u0448\u0442\u0435","lat":"45.509997","lng":"20.613522"},{"country":"RS","name":"\u017ditora\u0111a","lat":"43.168245","lng":"21.715996"},{"country":"RS","name":"\u0416\u0438\u0442\u043e\u0440\u0430\u0452\u0430","lat":"43.168245","lng":"21.715996"},{"country":"RS","name":"Zrenjanin","lat":"45.346131","lng":"20.42174"},{"country":"RS","name":"\u0417\u0440\u0435\u045a\u0430\u043d\u0438\u043d","lat":"45.346131","lng":"20.42174"},{"country":"RS","name":"Zvezdara","lat":"44.782923","lng":"20.526463"},{"country":"RS","name":"\u0417\u0432\u0435\u0437\u0434\u0430\u0440\u0430","lat":"44.782923","lng":"20.526463"},{"country":"RS","name":"Kosjeri\u0107","lat":"44.048726","lng":"19.870173"},{"country":"RS","name":"\u041a\u043e\u0441\u0458\u0435\u0440\u0438\u045b","lat":"44.048726","lng":"19.870173"},{"country":"RS","name":"Beograd","lat":"44.818611","lng":"20.468056"},{"country":"RS","name":"Belgrade","lat":"44.818611","lng":"20.468056"},{"country":"RS","name":"Sur\u010din","lat":"44.774893","lng":"20.235371"},{"country":"RS","name":"\u0421\u0443\u0440\u0447\u0438\u043d","lat":"44.774893","lng":"20.235371"},{"country":"RS","name":"Rakovica","lat":"44.723018","lng":"20.446681"},{"country":"RS","name":"\u0420\u0430\u043a\u043e\u0432\u0438\u0446\u0430","lat":"44.723018","lng":"20.446681"},{"country":"RS","name":"Sremska Mitrovica","lat":"45.012556","lng":"19.546113"},{"country":"RS","name":"\u0421\u0440\u0435\u043c\u0441\u043a\u0430 \u041c\u0438\u0442\u0440\u043e\u0432\u0438\u0446\u0430","lat":"45.012556","lng":"19.546113"},{"country":"RS","name":"Sremski Karlovci","lat":"45.182321","lng":"19.947194"},{"country":"RS","name":"\u0421\u0440\u0435\u043c\u0441\u043a\u0438 \u041a\u0430\u0440\u043b\u043e\u0432\u0446\u0438","lat":"45.182321","lng":"19.947194"},{"country":"RS","name":"Vladimirci","lat":"44.616496","lng":"19.824042"},{"country":"RS","name":"\u0412\u043b\u0430\u0434\u0438\u043c\u0438\u0440\u0446\u0438","lat":"44.616496","lng":"19.824042"},{"country":"RS","name":"\u0160id","lat":"45.054393","lng":"19.244359"},{"country":"RS","name":"\u0428\u0438\u0434","lat":"45.054393","lng":"19.244359"},{"country":"RS","name":"Ose\u010dina","lat":"44.343915","lng":"19.576827"},{"country":"RS","name":"\u041e\u0441\u0435\u0447\u0438\u043d\u0430","lat":"44.343915","lng":"19.576827"},{"country":"RS","name":"Bogati\u0107","lat":"44.836985","lng":"19.461537"},{"country":"RS","name":"\u0411\u043e\u0433\u0430\u0442\u0438\u045b","lat":"44.836985","lng":"19.461537"},{"country":"RS","name":"Mali Zvornik","lat":"44.372843","lng":"19.186846"},{"country":"RS","name":"\u041c\u0430\u043b\u0438 \u0417\u0432\u043e\u0440\u043d\u0438\u043a","lat":"44.372843","lng":"19.186846"},{"country":"RS","name":"Loznica","lat":"44.547953","lng":"19.345505"},{"country":"RS","name":"\u041b\u043e\u0437\u043d\u0438\u0446\u0430","lat":"44.547953","lng":"19.345505"},{"country":"RS","name":"Ljubovija","lat":"44.215957","lng":"19.448548"},{"country":"RS","name":"\u0409\u0443\u0431\u043e\u0432\u0438\u0458\u0430","lat":"44.215957","lng":"19.448548"},{"country":"RS","name":"Krupanj","lat":"44.387861","lng":"19.399942"},{"country":"RS","name":"\u041a\u0440\u0443\u043f\u0430\u045a","lat":"44.387861","lng":"19.399942"}]