[{"country":"SM","name":"Acquaviva","lat":"43.95","lng":"12.416667"},{"country":"SM","name":"Serravalle","lat":"43.95","lng":"12.5"},{"country":"SM","name":"Poggio di Chiesanuova","lat":"43.916667","lng":"12.416667"},{"country":"SM","name":"Domagnano","lat":"43.954167","lng":"12.483333"},{"country":"SM","name":"Faetano","lat":"43.925","lng":"12.491667"},{"country":"SM","name":"Fiorentino","lat":"43.908333","lng":"12.458333"},{"country":"SM","name":"Montegiardino","lat":"43.908333","lng":"12.483333"},{"country":"SM","name":"San Marino Citt\u00e0","lat":"43.933333","lng":"12.45"},{"country":"SM","name":"Serravalle","lat":"43.966667","lng":"12.466667"},{"country":"SM","name":"Borgo Maggiore","lat":"43.941667","lng":"12.458333"},{"country":"SM","name":"Chiesanuova","lat":"43.916667","lng":"12.416667"},{"country":"SM","name":"Acquaviva","lat":"43.95","lng":"12.416667"},{"country":"SM","name":"San Marino","lat":"43.933333","lng":"12.45"}]