[{"country":"TM","name":"Ashgabat","lat":"37.95","lng":"58.383333"},{"country":"TM","name":"A\u015fgabat","lat":"37.95","lng":"58.383333"},{"country":"TM","name":"A\u015fgabat","lat":"37.95","lng":"58.383333"},{"country":"TM","name":"Balkanabat","lat":"39.510753","lng":"54.367133"},{"country":"TM","name":"Mary","lat":"37.593785","lng":"61.830308"},{"country":"TM","name":"T\u00fcrkmenabat","lat":"39.07328","lng":"63.578615"},{"country":"TM","name":"Ahal","lat":"38.25","lng":"59.75"},{"country":"TM","name":"Balkan","lat":"40","lng":"54.5"},{"country":"TM","name":"Da\u015foguz","lat":"41","lng":"58.5"},{"country":"TM","name":"Lebap","lat":"39","lng":"63"},{"country":"TM","name":"Mary","lat":"37","lng":"62.5"},{"country":"TM","name":"Magtymguly","lat":"38.43749","lng":"56.280812"},{"country":"TM","name":"Da\u015foguz","lat":"41.836254","lng":"59.966615"}]