[{"country":"ZM","name":"Balovale","lat":"-13.543232","lng":"23.104665"},{"country":"ZM","name":"Sanjonjo","lat":"-13.073201","lng":"22.666411"},{"country":"ZM","name":"Shitonye","lat":"-12.771234","lng":"26.015835"},{"country":"ZM","name":"Shimukunyama","lat":"-12.865586","lng":"27.685466"},{"country":"ZM","name":"Simba Simba","lat":"-14.061892","lng":"27.257607"},{"country":"ZM","name":"Solwezi","lat":"-12.168796","lng":"26.389381"},{"country":"ZM","name":"Sitimla","lat":"-13.313625","lng":"32.227454"},{"country":"ZM","name":"Sitimia","lat":"-13.313625","lng":"32.227454"},{"country":"ZM","name":"Shinondi","lat":"-8.829616","lng":"30.629326"},{"country":"ZM","name":"Shimonde","lat":"-8.829616","lng":"30.629326"},{"country":"ZM","name":"Shinonde","lat":"-8.829616","lng":"30.629326"},{"country":"ZM","name":"Simoni","lat":"-12.803185","lng":"32.05989"},{"country":"ZM","name":"Mkonte","lat":"-14.166667","lng":"29.083333"},{"country":"ZM","name":"Mfombaika","lat":"-14.166667","lng":"29.083333"},{"country":"ZM","name":"Makufuneti","lat":"-15.933333","lng":"28.916667"},{"country":"ZM","name":"Kenguluka","lat":"-15.283333","lng":"28.816667"},{"country":"ZM","name":"Lusaka","lat":"-15.416667","lng":"28.283333"},{"country":"ZM","name":"Foxdale","lat":"-15.35","lng":"28.316667"},{"country":"ZM","name":"Chishya","lat":"-9.333333","lng":"31.966667"},{"country":"ZM","name":"Kawa","lat":"-9.316667","lng":"32.8"},{"country":"ZM","name":"Fife","lat":"-9.316667","lng":"32.8"},{"country":"ZM","name":"Chirambwezi","lat":"-9.066667","lng":"32.083333"},{"country":"ZM","name":"Machipisya","lat":"-9.266667","lng":"31.783333"},{"country":"ZM","name":"Nchelenge","lat":"-9.366667","lng":"32.2"},{"country":"ZM","name":"Lusalo","lat":"-8.95","lng":"31.7"},{"country":"ZM","name":"Nakatondo","lat":"-9.183333","lng":"32.133333"},{"country":"ZM","name":"Mutupika","lat":"-9.383333","lng":"32.233333"},{"country":"ZM","name":"Chombanenge","lat":"-8.933333","lng":"31.716667"},{"country":"ZM","name":"Sokwero","lat":"-9.15","lng":"32.15"},{"country":"ZM","name":"Chipuzi","lat":"-9.25","lng":"32.033333"},{"country":"ZM","name":"Romyonga","lat":"-9.2","lng":"32.016667"},{"country":"ZM","name":"Pambalasa","lat":"-9.15","lng":"31.75"},{"country":"ZM","name":"Katatha","lat":"-9.183333","lng":"32.083333"},{"country":"ZM","name":"Mwakor","lat":"-9.35","lng":"32.3"},{"country":"ZM","name":"Mwene Chileshye","lat":"-9.033333","lng":"31.883333"},{"country":"ZM","name":"Kapunfi","lat":"-8.25","lng":"30.566667"},{"country":"ZM","name":"Kaputa","lat":"-8.25","lng":"30.566667"},{"country":"ZM","name":"Lakamba","lat":"-17.316667","lng":"25.966667"},{"country":"ZM","name":"Chiumpe","lat":"-16.916667","lng":"26.55"},{"country":"ZM","name":"Chiumbe","lat":"-16.916667","lng":"26.55"},{"country":"ZM","name":"Laiafuta","lat":"-14.5","lng":"25.6"},{"country":"ZM","name":"Chilande","lat":"-14.033333","lng":"23.166667"},{"country":"ZM","name":"Kalomo","lat":"-17","lng":"26.083333"},{"country":"ZM","name":"Chiaze","lat":"-14.033333","lng":"23.183333"},{"country":"ZM","name":"Kayendo","lat":"-13.966667","lng":"23.6"},{"country":"ZM","name":"Muvalangunga","lat":"-13.75","lng":"22.05"},{"country":"ZM","name":"Mushima Mubambi","lat":"-14.166667","lng":"24.933333"},{"country":"ZM","name":"Luambe","lat":"-16.683333","lng":"26.283333"},{"country":"ZM","name":"Muyoyo","lat":"-14.083333","lng":"23.433333"},{"country":"ZM","name":"Nyachianzo","lat":"-14.083333","lng":"23.45"},{"country":"ZM","name":"Nyachianze","lat":"-14.083333","lng":"23.45"},{"country":"ZM","name":"Nyachianza","lat":"-14.083333","lng":"23.45"},{"country":"ZM","name":"Nyachiango","lat":"-14.083333","lng":"23.45"},{"country":"ZM","name":"Kambiri","lat":"-13.75","lng":"22.116667"},{"country":"ZM","name":"Kazila","lat":"-14.066667","lng":"23.366667"},{"country":"ZM","name":"Mulaka","lat":"-14.05","lng":"23.433333"},{"country":"ZM","name":"Shatukute","lat":"-16.033333","lng":"26.066667"},{"country":"ZM","name":"Siamponda","lat":"-16.516667","lng":"26.633333"},{"country":"ZM","name":"Makangara","lat":"-16.366667","lng":"26.716667"},{"country":"ZM","name":"Siamkakatea","lat":"-16.75","lng":"26.783333"},{"country":"ZM","name":"Tombamanyama","lat":"-16.35","lng":"26.7"},{"country":"ZM","name":"Shikube","lat":"-16.466667","lng":"26.65"},{"country":"ZM","name":"Shimalowani","lat":"-16.1","lng":"26.05"},{"country":"ZM","name":"Mutuzhi","lat":"-16.216667","lng":"26.716667"},{"country":"ZM","name":"Chibamboma","lat":"-16.7","lng":"26.65"},{"country":"ZM","name":"Mwiasangunga","lat":"-16.466667","lng":"26.683333"},{"country":"ZM","name":"Siabunkururu","lat":"-16.45","lng":"26.716667"},{"country":"ZM","name":"Myongo","lat":"-16.333333","lng":"26.716667"},{"country":"ZM","name":"Shepande","lat":"-16.15","lng":"26.516667"},{"country":"ZM","name":"Diabwa","lat":"-16.566667","lng":"26.766667"},{"country":"ZM","name":"Mwanagore","lat":"-16.433333","lng":"26.716667"},{"country":"ZM","name":"Kaliangile","lat":"-16.166667","lng":"26.316667"},{"country":"ZM","name":"Mulilabanyama","lat":"-16.15","lng":"26.316667"},{"country":"ZM","name":"Sirukobo","lat":"-16.266667","lng":"26.583333"},{"country":"ZM","name":"Kampondo","lat":"-16.266667","lng":"26.583333"},{"country":"ZM","name":"Shinfwamba","lat":"-16.066667","lng":"26.616667"},{"country":"ZM","name":"Siamungara","lat":"-16.45","lng":"26.65"},{"country":"ZM","name":"Siamungana","lat":"-16.45","lng":"26.65"},{"country":"ZM","name":"Siakinkombe","lat":"-16.383333","lng":"26.7"},{"country":"ZM","name":"Siakambe","lat":"-16.383333","lng":"26.7"},{"country":"ZM","name":"Siankinkobe","lat":"-16.383333","lng":"26.7"},{"country":"ZM","name":"Sivanda","lat":"-16.083333","lng":"26.033333"},{"country":"ZM","name":"Kitambo","lat":"-16.433333","lng":"26.666667"},{"country":"ZM","name":"Harlwindi","lat":"-16.383333","lng":"26.733333"},{"country":"ZM","name":"Chioma","lat":"-16.433333","lng":"26.683333"},{"country":"ZM","name":"Mopulu","lat":"-16.033333","lng":"26.1"},{"country":"ZM","name":"Siamutika","lat":"-16.216667","lng":"26.633333"},{"country":"ZM","name":"Jaravani","lat":"-16.45","lng":"26.783333"},{"country":"ZM","name":"Shabaalu","lat":"-16.033333","lng":"26.05"},{"country":"ZM","name":"Mpongola","lat":"-12.3","lng":"33.266667"},{"country":"ZM","name":"Chiwangu Ndhlovu","lat":"-11.833333","lng":"33.283333"},{"country":"ZM","name":"Karinga","lat":"-13.466667","lng":"32.4"},{"country":"ZM","name":"Nthambazina","lat":"-13.433333","lng":"32.666667"},{"country":"ZM","name":"Kamnama","lat":"-13.533333","lng":"32.833333"},{"country":"ZM","name":"Msitimale","lat":"-12.283333","lng":"33.266667"},{"country":"ZM","name":"Chinjala","lat":"-13.6","lng":"32.483333"},{"country":"ZM","name":"Mambato","lat":"-13.466667","lng":"32.766667"},{"country":"ZM","name":"Mgamphula","lat":"-13.466667","lng":"32.816667"},{"country":"ZM","name":"Manankhony","lat":"-13.433333","lng":"32.716667"},{"country":"ZM","name":"Simion","lat":"-13.566667","lng":"32.45"},{"country":"ZM","name":"Katamanda","lat":"-13.433333","lng":"32.883333"},{"country":"ZM","name":"Kamsosomolo","lat":"-11.766667","lng":"33.3"},{"country":"ZM","name":"Chewa","lat":"-13.566667","lng":"32.483333"},{"country":"ZM","name":"Changeta","lat":"-13.4","lng":"32.85"},{"country":"ZM","name":"Zoloka","lat":"-13.4","lng":"32.866667"},{"country":"ZM","name":"Chikankeni","lat":"-13.566667","lng":"32.516667"},{"country":"ZM","name":"Kanjauka","lat":"-13.35","lng":"32.883333"},{"country":"ZM","name":"Nkhambwa","lat":"-13.366667","lng":"32.466667"},{"country":"ZM","name":"Fort Jameson District","lat":"-13.5","lng":"32.166667"},{"country":"ZM","name":"Chipata","lat":"-13.5","lng":"32.166667"},{"country":"ZM","name":"Chindora","lat":"-13.483333","lng":"32.466667"},{"country":"ZM","name":"Citseko","lat":"-13.466667","lng":"32.45"},{"country":"ZM","name":"Kafota","lat":"-13.5","lng":"32.65"},{"country":"ZM","name":"Sefu","lat":"-13.05","lng":"32.116667"},{"country":"ZM","name":"Chipierelo","lat":"-11.95","lng":"33.233333"},{"country":"ZM","name":"Chisindili","lat":"-13.55","lng":"32.4"},{"country":"ZM","name":"Chizindiri","lat":"-13.55","lng":"32.4"},{"country":"ZM","name":"Kaunje","lat":"-12.966667","lng":"32.3"},{"country":"ZM","name":"Mtusia","lat":"-12.95","lng":"32.283333"},{"country":"ZM","name":"Mtunsia","lat":"-12.95","lng":"32.283333"},{"country":"ZM","name":"Miwalu","lat":"-11.883333","lng":"33.283333"},{"country":"ZM","name":"Kaperimera","lat":"-13.483333","lng":"32.283333"},{"country":"ZM","name":"Kaperemela","lat":"-13.483333","lng":"32.283333"},{"country":"ZM","name":"Chiwamba","lat":"-13.466667","lng":"32.316667"},{"country":"ZM","name":"Chikwenda","lat":"-13.166667","lng":"32.55"},{"country":"ZM","name":"Chisemberi","lat":"-8.483333","lng":"29.716667"},{"country":"ZM","name":"Kachusi","lat":"-14.333333","lng":"31.25"},{"country":"ZM","name":"Nchinchia","lat":"-14.283333","lng":"31.2"},{"country":"ZM","name":"Ndewa","lat":"-14.366667","lng":"31.283333"},{"country":"ZM","name":"Kaingo","lat":"-14.366667","lng":"31.3"},{"country":"ZM","name":"Wanje","lat":"-14.366667","lng":"31.3"},{"country":"ZM","name":"Chikuleni","lat":"-14.366667","lng":"31.316667"},{"country":"ZM","name":"Lubeno","lat":"-14.233333","lng":"31.283333"},{"country":"ZM","name":"Nsundo","lat":"-10.566667","lng":"31.466667"},{"country":"ZM","name":"Chipia","lat":"-10.016667","lng":"31.366667"},{"country":"ZM","name":"Kaputa","lat":"-8.75","lng":"29.833333"},{"country":"ZM","name":"Mafunsi","lat":"-14.45","lng":"31.233333"},{"country":"ZM","name":"Mphusa","lat":"-14.3","lng":"31.25"},{"country":"ZM","name":"Mularo","lat":"-14.3","lng":"31.25"},{"country":"ZM","name":"Chimponga","lat":"-14.25","lng":"31.2"},{"country":"ZM","name":"Chimphanga","lat":"-14.25","lng":"31.2"},{"country":"ZM","name":"Malamula","lat":"-14.25","lng":"31.216667"},{"country":"ZM","name":"Mphilwe","lat":"-14.266667","lng":"31.25"},{"country":"ZM","name":"Mankhomba","lat":"-14.383333","lng":"31.266667"},{"country":"ZM","name":"Humpempe","lat":"-9.7","lng":"29.683333"},{"country":"ZM","name":"Kawema","lat":"-9.633333","lng":"29.533333"},{"country":"ZM","name":"Nomansa","lat":"-10.45","lng":"30.816667"},{"country":"ZM","name":"Kalava","lat":"-8.433333","lng":"29.866667"},{"country":"ZM","name":"Dimas Kalaba","lat":"-8.433333","lng":"29.866667"},{"country":"ZM","name":"Sirimani","lat":"-8.483333","lng":"29.916667"},{"country":"ZM","name":"Sokone","lat":"-9.366667","lng":"30.116667"},{"country":"ZM","name":"Chawe","lat":"-9.7","lng":"29.6"},{"country":"ZM","name":"Mpomwa","lat":"-10.15","lng":"30.716667"},{"country":"ZM","name":"Yamalato","lat":"-10.15","lng":"30.8"},{"country":"ZM","name":"Nkunkulushya","lat":"-10.533333","lng":"30.866667"},{"country":"ZM","name":"Sinkymbulo","lat":"-10.366667","lng":"30.833333"},{"country":"ZM","name":"Esther-Ntolasha","lat":"-10.383333","lng":"30.85"},{"country":"ZM","name":"Kahiwira","lat":"-10.1","lng":"31.483333"},{"country":"ZM","name":"Mwanakatwe","lat":"-9.033333","lng":"30.1"},{"country":"ZM","name":"Cipande","lat":"-10.283333","lng":"31.05"},{"country":"ZM","name":"Chirupe","lat":"-14.016667","lng":"31.2"},{"country":"ZM","name":"Nyamwama","lat":"-13.983333","lng":"31.233333"},{"country":"ZM","name":"Kabilo","lat":"-10.55","lng":"30.666667"},{"country":"ZM","name":"Chande-Mukonge","lat":"-10.7","lng":"30.716667"},{"country":"ZM","name":"Cingali","lat":"-10.15","lng":"31.016667"},{"country":"ZM","name":"Tempwe","lat":"-10.183333","lng":"31.7"},{"country":"ZM","name":"Tempwa","lat":"-10.183333","lng":"31.7"},{"country":"ZM","name":"Kalamba","lat":"-14.033333","lng":"31.333333"},{"country":"ZM","name":"Sinondo","lat":"-9.8","lng":"30.683333"},{"country":"ZM","name":"Kayipambi","lat":"-9.633333","lng":"31.183333"},{"country":"ZM","name":"Nbonso","lat":"-10.8","lng":"30.95"},{"country":"ZM","name":"Chilumbe-Kotuli","lat":"-10.566667","lng":"30.933333"},{"country":"ZM","name":"Cinyimba","lat":"-10.65","lng":"31.016667"},{"country":"ZM","name":"Chingalawa","lat":"-9.566667","lng":"31.233333"},{"country":"ZM","name":"Shikai","lat":"-8.65","lng":"30.116667"},{"country":"ZM","name":"Mkupa","lat":"-13.733333","lng":"31.116667"},{"country":"ZM","name":"Cisoke","lat":"-10.633333","lng":"31.016667"},{"country":"ZM","name":"Shimwalela","lat":"-9.6","lng":"30.783333"},{"country":"ZM","name":"Mwambai","lat":"-9.85","lng":"31.45"},{"country":"ZM","name":"Chimbamambwe","lat":"-8.533333","lng":"30.15"},{"country":"ZM","name":"Chimbambwe","lat":"-8.533333","lng":"30.15"},{"country":"ZM","name":"Monogola","lat":"-8.533333","lng":"30.216667"},{"country":"ZM","name":"Kabundi","lat":"-8.5","lng":"30.05"},{"country":"ZM","name":"Shimwela","lat":"-8.45","lng":"30.066667"},{"country":"ZM","name":"Naboli","lat":"-8.45","lng":"30.083333"},{"country":"ZM","name":"Filisi","lat":"-8.483333","lng":"30.1"},{"country":"ZM","name":"Felesia","lat":"-8.483333","lng":"30.1"},{"country":"ZM","name":"Felesi","lat":"-8.483333","lng":"30.1"},{"country":"ZM","name":"Paulo","lat":"-8.45","lng":"30.1"},{"country":"ZM","name":"Kapepula","lat":"-8.45","lng":"30.1"},{"country":"ZM","name":"Dolochi","lat":"-8.45","lng":"30.1"},{"country":"ZM","name":"Yoane Mukonso","lat":"-8.433333","lng":"30.066667"},{"country":"ZM","name":"Mkoko","lat":"-8.433333","lng":"30.1"},{"country":"ZM","name":"Kasabwi","lat":"-8.5","lng":"30.133333"},{"country":"ZM","name":"Mwerumpandi","lat":"-8.466667","lng":"30.116667"},{"country":"ZM","name":"Ntambamweru","lat":"-8.45","lng":"30.133333"},{"country":"ZM","name":"Ntamba","lat":"-8.45","lng":"30.133333"},{"country":"ZM","name":"Fianpanga","lat":"-8.433333","lng":"30.15"},{"country":"ZM","name":"Chitengo","lat":"-14.483333","lng":"31.316667"},{"country":"ZM","name":"Msawiri","lat":"-14.483333","lng":"31.316667"},{"country":"ZM","name":"Pange","lat":"-9.816667","lng":"31.083333"},{"country":"ZM","name":"Mashati","lat":"-9.783333","lng":"31.566667"},{"country":"ZM","name":"Kasimbiri","lat":"-8.433333","lng":"30.15"},{"country":"ZM","name":"Chipawpaw","lat":"-8.35","lng":"30.05"},{"country":"ZM","name":"Kaliati","lat":"-8.35","lng":"30.05"},{"country":"ZM","name":"Museysha","lat":"-8.35","lng":"30.05"},{"country":"ZM","name":"Mkono","lat":"-8.466667","lng":"30.183333"},{"country":"ZM","name":"Pamolwa","lat":"-8.45","lng":"30.183333"},{"country":"ZM","name":"Musika","lat":"-8.466667","lng":"30.2"},{"country":"ZM","name":"Pembamoyo","lat":"-8.516667","lng":"30.25"},{"country":"ZM","name":"Pembamoto","lat":"-8.516667","lng":"30.25"},{"country":"ZM","name":"Malama","lat":"-14.433333","lng":"31.283333"},{"country":"ZM","name":"Onje","lat":"-14.4","lng":"31.333333"},{"country":"ZM","name":"Kapetu","lat":"-9.65","lng":"30.966667"},{"country":"ZM","name":"Kaphusa Mwansa","lat":"-10.466667","lng":"31.2"},{"country":"ZM","name":"Kakimba","lat":"-10.416667","lng":"31.2"},{"country":"ZM","name":"Kaluala","lat":"-9.566667","lng":"31.5"},{"country":"ZM","name":"Kalambola","lat":"-8.65","lng":"30.383333"},{"country":"ZM","name":"Kamindwa","lat":"-8.65","lng":"30.383333"},{"country":"ZM","name":"Matanga","lat":"-8.65","lng":"30.4"},{"country":"ZM","name":"Mwachara","lat":"-14.366667","lng":"31.066667"},{"country":"ZM","name":"Chirima","lat":"-14.3","lng":"31.083333"},{"country":"ZM","name":"Nchelenge","lat":"-9","lng":"29"},{"country":"ZM","name":"Shimba","lat":"-9.266667","lng":"28.4"},{"country":"ZM","name":"Mukule","lat":"-10.383333","lng":"31.216667"},{"country":"ZM","name":"Charilachila","lat":"-9.533333","lng":"29.733333"},{"country":"ZM","name":"Kipulwe","lat":"-9.3","lng":"28.466667"},{"country":"ZM","name":"Kipulwa","lat":"-9.3","lng":"28.466667"},{"country":"ZM","name":"Kisamba","lat":"-9.233333","lng":"28.466667"},{"country":"ZM","name":"Matthew","lat":"-10.116667","lng":"31.183333"},{"country":"ZM","name":"Metew","lat":"-10.116667","lng":"31.183333"},{"country":"ZM","name":"Ntokwa","lat":"-9.55","lng":"30.066667"},{"country":"ZM","name":"Chipiripiri","lat":"-9.45","lng":"30.116667"},{"country":"ZM","name":"Chinengo","lat":"-8.55","lng":"29.1"},{"country":"ZM","name":"Petauke","lat":"-14.166667","lng":"31"},{"country":"ZM","name":"Kunbu","lat":"-10.183333","lng":"31.216667"},{"country":"ZM","name":"Acitende","lat":"-10.15","lng":"31.233333"},{"country":"ZM","name":"Kashiema","lat":"-9.5","lng":"30.216667"},{"country":"ZM","name":"Kampwele","lat":"-14.466667","lng":"31.083333"},{"country":"ZM","name":"Chibisa","lat":"-14.3","lng":"31.333333"},{"country":"ZM","name":"Chenjerani","lat":"-14.283333","lng":"31.333333"},{"country":"ZM","name":"Kandiyo","lat":"-14.266667","lng":"31.283333"},{"country":"ZM","name":"Kazembe","lat":"-9.816667","lng":"28.766667"},{"country":"ZM","name":"Chombera","lat":"-11.216667","lng":"30.733333"},{"country":"ZM","name":"Mwuishi","lat":"-10.766667","lng":"31.133333"},{"country":"ZM","name":"Mukaluka","lat":"-10.133333","lng":"31.233333"},{"country":"ZM","name":"Kasama","lat":"-10.166667","lng":"31.25"},{"country":"ZM","name":"Shikasonde","lat":"-10.1","lng":"31.216667"},{"country":"ZM","name":"Shakasonde","lat":"-10.1","lng":"31.216667"},{"country":"ZM","name":"Chikadi","lat":"-14.25","lng":"31.3"},{"country":"ZM","name":"Stambuli","lat":"-14.25","lng":"31.316667"},{"country":"ZM","name":"Chimati","lat":"-14.25","lng":"31.333333"},{"country":"ZM","name":"Chiwutuwutu","lat":"-10.616667","lng":"31.166667"},{"country":"ZM","name":"Chibutubulu","lat":"-10.616667","lng":"31.166667"},{"country":"ZM","name":"Nampanda","lat":"-10","lng":"31.3"},{"country":"ZM","name":"Mulenga-Kasopu","lat":"-10.483333","lng":"31.383333"},{"country":"ZM","name":"Kamkoma","lat":"-14.616667","lng":"31.216667"},{"country":"ZM","name":"Kamjoma","lat":"-14.616667","lng":"31.216667"},{"country":"ZM","name":"Kankhomba","lat":"-14.616667","lng":"31.216667"},{"country":"ZM","name":"Mwaulika","lat":"-14.333333","lng":"31.15"},{"country":"ZM","name":"Choinja","lat":"-14.2","lng":"31.183333"},{"country":"ZM","name":"Maloa","lat":"-14.2","lng":"31.216667"},{"country":"ZM","name":"Kamboke","lat":"-14.133333","lng":"31.15"},{"country":"ZM","name":"Chituzi","lat":"-14.116667","lng":"31.15"},{"country":"ZM","name":"Canda Kasonde","lat":"-10.3","lng":"31.366667"},{"country":"ZM","name":"Chuwoma","lat":"-10.116667","lng":"31.35"},{"country":"ZM","name":"Sabezo","lat":"-13.433333","lng":"22.016667"},{"country":"ZM","name":"Nguvo","lat":"-13.433333","lng":"22.033333"},{"country":"ZM","name":"Kakango","lat":"-13.466667","lng":"22.066667"},{"country":"ZM","name":"Saviemba","lat":"-13.45","lng":"22.066667"},{"country":"ZM","name":"Mukua","lat":"-13.583333","lng":"22.366667"},{"country":"ZM","name":"Simonga","lat":"-13.283333","lng":"23.066667"},{"country":"ZM","name":"Simongu","lat":"-13.283333","lng":"23.066667"},{"country":"ZM","name":"Sinonge","lat":"-13.283333","lng":"23.066667"},{"country":"ZM","name":"Kanzimbu","lat":"-13.266667","lng":"23.05"},{"country":"ZM","name":"Chifwinda","lat":"-13.166667","lng":"24.05"},{"country":"ZM","name":"Sambando","lat":"-13.033333","lng":"23.933333"},{"country":"ZM","name":"Kazilakambaka","lat":"-13.033333","lng":"23.95"},{"country":"ZM","name":"Kazila","lat":"-13.033333","lng":"23.95"},{"country":"ZM","name":"Ngund","lat":"-13.766667","lng":"23"},{"country":"ZM","name":"Kauni","lat":"-12.216667","lng":"27.416667"},{"country":"ZM","name":"Shakaero","lat":"-13.483333","lng":"22.016667"},{"country":"ZM","name":"Muheta","lat":"-13.483333","lng":"22.033333"},{"country":"ZM","name":"Kanbombwe","lat":"-13.483333","lng":"22.05"},{"country":"ZM","name":"Katwando","lat":"-13.5","lng":"22.416667"},{"country":"ZM","name":"Katwanda","lat":"-13.5","lng":"22.416667"},{"country":"ZM","name":"Ngongwela","lat":"-13.566667","lng":"22.5"},{"country":"ZM","name":"Ngongweta","lat":"-13.566667","lng":"22.5"},{"country":"ZM","name":"Chimbalanganji","lat":"-13.5","lng":"22.45"},{"country":"ZM","name":"Chikenze","lat":"-13.483333","lng":"22.45"},{"country":"ZM","name":"Kalengwe","lat":"-13.516667","lng":"22.483333"},{"country":"ZM","name":"Munyau","lat":"-13.35","lng":"23.266667"},{"country":"ZM","name":"Chienga","lat":"-13.433333","lng":"23.216667"},{"country":"ZM","name":"Nyampaso","lat":"-13.366667","lng":"23.316667"},{"country":"ZM","name":"Samiyenga","lat":"-13.466667","lng":"24.1"},{"country":"ZM","name":"Sachisika","lat":"-13.283333","lng":"24.083333"},{"country":"ZM","name":"Sipandakama","lat":"-13.266667","lng":"24.083333"},{"country":"ZM","name":"Chihuto","lat":"-13.25","lng":"24.066667"},{"country":"ZM","name":"Kabompo","lat":"-13.25","lng":"24.166667"},{"country":"ZM","name":"Kalezi","lat":"-13.25","lng":"24.2"},{"country":"ZM","name":"Sinyama Imasiku","lat":"-13.266667","lng":"24.216667"},{"country":"ZM","name":"Ntambi","lat":"-9.283333","lng":"30.766667"},{"country":"ZM","name":"Sinyama","lat":"-13.45","lng":"22.383333"},{"country":"ZM","name":"Kazemba","lat":"-13.45","lng":"22.416667"},{"country":"ZM","name":"Kazila","lat":"-13.466667","lng":"22.45"},{"country":"ZM","name":"Mutonde","lat":"-13.216667","lng":"22.383333"},{"country":"ZM","name":"Mutondo","lat":"-13.216667","lng":"22.383333"},{"country":"ZM","name":"Chiengi","lat":"-13.216667","lng":"22.666667"},{"country":"ZM","name":"Ngisa","lat":"-13.183333","lng":"22.133333"},{"country":"ZM","name":"Mbingita","lat":"-13.083333","lng":"22.133333"},{"country":"ZM","name":"Mbingila","lat":"-13.083333","lng":"22.133333"},{"country":"ZM","name":"Bokola","lat":"-13.333333","lng":"23.266667"},{"country":"ZM","name":"Bokolo","lat":"-13.333333","lng":"23.266667"},{"country":"ZM","name":"Mukenda","lat":"-13.3","lng":"23.366667"},{"country":"ZM","name":"Siengele","lat":"-13.15","lng":"24.15"},{"country":"ZM","name":"Miyika","lat":"-12.616667","lng":"26.966667"},{"country":"ZM","name":"Mulochika","lat":"-12.616667","lng":"26.966667"},{"country":"ZM","name":"Nyantanda","lat":"-13.15","lng":"22.2"},{"country":"ZM","name":"Kakingo","lat":"-13.133333","lng":"22.25"},{"country":"ZM","name":"Musungo","lat":"-13.183333","lng":"22.45"},{"country":"ZM","name":"Helengzsi","lat":"-13.2","lng":"22.533333"},{"country":"ZM","name":"Helengsi","lat":"-13.2","lng":"22.533333"},{"country":"ZM","name":"Kalobo","lat":"-13.2","lng":"22.583333"},{"country":"ZM","name":"Kikuyu","lat":"-13.2","lng":"22.733333"},{"country":"ZM","name":"Chieke","lat":"-13.183333","lng":"22.75"},{"country":"ZM","name":"Likwashe","lat":"-13.266667","lng":"23.3"},{"country":"ZM","name":"Kikwashi","lat":"-13.266667","lng":"23.3"},{"country":"ZM","name":"Limbangu","lat":"-13.666667","lng":"22.5"},{"country":"ZM","name":"Kaliabindende","lat":"-13.7","lng":"22.6"},{"country":"ZM","name":"Nyawandu","lat":"-13.666667","lng":"22.516667"},{"country":"ZM","name":"Kabela","lat":"-13.65","lng":"22.516667"},{"country":"ZM","name":"Kabeta","lat":"-13.65","lng":"22.516667"},{"country":"ZM","name":"Mihoba","lat":"-13.183333","lng":"22.683333"},{"country":"ZM","name":"Zinga","lat":"-13.083333","lng":"22.616667"},{"country":"ZM","name":"Samakai","lat":"-13.65","lng":"23.083333"},{"country":"ZM","name":"Samaka","lat":"-13.65","lng":"23.083333"},{"country":"ZM","name":"Luembe","lat":"-14.45","lng":"30.466667"},{"country":"ZM","name":"Likwelende","lat":"-13.066667","lng":"22.666667"},{"country":"ZM","name":"Chieze","lat":"-13.05","lng":"22.666667"},{"country":"ZM","name":"Chiena","lat":"-13.033333","lng":"22.666667"},{"country":"ZM","name":"Kazomba","lat":"-13.733333","lng":"23.166667"},{"country":"ZM","name":"Mitedembe","lat":"-13.016667","lng":"22.683333"},{"country":"ZM","name":"Chieseko","lat":"-13.616667","lng":"22.816667"},{"country":"ZM","name":"Lisheshe","lat":"-13.583333","lng":"22.766667"},{"country":"ZM","name":"Balovale District","lat":"-13.5","lng":"22.75"},{"country":"ZM","name":"Zambezi","lat":"-13.5","lng":"22.75"},{"country":"ZM","name":"Mahuma","lat":"-13.066667","lng":"22.783333"},{"country":"ZM","name":"Chifwisa","lat":"-13.083333","lng":"22.8"},{"country":"ZM","name":"Sachiaka","lat":"-13.05","lng":"22.7"},{"country":"ZM","name":"Kanyati","lat":"-13.016667","lng":"22.7"},{"country":"ZM","name":"Lingelenganda","lat":"-13.016667","lng":"22.733333"},{"country":"ZM","name":"Sawalenge","lat":"-13.05","lng":"22.8"},{"country":"ZM","name":"Sawalenje","lat":"-13.05","lng":"22.8"},{"country":"ZM","name":"Mubeta","lat":"-13.666667","lng":"23.2"},{"country":"ZM","name":"Shimo","lat":"-13.633333","lng":"23.2"},{"country":"ZM","name":"Katombo","lat":"-13.683333","lng":"23.216667"},{"country":"ZM","name":"Mondela","lat":"-13.733333","lng":"23.266667"},{"country":"ZM","name":"Keneth","lat":"-8.65","lng":"30.733333"},{"country":"ZM","name":"Lipadzula","lat":"-13.566667","lng":"22.966667"},{"country":"ZM","name":"Maliachila","lat":"-13.483333","lng":"23"},{"country":"ZM","name":"Liangumbula","lat":"-13.45","lng":"22.733333"},{"country":"ZM","name":"Masozi","lat":"-13.033333","lng":"22.833333"},{"country":"ZM","name":"Samuzimo","lat":"-13.166667","lng":"22.966667"},{"country":"ZM","name":"Chitungu","lat":"-13.75","lng":"23.45"},{"country":"ZM","name":"Sendambo","lat":"-13.7","lng":"23.45"},{"country":"ZM","name":"Sandombo","lat":"-13.7","lng":"23.45"},{"country":"ZM","name":"Niolomba","lat":"-13.633333","lng":"23.45"},{"country":"ZM","name":"Moshiri","lat":"-13.416667","lng":"22.733333"},{"country":"ZM","name":"Saito","lat":"-13.233333","lng":"22.766667"},{"country":"ZM","name":"Satoko","lat":"-13.216667","lng":"22.816667"},{"country":"ZM","name":"Liavula","lat":"-13.216667","lng":"22.816667"},{"country":"ZM","name":"Kapalita","lat":"-13.383333","lng":"22.966667"},{"country":"ZM","name":"Musemo","lat":"-13.233333","lng":"22.866667"},{"country":"ZM","name":"Kapalu","lat":"-13.166667","lng":"23.016667"},{"country":"ZM","name":"Kungu","lat":"-13.15","lng":"23.016667"},{"country":"ZM","name":"Milangi","lat":"-13.016667","lng":"22.883333"},{"country":"ZM","name":"Hilangi","lat":"-13.016667","lng":"22.883333"},{"country":"ZM","name":"Lienda","lat":"-13","lng":"22.916667"},{"country":"ZM","name":"Singumbe","lat":"-13.65","lng":"23.883333"},{"country":"ZM","name":"Salwimba","lat":"-13.633333","lng":"23.883333"},{"country":"ZM","name":"Simwanga","lat":"-13.716667","lng":"24.15"},{"country":"ZM","name":"Kashanda","lat":"-13.666667","lng":"24.183333"},{"country":"ZM","name":"Mutingini","lat":"-13.666667","lng":"24.216667"},{"country":"ZM","name":"Musesha","lat":"-8.966667","lng":"29.433333"},{"country":"ZM","name":"Mpanda","lat":"-9.066667","lng":"29.6"},{"country":"ZM","name":"Sachilomba","lat":"-13.233333","lng":"22.916667"},{"country":"ZM","name":"Lipadzura","lat":"-13.283333","lng":"22.95"},{"country":"ZM","name":"Chitoko","lat":"-13.2","lng":"23.033333"},{"country":"ZM","name":"Sumpu","lat":"-13.116667","lng":"23.116667"},{"country":"ZM","name":"Sumpa","lat":"-13.116667","lng":"23.116667"},{"country":"ZM","name":"Chikunjika","lat":"-13.6","lng":"23.4"},{"country":"ZM","name":"Kanembi","lat":"-8.583333","lng":"29.583333"},{"country":"ZM","name":"Kampewe","lat":"-13.316667","lng":"23.016667"},{"country":"ZM","name":"Lunkuni","lat":"-13.216667","lng":"23.016667"},{"country":"ZM","name":"Lilangazi","lat":"-13.583333","lng":"23.083333"},{"country":"ZM","name":"Litangazi","lat":"-13.583333","lng":"23.083333"},{"country":"ZM","name":"Sakasaka","lat":"-13.55","lng":"23.416667"},{"country":"ZM","name":"Mporokoso","lat":"-9.666667","lng":"30.166667"},{"country":"ZM","name":"Chifwaku","lat":"-13.583333","lng":"23.116667"},{"country":"ZM","name":"Chifwako","lat":"-13.583333","lng":"23.116667"},{"country":"ZM","name":"Kakei","lat":"-13.25","lng":"23.533333"},{"country":"ZM","name":"Kakeke","lat":"-13.25","lng":"23.533333"},{"country":"ZM","name":"Lifunka","lat":"-13.883333","lng":"24.05"},{"country":"ZM","name":"Kazilisha","lat":"-13.5","lng":"23.116667"},{"country":"ZM","name":"Pumba","lat":"-13.6","lng":"23.183333"},{"country":"ZM","name":"Fumwaylolo","lat":"-13.5","lng":"23.133333"},{"country":"ZM","name":"Fumwayilolo","lat":"-13.5","lng":"23.133333"},{"country":"ZM","name":"Mujombwe","lat":"-13.483333","lng":"23.133333"},{"country":"ZM","name":"Libazi","lat":"-13.583333","lng":"23.883333"},{"country":"ZM","name":"Sinjamba","lat":"-13.783333","lng":"23.7"},{"country":"ZM","name":"Chizsu","lat":"-13.45","lng":"23.083333"},{"country":"ZM","name":"Chiesu","lat":"-13.45","lng":"23.083333"},{"country":"ZM","name":"Mundandama","lat":"-13.116667","lng":"23.433333"},{"country":"ZM","name":"Siebe","lat":"-13.866667","lng":"23.066667"},{"country":"ZM","name":"Sieba","lat":"-13.866667","lng":"23.066667"},{"country":"ZM","name":"Niongolo","lat":"-13.85","lng":"23.066667"},{"country":"ZM","name":"Kombangi","lat":"-13.833333","lng":"23.2"},{"country":"ZM","name":"Kombongi","lat":"-13.833333","lng":"23.2"},{"country":"ZM","name":"Nyakulinga","lat":"-13.033333","lng":"23.516667"},{"country":"ZM","name":"Bembu","lat":"-13.8","lng":"23.2"},{"country":"ZM","name":"Liseshe","lat":"-13.916667","lng":"23.216667"},{"country":"ZM","name":"Simoya","lat":"-13.916667","lng":"23.266667"},{"country":"ZM","name":"Sakahandi","lat":"-13.85","lng":"23.233333"},{"country":"ZM","name":"Kakonga","lat":"-13.8","lng":"23.233333"},{"country":"ZM","name":"Sakowewe","lat":"-13.583333","lng":"22.316667"},{"country":"ZM","name":"Simuli","lat":"-13.533333","lng":"22.266667"},{"country":"ZM","name":"Shinti","lat":"-13.4","lng":"23.083333"},{"country":"ZM","name":"Shinde","lat":"-13.4","lng":"23.083333"},{"country":"ZM","name":"Ishinde","lat":"-13.4","lng":"23.083333"},{"country":"ZM","name":"Mankambwila","lat":"-13.4","lng":"23.083333"},{"country":"ZM","name":"Mazaunde","lat":"-13.383333","lng":"23.083333"},{"country":"ZM","name":"Mazonda","lat":"-13.383333","lng":"23.083333"},{"country":"ZM","name":"Kambana","lat":"-13.383333","lng":"23.083333"},{"country":"ZM","name":"Mwaita","lat":"-13.366667","lng":"23.116667"},{"country":"ZM","name":"Mwaila","lat":"-13.366667","lng":"23.116667"},{"country":"ZM","name":"Mayenu","lat":"-13.783333","lng":"23.233333"},{"country":"ZM","name":"Tungu","lat":"-13.766667","lng":"23.25"},{"country":"ZM","name":"Caipakata","lat":"-14.366667","lng":"28.633333"},{"country":"ZM","name":"Mw\u2019Chunga","lat":"-14.683333","lng":"28.066667"},{"country":"ZM","name":"Mwachunga","lat":"-14.683333","lng":"28.066667"},{"country":"ZM","name":"Kimoto","lat":"-12.433333","lng":"27.833333"},{"country":"ZM","name":"Mchochoma","lat":"-14.383333","lng":"28.666667"},{"country":"ZM","name":"Kelunka","lat":"-14.3","lng":"28.716667"},{"country":"ZM","name":"Kanunka","lat":"-14.3","lng":"28.716667"},{"country":"ZM","name":"Libushya","lat":"-14.75","lng":"28.733333"},{"country":"ZM","name":"Chikalalira","lat":"-14.883333","lng":"28.266667"},{"country":"ZM","name":"Mwombishi","lat":"-14.883333","lng":"28.333333"},{"country":"ZM","name":"Ndola Rural","lat":"-12.916667","lng":"28.666667"},{"country":"ZM","name":"Ndola","lat":"-12.916667","lng":"28.666667"},{"country":"ZM","name":"Kadiawika","lat":"-12.466667","lng":"29.9"},{"country":"ZM","name":"Chiwalawi","lat":"-12.483333","lng":"29.933333"},{"country":"ZM","name":"Chikampuma","lat":"-14.3","lng":"28.75"},{"country":"ZM","name":"Mwanachiandi","lat":"-15.15","lng":"26.166667"},{"country":"ZM","name":"Lugutaika","lat":"-15.183333","lng":"26.366667"},{"country":"ZM","name":"Chilwawube","lat":"-15.166667","lng":"26.333333"},{"country":"ZM","name":"Nyumba","lat":"-15.166667","lng":"26.366667"},{"country":"ZM","name":"Lyolomena","lat":"-13.2","lng":"28.583333"},{"country":"ZM","name":"Moyana","lat":"-13.216667","lng":"28.6"},{"country":"ZM","name":"Kasabua","lat":"-13.166667","lng":"28.583333"},{"country":"ZM","name":"Puliki","lat":"-12.433333","lng":"30.1"},{"country":"ZM","name":"Chikumbe","lat":"-14.95","lng":"27.783333"},{"country":"ZM","name":"Kachile Shanyinde","lat":"-14.933333","lng":"27.816667"},{"country":"ZM","name":"Mbafu","lat":"-13.15","lng":"29.916667"},{"country":"ZM","name":"Munguoila","lat":"-13.15","lng":"29.916667"},{"country":"ZM","name":"Mulota Mwape","lat":"-13.116667","lng":"29.833333"},{"country":"ZM","name":"Mangaira","lat":"-12.516667","lng":"30.283333"},{"country":"ZM","name":"Bayeka","lat":"-14.883333","lng":"26.183333"},{"country":"ZM","name":"Kampengelo","lat":"-15.166667","lng":"26.483333"},{"country":"ZM","name":"Kampengela","lat":"-15.166667","lng":"26.483333"},{"country":"ZM","name":"Shiala","lat":"-14.9","lng":"27.766667"},{"country":"ZM","name":"Shimpano","lat":"-14.883333","lng":"27.783333"},{"country":"ZM","name":"Kaporo","lat":"-14.9","lng":"27.816667"},{"country":"ZM","name":"Shitutubula","lat":"-14.866667","lng":"27.8"},{"country":"ZM","name":"Kasowe","lat":"-14.833333","lng":"28.483333"},{"country":"ZM","name":"Kalilike","lat":"-13","lng":"29.883333"},{"country":"ZM","name":"Tshongola","lat":"-12.183333","lng":"29.933333"},{"country":"ZM","name":"Kachimbi","lat":"-15.05","lng":"26.516667"},{"country":"ZM","name":"Mumbwa","lat":"-15","lng":"26.5"},{"country":"ZM","name":"Lupumoula","lat":"-15.1","lng":"26.6"},{"country":"ZM","name":"Mwanalilanda","lat":"-14.916667","lng":"27.933333"},{"country":"ZM","name":"Kalubangwe","lat":"-14.883333","lng":"27.916667"},{"country":"ZM","name":"Luembi","lat":"-15.166667","lng":"28.1"},{"country":"ZM","name":"Ruemba","lat":"-15.166667","lng":"28.1"},{"country":"ZM","name":"Mpukuma","lat":"-14.816667","lng":"28.5"},{"country":"ZM","name":"Mukawe","lat":"-14.833333","lng":"28.55"},{"country":"ZM","name":"Namasupeti","lat":"-12.866667","lng":"30.666667"},{"country":"ZM","name":"Mkomesha","lat":"-15.05","lng":"26.7"},{"country":"ZM","name":"Sichilombwe","lat":"-15.166667","lng":"26.983333"},{"country":"ZM","name":"Shaduma","lat":"-15.166667","lng":"26.983333"},{"country":"ZM","name":"Rasheta","lat":"-15.166667","lng":"28.15"},{"country":"ZM","name":"Ntatushya","lat":"-15.016667","lng":"28.116667"},{"country":"ZM","name":"Chikolomo","lat":"-14.8","lng":"28.6"},{"country":"ZM","name":"Shadra","lat":"-8.466667","lng":"29.666667"},{"country":"ZM","name":"Luatika","lat":"-8.5","lng":"29.683333"},{"country":"ZM","name":"Mufulira","lat":"-12.5","lng":"28.25"},{"country":"ZM","name":"Matebele","lat":"-12.966667","lng":"29.983333"},{"country":"ZM","name":"Matibiri","lat":"-12.966667","lng":"29.983333"},{"country":"ZM","name":"Msanga","lat":"-14.366667","lng":"29.383333"},{"country":"ZM","name":"Masonga","lat":"-14.366667","lng":"29.383333"},{"country":"ZM","name":"Mwamanyundo","lat":"-15.033333","lng":"26.933333"},{"country":"ZM","name":"Lozhi","lat":"-14.983333","lng":"26.833333"},{"country":"ZM","name":"Mwamboshi","lat":"-14.966667","lng":"27.966667"},{"country":"ZM","name":"Simwenia","lat":"-8.483333","lng":"29.683333"},{"country":"ZM","name":"Chomo","lat":"-8.466667","lng":"29.683333"},{"country":"ZM","name":"Mkoloso","lat":"-12.95","lng":"30.05"},{"country":"ZM","name":"Panshila","lat":"-12.866667","lng":"30.016667"},{"country":"ZM","name":"Shikalima","lat":"-14.266667","lng":"29.5"},{"country":"ZM","name":"Kakubo","lat":"-14.916667","lng":"27.95"},{"country":"ZM","name":"Morfu","lat":"-11.1","lng":"30.35"},{"country":"ZM","name":"Chamakondi","lat":"-13.266667","lng":"28.7"},{"country":"ZM","name":"Saidi","lat":"-12.866667","lng":"30.733333"},{"country":"ZM","name":"Chiuysaidi","lat":"-12.866667","lng":"30.733333"},{"country":"ZM","name":"Kapulamota","lat":"-14.65","lng":"28.85"},{"country":"ZM","name":"Liverera","lat":"-14.633333","lng":"28.85"},{"country":"ZM","name":"Musekabantu","lat":"-12.966667","lng":"27.683333"},{"country":"ZM","name":"Mwisa","lat":"-12.966667","lng":"28.733333"},{"country":"ZM","name":"Lusaya","lat":"-12.933333","lng":"28.733333"},{"country":"ZM","name":"Belview","lat":"-12.9","lng":"28.633333"},{"country":"ZM","name":"Chiuyikasisi","lat":"-12.95","lng":"30.166667"},{"country":"ZM","name":"Chivyikasisi","lat":"-12.95","lng":"30.166667"},{"country":"ZM","name":"Ukaliwanshima","lat":"-14.6","lng":"29.066667"},{"country":"ZM","name":"Kabandula","lat":"-14.5","lng":"28.816667"},{"country":"ZM","name":"Lubunga","lat":"-14.583333","lng":"26.45"},{"country":"ZM","name":"Maumba","lat":"-12.816667","lng":"27.733333"},{"country":"ZM","name":"Chemankata","lat":"-12.816667","lng":"27.733333"},{"country":"ZM","name":"Kitwe","lat":"-12.75","lng":"28.25"},{"country":"ZM","name":"Chingola","lat":"-12.5","lng":"27.75"},{"country":"ZM","name":"Momba Farm","lat":"-12.316667","lng":"27.8"},{"country":"ZM","name":"Bancroft District","lat":"-12.333333","lng":"27.833333"},{"country":"ZM","name":"Chililabombwe","lat":"-12.333333","lng":"27.833333"},{"country":"ZM","name":"Chisura","lat":"-12.816667","lng":"32.05"},{"country":"ZM","name":"Chizira","lat":"-12.816667","lng":"32.05"},{"country":"ZM","name":"Licheto","lat":"-14.566667","lng":"28.966667"},{"country":"ZM","name":"Muyeba","lat":"-14.75","lng":"26.8"},{"country":"ZM","name":"Luanshya","lat":"-13","lng":"28.333333"},{"country":"ZM","name":"John Kalandika","lat":"-13.316667","lng":"31.666667"},{"country":"ZM","name":"Maimilamba","lat":"-14.75","lng":"29.116667"},{"country":"ZM","name":"Mainilama","lat":"-14.75","lng":"29.116667"},{"country":"ZM","name":"Mwanachimani","lat":"-14.816667","lng":"27.75"},{"country":"ZM","name":"Kakuuka","lat":"-14.85","lng":"27.816667"},{"country":"ZM","name":"Chisomona","lat":"-14.816667","lng":"27.816667"},{"country":"ZM","name":"Mokwanya","lat":"-14.816667","lng":"27.816667"},{"country":"ZM","name":"Makoshia","lat":"-12.733333","lng":"29.9"},{"country":"ZM","name":"Masakawantu","lat":"-14.366667","lng":"27.05"},{"country":"ZM","name":"Kasonde Cishisa","lat":"-10.283333","lng":"30.283333"},{"country":"ZM","name":"Mufyene","lat":"-13.133333","lng":"28.133333"},{"country":"ZM","name":"Ndola Urban District","lat":"-12.833333","lng":"28.583333"},{"country":"ZM","name":"Ndola","lat":"-12.833333","lng":"28.583333"},{"country":"ZM","name":"Kalulushi","lat":"-12.666667","lng":"28"},{"country":"ZM","name":"Musera","lat":"-12.583333","lng":"30.066667"},{"country":"ZM","name":"Serenje","lat":"-13","lng":"30.5"},{"country":"ZM","name":"Chibuyu Machila","lat":"-12.716667","lng":"30.483333"},{"country":"ZM","name":"Fumba","lat":"-15.116667","lng":"27.35"},{"country":"ZM","name":"Mwanakaloso","lat":"-14.766667","lng":"27.933333"},{"country":"ZM","name":"Katuaula","lat":"-12.516667","lng":"30.416667"},{"country":"ZM","name":"Nkomeshyo","lat":"-14.75","lng":"27.966667"},{"country":"ZM","name":"Nchanga Mine","lat":"-12.516667","lng":"27.866667"},{"country":"ZM","name":"Liafushya","lat":"-14.733333","lng":"28.616667"},{"country":"ZM","name":"Nteche","lat":"-14.716667","lng":"28.65"},{"country":"ZM","name":"Mw\u2019Miyamba","lat":"-14.583333","lng":"28.583333"},{"country":"ZM","name":"Mwamuyamba","lat":"-14.583333","lng":"28.583333"},{"country":"ZM","name":"Chikoroma","lat":"-14.566667","lng":"28.633333"},{"country":"ZM","name":"Nangweruka","lat":"-16.2","lng":"27.766667"},{"country":"ZM","name":"Siamungombwe","lat":"-16.25","lng":"28.316667"},{"country":"ZM","name":"Siansiagu","lat":"-17.733333","lng":"25.7"},{"country":"ZM","name":"Livingstone","lat":"-17.666667","lng":"25.833333"},{"country":"ZM","name":"Chilume","lat":"-16.6","lng":"26.833333"},{"country":"ZM","name":"Sianjola","lat":"-16.6","lng":"27.533333"},{"country":"ZM","name":"Samanansa","lat":"-16.266667","lng":"27.25"},{"country":"ZM","name":"Marundu","lat":"-16.066667","lng":"27.2"},{"country":"ZM","name":"Lusie","lat":"-16.5","lng":"27.95"},{"country":"ZM","name":"Gwembe","lat":"-16.5","lng":"28"},{"country":"ZM","name":"Siokolinda","lat":"-16.283333","lng":"28.366667"},{"country":"ZM","name":"Siamuzemba","lat":"-16.25","lng":"28.4"},{"country":"ZM","name":"Chombe","lat":"-16.266667","lng":"28.5"},{"country":"ZM","name":"Siadobele","lat":"-16.25","lng":"28.483333"},{"country":"ZM","name":"Makwinde","lat":"-17.533333","lng":"25.6"},{"country":"ZM","name":"Makai","lat":"-17.533333","lng":"25.633333"},{"country":"ZM","name":"Siantalusia","lat":"-17.516667","lng":"25.65"},{"country":"ZM","name":"Mweela","lat":"-17.533333","lng":"25.666667"},{"country":"ZM","name":"Shampandula","lat":"-16.333333","lng":"27.533333"},{"country":"ZM","name":"Glabasefu","lat":"-16.05","lng":"27.216667"},{"country":"ZM","name":"Tundwi","lat":"-16.133333","lng":"27.733333"},{"country":"ZM","name":"Chiela","lat":"-16.15","lng":"27.75"},{"country":"ZM","name":"Monga","lat":"-16.083333","lng":"28.45"},{"country":"ZM","name":"Siamaluwa","lat":"-16.766667","lng":"27.666667"},{"country":"ZM","name":"Sampani","lat":"-16.766667","lng":"27.683333"},{"country":"ZM","name":"Mwenamwala","lat":"-16.25","lng":"27.366667"},{"country":"ZM","name":"Mugamia","lat":"-16.466667","lng":"27.983333"},{"country":"ZM","name":"Simwelezhia","lat":"-16.3","lng":"27.45"},{"country":"ZM","name":"Banji","lat":"-16.283333","lng":"27.45"},{"country":"ZM","name":"Mungayakabanga","lat":"-16.466667","lng":"27.983333"},{"country":"ZM","name":"Nadonge","lat":"-16.333333","lng":"27.833333"},{"country":"ZM","name":"Mungoro","lat":"-16.333333","lng":"27.95"},{"country":"ZM","name":"Siatchelo","lat":"-16.65","lng":"27.716667"},{"country":"ZM","name":"Sikayambo","lat":"-16.766667","lng":"27.8"},{"country":"ZM","name":"Marindi","lat":"-16.75","lng":"27.8"},{"country":"ZM","name":"Chinumbwa","lat":"-16.366667","lng":"27.9"},{"country":"ZM","name":"Kufwafudulu","lat":"-16.4","lng":"28.716667"},{"country":"ZM","name":"Poma","lat":"-16.6","lng":"27.1"},{"country":"ZM","name":"Kabimba","lat":"-16.283333","lng":"27.9"},{"country":"ZM","name":"Chikanda Munchili","lat":"-16.25","lng":"27.983333"},{"country":"ZM","name":"Choma","lat":"-16.666667","lng":"27.166667"},{"country":"ZM","name":"Siatchanga","lat":"-16.6","lng":"27.733333"},{"country":"ZM","name":"Chigunka","lat":"-16.35","lng":"27.566667"},{"country":"ZM","name":"Chiganka","lat":"-16.366667","lng":"27.583333"},{"country":"ZM","name":"Ruvemba","lat":"-16.316667","lng":"27.55"},{"country":"ZM","name":"Sikalamao","lat":"-16.166667","lng":"27.466667"},{"country":"ZM","name":"Manyapa","lat":"-16.3","lng":"28.816667"},{"country":"ZM","name":"Tambale","lat":"-16.166667","lng":"28.766667"},{"country":"ZM","name":"Chatugwa","lat":"-16.183333","lng":"28.783333"},{"country":"ZM","name":"Sialujelo","lat":"-16.183333","lng":"28.816667"},{"country":"ZM","name":"Nashongo","lat":"-16.183333","lng":"28.816667"},{"country":"ZM","name":"Siansuntwe","lat":"-16.183333","lng":"28.816667"},{"country":"ZM","name":"Siabena","lat":"-16.616667","lng":"27.75"},{"country":"ZM","name":"Siakasandasima","lat":"-16.366667","lng":"27.633333"},{"country":"ZM","name":"Sialuindi","lat":"-16.316667","lng":"27.65"},{"country":"ZM","name":"Choambana","lat":"-16.333333","lng":"27.683333"},{"country":"ZM","name":"Kalua","lat":"-16.15","lng":"27.383333"},{"country":"ZM","name":"Marumani","lat":"-16.133333","lng":"27.366667"},{"country":"ZM","name":"Siamzembwe","lat":"-16.183333","lng":"28.816667"},{"country":"ZM","name":"Pambazani","lat":"-16.166667","lng":"28.816667"},{"country":"ZM","name":"Siamupabi","lat":"-16.133333","lng":"28.783333"},{"country":"ZM","name":"Siamulumbu","lat":"-16.133333","lng":"28.783333"},{"country":"ZM","name":"Muyauli","lat":"-16.15","lng":"28.833333"},{"country":"ZM","name":"Sitinkwe","lat":"-16.15","lng":"28.833333"},{"country":"ZM","name":"Siamuyala","lat":"-16.15","lng":"28.833333"},{"country":"ZM","name":"Kajaswa","lat":"-16.066667","lng":"28.833333"},{"country":"ZM","name":"Maruma","lat":"-16.733333","lng":"27.266667"},{"country":"ZM","name":"Siamachela","lat":"-16.6","lng":"27.883333"},{"country":"ZM","name":"Siananbwe","lat":"-16.566667","lng":"28.05"},{"country":"ZM","name":"Liduli","lat":"-17.3","lng":"25.783333"},{"country":"ZM","name":"Kabubwe","lat":"-16.483333","lng":"26.933333"},{"country":"ZM","name":"Kwahangua","lat":"-16.183333","lng":"26.816667"},{"country":"ZM","name":"Hajisa","lat":"-16.233333","lng":"26.95"},{"country":"ZM","name":"Mbovera","lat":"-16.2","lng":"26.95"},{"country":"ZM","name":"Musonguli","lat":"-16.166667","lng":"26.966667"},{"country":"ZM","name":"Sianamanga","lat":"-16.3","lng":"27.716667"},{"country":"ZM","name":"Makayuwa","lat":"-16.266667","lng":"27.7"},{"country":"ZM","name":"Habbunya","lat":"-16.45","lng":"27.883333"},{"country":"ZM","name":"Shanonga","lat":"-16.35","lng":"26.933333"},{"country":"ZM","name":"Maaba","lat":"-16.633333","lng":"27.483333"},{"country":"ZM","name":"Mwanamwala","lat":"-16.116667","lng":"26.883333"},{"country":"ZM","name":"Sikapandi","lat":"-16.3","lng":"27.766667"},{"country":"ZM","name":"Siamakoko","lat":"-16.666667","lng":"28.083333"},{"country":"ZM","name":"Moheni","lat":"-16.333333","lng":"26.933333"},{"country":"ZM","name":"Haniendo","lat":"-16.266667","lng":"27.75"},{"country":"ZM","name":"Statilima","lat":"-16.25","lng":"27.766667"},{"country":"ZM","name":"Makwamba","lat":"-16.166667","lng":"27.716667"},{"country":"ZM","name":"Chioma","lat":"-16.233333","lng":"27.733333"},{"country":"ZM","name":"Oligonkezia","lat":"-16.55","lng":"27.816667"},{"country":"ZM","name":"Nawachila","lat":"-16.383333","lng":"27.95"},{"country":"ZM","name":"Siabumbene","lat":"-16.516667","lng":"27.233333"},{"country":"ZM","name":"Mateya","lat":"-16.233333","lng":"27.75"},{"country":"ZM","name":"Simacebele","lat":"-17.166667","lng":"25.85"},{"country":"ZM","name":"Ivonge","lat":"-17.466667","lng":"25.933333"},{"country":"ZM","name":"Siawasa","lat":"-17.733333","lng":"26.933333"},{"country":"ZM","name":"Siamona","lat":"-17.433333","lng":"25.9"},{"country":"ZM","name":"Malionga","lat":"-17.7","lng":"26.783333"},{"country":"ZM","name":"Madyonga","lat":"-17.7","lng":"26.783333"},{"country":"ZM","name":"Madiongo","lat":"-17.7","lng":"26.783333"},{"country":"ZM","name":"Shenjungu","lat":"-15.783333","lng":"26.016667"},{"country":"ZM","name":"Namwala","lat":"-16","lng":"26.25"},{"country":"ZM","name":"Siamaja Zirundu","lat":"-17.65","lng":"26.733333"},{"country":"ZM","name":"Siameja-Wa-Zilunda","lat":"-17.65","lng":"26.733333"},{"country":"ZM","name":"Munalucena","lat":"-16.016667","lng":"26.066667"},{"country":"ZM","name":"Siankwa","lat":"-17.85","lng":"26.816667"},{"country":"ZM","name":"Muwezwe","lat":"-15.866667","lng":"26.083333"},{"country":"ZM","name":"Basanga","lat":"-15.866667","lng":"26.083333"},{"country":"ZM","name":"Siamsalama","lat":"-17.85","lng":"26.85"},{"country":"ZM","name":"Kendundwa","lat":"-15.783333","lng":"26.05"},{"country":"ZM","name":"Nanalyou","lat":"-15.75","lng":"26.1"},{"country":"ZM","name":"Masine","lat":"-15.55","lng":"26.483333"},{"country":"ZM","name":"Mwanakambwe","lat":"-15.4","lng":"26.55"},{"country":"ZM","name":"Lufunfula","lat":"-15.833333","lng":"26.233333"},{"country":"ZM","name":"Matungu","lat":"-15.85","lng":"26.55"},{"country":"ZM","name":"Kanjuwa","lat":"-15.416667","lng":"26.95"},{"country":"ZM","name":"Makabela","lat":"-15.733333","lng":"26.5"},{"country":"ZM","name":"Mukabela","lat":"-15.733333","lng":"26.5"},{"country":"ZM","name":"Chief Mukobela","lat":"-15.733333","lng":"26.5"},{"country":"ZM","name":"Makobela","lat":"-15.733333","lng":"26.5"},{"country":"ZM","name":"Siabasuni","lat":"-15.966667","lng":"27.366667"},{"country":"ZM","name":"Shajimwunu","lat":"-15.483333","lng":"26.166667"},{"country":"ZM","name":"Ngabo","lat":"-15.466667","lng":"26.483333"},{"country":"ZM","name":"Fumba","lat":"-15.466667","lng":"26.483333"},{"country":"ZM","name":"Chikomania","lat":"-15.716667","lng":"27.366667"},{"country":"ZM","name":"Mashigi","lat":"-15.3","lng":"26.35"},{"country":"ZM","name":"Chibunzi","lat":"-15.7","lng":"26.6"},{"country":"ZM","name":"Lambola","lat":"-15.666667","lng":"26.833333"},{"country":"ZM","name":"Chibendo","lat":"-15.583333","lng":"26.883333"},{"country":"ZM","name":"Mazabuka","lat":"-16","lng":"28"},{"country":"ZM","name":"Tonko","lat":"-15.333333","lng":"26.383333"},{"country":"ZM","name":"Mande","lat":"-15.983333","lng":"26.983333"},{"country":"ZM","name":"Buyongwe","lat":"-15.566667","lng":"26.65"},{"country":"ZM","name":"Kakowera","lat":"-15.666667","lng":"26.55"},{"country":"ZM","name":"Monze","lat":"-16","lng":"27.25"},{"country":"ZM","name":"Jube","lat":"-15.583333","lng":"26.983333"},{"country":"ZM","name":"Mooba","lat":"-15.766667","lng":"26.316667"},{"country":"ZM","name":"Mopa","lat":"-15.766667","lng":"26.316667"},{"country":"ZM","name":"Manikilo","lat":"-15.516667","lng":"26.716667"},{"country":"ZM","name":"Tiambwa","lat":"-15.5","lng":"26.366667"},{"country":"ZM","name":"Shimukopola","lat":"-15.733333","lng":"26.85"},{"country":"ZM","name":"Shimukuputa","lat":"-15.733333","lng":"26.85"},{"country":"ZM","name":"Shimukupula","lat":"-15.733333","lng":"26.85"},{"country":"ZM","name":"Chinkuri","lat":"-15.416667","lng":"26.416667"},{"country":"ZM","name":"Siansofu","lat":"-14.816667","lng":"27.016667"},{"country":"ZM","name":"Nansoro","lat":"-12.8","lng":"32.1"},{"country":"ZM","name":"Zungwala","lat":"-12.55","lng":"32.2"},{"country":"ZM","name":"Lundazi","lat":"-12.5","lng":"32.75"},{"country":"ZM","name":"Lumezi","lat":"-12.516667","lng":"33.033333"},{"country":"ZM","name":"Kanyayu","lat":"-12.383333","lng":"33.3"},{"country":"ZM","name":"Mwerempa","lat":"-12.55","lng":"33.216667"},{"country":"ZM","name":"Chokampingo","lat":"-15.95","lng":"28.816667"},{"country":"ZM","name":"Imalyo Kuta","lat":"-15.383333","lng":"23.716667"},{"country":"ZM","name":"Nakato Kuta","lat":"-15.25","lng":"23.533333"},{"country":"ZM","name":"Muimui","lat":"-15.866667","lng":"23.3"},{"country":"ZM","name":"Mwanda","lat":"-15.766667","lng":"23.533333"},{"country":"ZM","name":"Sikosi Mission","lat":"-17.466667","lng":"24.466667"},{"country":"ZM","name":"Maonda","lat":"-17.45","lng":"24.55"},{"country":"ZM","name":"Kabwato","lat":"-15.933333","lng":"28.966667"},{"country":"ZM","name":"Buckleys Township","lat":"-15.516667","lng":"28.233333"},{"country":"ZM","name":"Loazamba","lat":"-16.966667","lng":"24.7"},{"country":"ZM","name":"Luazamba","lat":"-16.966667","lng":"24.7"},{"country":"ZM","name":"Chitibwa","lat":"-8.839944","lng":"30.846594"},{"country":"ZM","name":"Chiliadomewe","lat":"-12.364754","lng":"27.82286"},{"country":"ZM","name":"Bancroft","lat":"-12.364754","lng":"27.82286"},{"country":"ZM","name":"Chiliabombwe","lat":"-12.364754","lng":"27.82286"},{"country":"ZM","name":"Chilabombwe","lat":"-12.364754","lng":"27.82286"},{"country":"ZM","name":"Chilele","lat":"-13.16407","lng":"31.843343"},{"country":"ZM","name":"Chifita","lat":"-14.084236","lng":"27.15114"},{"country":"ZM","name":"Chienji","lat":"-8.660431","lng":"29.16142"},{"country":"ZM","name":"Chief Nkana\u2019s Court","lat":"-12.927392","lng":"28.039702"},{"country":"ZM","name":"Charilachila","lat":"-9.540659","lng":"28.735954"},{"country":"ZM","name":"Bweupe","lat":"-14.149051","lng":"27.517728"},{"country":"ZM","name":"Chifunge","lat":"-8.884546","lng":"30.765165"},{"country":"ZM","name":"Chelo","lat":"-9.288789","lng":"30.059734"},{"country":"ZM","name":"Chambezi","lat":"-12.63646","lng":"28.065032"},{"country":"ZM","name":"Bukoya","lat":"-13.88186","lng":"28.243156"},{"country":"ZM","name":"Andirea","lat":"-13.605832","lng":"31.752169"},{"country":"ZM","name":"Kangonde","lat":"-13.801854","lng":"27.384885"},{"country":"ZM","name":"Abdullah bin Sulliman","lat":"-8.9221","lng":"29.933601"},{"country":"ZM","name":"Abdulla bin Sulliman","lat":"-8.9221","lng":"29.933601"},{"country":"ZM","name":"Abdulla Bin Selemani","lat":"-8.9221","lng":"29.933601"},{"country":"ZM","name":"Siambwaba","lat":"-17.5","lng":"25.65"},{"country":"ZM","name":"Kawana","lat":"-13.947291","lng":"28.08875"},{"country":"ZM","name":"Kandolola","lat":"-13.401419","lng":"32.089753"},{"country":"ZM","name":"Kabambe","lat":"-13.296386","lng":"23.235018"},{"country":"ZM","name":"Karumba","lat":"-13.686749","lng":"31.90061"},{"country":"ZM","name":"Kashenda","lat":"-12.693987","lng":"26.313695"},{"country":"ZM","name":"Kamwenga VII","lat":"-14.207049","lng":"27.649871"},{"country":"ZM","name":"Kalulshi","lat":"-12.837782","lng":"28.09192"},{"country":"ZM","name":"Kabobwa","lat":"-8.910292","lng":"29.053794"},{"country":"ZM","name":"Carimba","lat":"-11.855102","lng":"27.122372"},{"country":"ZM","name":"Itimpi","lat":"-12.730921","lng":"28.179376"},{"country":"ZM","name":"Kasikisi","lat":"-9.308382","lng":"28.735964"},{"country":"ZM","name":"Kasnikishi","lat":"-9.308382","lng":"28.735964"},{"country":"ZM","name":"Kisukulu","lat":"-9.248795","lng":"28.400124"},{"country":"ZM","name":"Chisyaeta","lat":"-8.551722","lng":"30.094186"},{"country":"ZM","name":"Chisaeta","lat":"-8.551722","lng":"30.094186"},{"country":"ZM","name":"Lishipa","lat":"-13.52428","lng":"23.145301"},{"country":"ZM","name":"Kasama","lat":"-13.458358","lng":"25.833802"},{"country":"ZM","name":"Coundula","lat":"-12.559843","lng":"26.270044"},{"country":"ZM","name":"Chuse","lat":"-12.846019","lng":"32.129473"},{"country":"ZM","name":"Kampewe","lat":"-13.267289","lng":"23.47946"},{"country":"ZM","name":"Chimpanama","lat":"-14.089179","lng":"27.153137"},{"country":"ZM","name":"Chinganzi","lat":"-13.28821","lng":"31.922269"},{"country":"ZM","name":"Kalangwa","lat":"-12.790156","lng":"26.50991"},{"country":"ZM","name":"Kalagika","lat":"-12.12732","lng":"25.529009"},{"country":"ZM","name":"Chochi","lat":"-8.435104","lng":"29.799126"},{"country":"ZM","name":"Chuaula","lat":"-13.236463","lng":"31.964268"},{"country":"ZM","name":"Chimtowa","lat":"-13.631838","lng":"31.580386"},{"country":"ZM","name":"Chipompela","lat":"-14.02347","lng":"27.312364"},{"country":"ZM","name":"Chimbulula","lat":"-14.120802","lng":"27.200571"},{"country":"ZM","name":"Kapupa","lat":"-12.625023","lng":"26.125673"},{"country":"ZM","name":"Kapopa","lat":"-13.660739","lng":"31.564622"},{"country":"ZM","name":"Chikwawana","lat":"-12.86663","lng":"32.192519"},{"country":"ZM","name":"Chiwole","lat":"-13.647598","lng":"31.56228"},{"country":"ZM","name":"Chiole","lat":"-13.647598","lng":"31.56228"},{"country":"ZM","name":"Chingula","lat":"-13.507019","lng":"28.008491"},{"country":"ZM","name":"Chilongosi","lat":"-13.437855","lng":"31.559451"},{"country":"ZM","name":"Natenga","lat":"-13.351228","lng":"23.086369"},{"country":"ZM","name":"Mokwito","lat":"-13.358777","lng":"23.048707"},{"country":"ZM","name":"Mukupa Katundula","lat":"-8.995302","lng":"29.463507"},{"country":"ZM","name":"Mapunga School","lat":"-12.931374","lng":"26.848649"},{"country":"ZM","name":"Mapunga School","lat":"-12.931374","lng":"26.848649"},{"country":"ZM","name":"Lunsawa","lat":"-13.883608","lng":"28.254948"},{"country":"ZM","name":"Muchenja","lat":"-8.36422","lng":"29.897001"},{"country":"ZM","name":"Manangwa","lat":"-8.36422","lng":"29.897001"},{"country":"ZM","name":"Ntalaziya","lat":"-13.480403","lng":"31.945317"},{"country":"ZM","name":"Mtalashya","lat":"-13.957247","lng":"27.794213"},{"country":"ZM","name":"Ntalashya","lat":"-13.957247","lng":"27.794213"},{"country":"ZM","name":"Sefu","lat":"-13.149271","lng":"31.898425"},{"country":"ZM","name":"Mutanda Mission","lat":"-12.396102","lng":"26.264505"},{"country":"ZM","name":"Msosa","lat":"-8.373913","lng":"29.640518"},{"country":"ZM","name":"Mukumbi Luwinga","lat":"-12.090557","lng":"25.770181"},{"country":"ZM","name":"Mukimba Lubinga","lat":"-12.090557","lng":"25.770181"},{"country":"ZM","name":"Mahokora","lat":"-13.603708","lng":"31.908393"},{"country":"ZM","name":"Mandalu","lat":"-13.042676","lng":"22.650956"},{"country":"ZM","name":"Kalwa","lat":"-13.908032","lng":"27.818949"},{"country":"ZM","name":"Nsangu","lat":"-8.95308","lng":"30.516367"},{"country":"ZM","name":"Mutuwankai","lat":"-13.203175","lng":"22.758914"},{"country":"ZM","name":"Mukandakundu","lat":"-13.383581","lng":"23.072836"},{"country":"ZM","name":"Malama","lat":"-13.12699","lng":"31.855637"},{"country":"ZM","name":"Kitwe Nkana","lat":"-12.79614","lng":"28.247672"},{"country":"ZM","name":"Nkana-Kitwe","lat":"-12.79614","lng":"28.247672"},{"country":"ZM","name":"Nkosha","lat":"-9.135661","lng":"29.224813"},{"country":"ZM","name":"Malamaleza","lat":"-12.8532","lng":"32.173575"},{"country":"ZM","name":"Musindomu","lat":"-11.877343","lng":"27.109137"},{"country":"ZM","name":"Pumba","lat":"-13.760686","lng":"23.225508"},{"country":"ZM","name":"Mpolungu","lat":"-8.762709","lng":"31.107734"},{"country":"ZM","name":"Machiya","lat":"-13.712975","lng":"27.589734"},{"country":"ZM","name":"Mukankula","lat":"-13.9311","lng":"27.995722"},{"country":"ZM","name":"Samuel Taulo","lat":"-13.707869","lng":"31.601551"},{"country":"ZM","name":"Mpolokoso","lat":"-9.372725","lng":"30.125006"},{"country":"ZM","name":"Musambula","lat":"-13.352194","lng":"23.13415"},{"country":"ZM","name":"Musamputa","lat":"-13.352194","lng":"23.13415"},{"country":"ZM","name":"Musampura","lat":"-13.352194","lng":"23.13415"},{"country":"ZM","name":"Mpatishya","lat":"-14.020906","lng":"27.649893"},{"country":"ZM","name":"Kurima","lat":"-12.237465","lng":"26.733049"},{"country":"ZM","name":"Lukoshi","lat":"-13.506416","lng":"28.045722"},{"country":"ZM","name":"Lukeshi","lat":"-13.506416","lng":"28.045722"},{"country":"ZM","name":"Phillipo","lat":"-13.719193","lng":"31.600116"},{"country":"ZM","name":"Chinka","lat":"-12.818838","lng":"27.041089"},{"country":"ZM","name":"Chinke","lat":"-12.818838","lng":"27.041089"},{"country":"ZM","name":"Mukuza","lat":"-13.735663","lng":"31.601822"},{"country":"ZM","name":"Mnkanya","lat":"-13.230698","lng":"31.904775"},{"country":"ZM","name":"Mnkhanya","lat":"-13.230698","lng":"31.904775"},{"country":"ZM","name":"Mkanya","lat":"-13.230698","lng":"31.904775"},{"country":"ZM","name":"Myanda","lat":"-13.631541","lng":"31.568099"},{"country":"ZM","name":"Mayonda","lat":"-12.595386","lng":"26.522794"},{"country":"ZM","name":"Pankwe","lat":"-13.268459","lng":"31.91715"},{"country":"ZM","name":"Kasembe","lat":"-8.558153","lng":"29.053757"},{"country":"ZM","name":"Kayoya","lat":"-13.62096","lng":"32.145466"},{"country":"ZM","name":"Kowana","lat":"-13.089997","lng":"25.94506"},{"country":"ZM","name":"Mwinuna","lat":"-13.864213","lng":"27.888204"},{"country":"ZM","name":"Mwinuama","lat":"-13.864213","lng":"27.888204"},{"country":"ZM","name":"Munjako","lat":"-13.598482","lng":"23.09417"},{"country":"ZM","name":"Kaviale","lat":"-13.438487","lng":"31.948477"},{"country":"ZM","name":"Katonga","lat":"-13.121485","lng":"22.673224"},{"country":"ZM","name":"Nyambe","lat":"-12.675429","lng":"26.493062"},{"country":"ZM","name":"Nyakalemba","lat":"-13.681276","lng":"31.481114"},{"country":"ZM","name":"Muikuma","lat":"-12.911506","lng":"27.611718"},{"country":"ZM","name":"Munena","lat":"-12.541732","lng":"26.153378"},{"country":"ZM","name":"Katala","lat":"-13.285884","lng":"23.054817"},{"country":"ZM","name":"Nyakaute","lat":"-13.492968","lng":"31.56515"},{"country":"ZM","name":"Nyakangombi","lat":"-13.433472","lng":"23.041472"},{"country":"ZM","name":"Nyafuma","lat":"-13.083496","lng":"23.476077"},{"country":"ZM","name":"Nyachi","lat":"-13.117199","lng":"31.832281"},{"country":"ZM","name":"Musolokoto","lat":"-12.384799","lng":"26.226848"},{"country":"ZM","name":"Matuta","lat":"-12.840461","lng":"32.139649"},{"country":"ZM","name":"Natulemo","lat":"-13.548056","lng":"31.573276"},{"country":"ZM","name":"Mtulima","lat":"-13.548056","lng":"31.573276"},{"country":"ZM","name":"Ntambo","lat":"-12.322139","lng":"26.69865"},{"country":"ZM","name":"Murozi","lat":"-13.12399","lng":"22.674806"},{"country":"ZM","name":"Namkonda","lat":"-9.514198","lng":"32.270944"},{"country":"ZM","name":"Saint Joseph\u2019s","lat":"-11.116539","lng":"29.646188"},{"country":"ZM","name":"Lubuka","lat":"-11.234814","lng":"28.996812"},{"country":"ZM","name":"Luwuko","lat":"-11.234814","lng":"28.996812"},{"country":"ZM","name":"Makengu","lat":"-11.669305","lng":"24.042128"},{"country":"ZM","name":"Kampanda","lat":"-12.008397","lng":"24.062576"},{"country":"ZM","name":"Kalewe","lat":"-12.15906","lng":"33.231637"},{"country":"ZM","name":"Sakomoka","lat":"-14.62852","lng":"27.653661"},{"country":"ZM","name":"Sendwa","lat":"-14.89808","lng":"27.945996"},{"country":"ZM","name":"Nwangwa","lat":"-14.958647","lng":"27.808906"},{"country":"ZM","name":"Kwangwa","lat":"-14.958647","lng":"27.808906"},{"country":"ZM","name":"Nkhunthwa","lat":"-13.422897","lng":"32.641814"},{"country":"ZM","name":"Nkameshya","lat":"-14.695794","lng":"28.034613"},{"country":"ZM","name":"Mkhala","lat":"-13.491815","lng":"32.697824"},{"country":"ZM","name":"Mukamulimbo","lat":"-14.810767","lng":"27.969056"},{"country":"ZM","name":"Mtanta","lat":"-13.539685","lng":"32.402494"},{"country":"ZM","name":"Mshasho","lat":"-13.540543","lng":"32.674518"},{"country":"ZM","name":"Kaladi","lat":"-11.089138","lng":"24.135209"},{"country":"ZM","name":"Nwamba","lat":"-10.530739","lng":"30.673061"},{"country":"ZM","name":"Cilufia","lat":"-10.757505","lng":"30.806809"},{"country":"ZM","name":"Cilifia","lat":"-10.757505","lng":"30.806809"},{"country":"ZM","name":"Chiwayu","lat":"-13.446487","lng":"32.461893"},{"country":"ZM","name":"Chutika","lat":"-13.471081","lng":"32.635043"},{"country":"ZM","name":"Chisinga","lat":"-14.675529","lng":"27.582995"},{"country":"ZM","name":"Chisankhu","lat":"-13.365383","lng":"32.905474"},{"country":"ZM","name":"Kanchalinga","lat":"-15.240193","lng":"28.340637"},{"country":"ZM","name":"Chitangati","lat":"-13.573788","lng":"32.409186"},{"country":"ZM","name":"Chilikwalo","lat":"-14.901872","lng":"27.729528"},{"country":"ZM","name":"Chekwanda","lat":"-13.5403","lng":"32.534115"},{"country":"ZM","name":"Bulunga","lat":"-14.740101","lng":"27.83146"},{"country":"ZM","name":"Ackson","lat":"-13.465654","lng":"32.685158"},{"country":"ZM","name":"Simaobi","lat":"-16.257702","lng":"26.835417"},{"country":"ZM","name":"Nsokoshu","lat":"-15.866905","lng":"26.056173"},{"country":"ZM","name":"Mwenenvuvu","lat":"-16.14227","lng":"25.196302"},{"country":"ZM","name":"Mwenevuvo","lat":"-16.14227","lng":"25.196302"},{"country":"ZM","name":"Mwanga","lat":"-16.237376","lng":"27.740467"},{"country":"ZM","name":"Munvumbwe","lat":"-16.64148","lng":"27.779767"},{"country":"ZM","name":"Munyumbe","lat":"-16.64148","lng":"27.779767"},{"country":"ZM","name":"Mungabwa","lat":"-16.20597","lng":"25.07531"},{"country":"ZM","name":"Mungbwa","lat":"-16.20597","lng":"25.07531"},{"country":"ZM","name":"Myobo","lat":"-16.356483","lng":"26.886065"},{"country":"ZM","name":"Maungu","lat":"-15.918324","lng":"26.12657"},{"country":"ZM","name":"Chief Mapanza","lat":"-16.252398","lng":"26.911201"},{"country":"ZM","name":"Maala","lat":"-15.726466","lng":"26.734049"},{"country":"ZM","name":"Jivanga","lat":"-11.708677","lng":"24.0101"},{"country":"ZM","name":"Sopma","lat":"-10.47921","lng":"31.352501"},{"country":"ZM","name":"Cibeka","lat":"-10.541541","lng":"30.730343"},{"country":"ZM","name":"Chakoswe","lat":"-15.726271","lng":"28.492492"},{"country":"ZM","name":"Shibuyunje","lat":"-15.445099","lng":"27.828944"},{"country":"ZM","name":"Shibuyunji","lat":"-15.445099","lng":"27.828944"},{"country":"ZM","name":"Shapoli","lat":"-15.812313","lng":"28.284786"},{"country":"ZM","name":"Kamwi","lat":"-15.929423","lng":"27.988722"},{"country":"ZM","name":"Kalaswe","lat":"-15.010964","lng":"28.615263"},{"country":"ZM","name":"Bambwe Township","lat":"-15.776139","lng":"26.513771"},{"country":"ZM","name":"Khawawa","lat":"-13.388363","lng":"32.668244"},{"country":"ZM","name":"Kanyumbo","lat":"-13.914981","lng":"32.306542"},{"country":"ZM","name":"Kaseshya","lat":"-14.749897","lng":"27.858332"},{"country":"ZM","name":"Kapepe","lat":"-13.844953","lng":"25.917118"},{"country":"ZM","name":"Kapempi","lat":"-14.706884","lng":"27.934896"},{"country":"ZM","name":"Kapasha","lat":"-14.834876","lng":"27.598828"},{"country":"ZM","name":"Kungu","lat":"-11.461801","lng":"24.548533"},{"country":"ZM","name":"Choka","lat":"-11.862738","lng":"24.626942"},{"country":"ZM","name":"Chuha","lat":"-11.862738","lng":"24.626942"},{"country":"ZM","name":"Munguruwe","lat":"-11.617039","lng":"29.449812"},{"country":"ZM","name":"Numena","lat":"-10.068229","lng":"31.777953"},{"country":"ZM","name":"Malundwa","lat":"-10.557382","lng":"30.586792"},{"country":"ZM","name":"Mulomberan","lat":"-10.058486","lng":"31.652639"},{"country":"ZM","name":"Shakadya","lat":"-15.791706","lng":"28.286449"},{"country":"ZM","name":"Shakudya","lat":"-15.791706","lng":"28.286449"},{"country":"ZM","name":"Malalika","lat":"-15.56935","lng":"28.809345"},{"country":"ZM","name":"Kabanji","lat":"-15.791245","lng":"27.64676"},{"country":"ZM","name":"Malavu","lat":"-11.185288","lng":"24.123874"},{"country":"ZM","name":"Chisua","lat":"-11.910726","lng":"33.299736"},{"country":"ZM","name":"Chiwowua","lat":"-12.165768","lng":"33.14436"},{"country":"ZM","name":"Chitingulu","lat":"-12.426743","lng":"32.276743"},{"country":"ZM","name":"Piana Walya","lat":"-11.666777","lng":"30.074452"},{"country":"ZM","name":"Bwalya Mponde","lat":"-11.666777","lng":"30.074452"},{"country":"ZM","name":"Namukombo","lat":"-15.417806","lng":"27.063124"},{"country":"ZM","name":"Lionga","lat":"-15.661188","lng":"28.508868"},{"country":"ZM","name":"Lubombo Siding","lat":"-15.866982","lng":"27.876324"},{"country":"ZM","name":"Chisotaka","lat":"-15.657831","lng":"28.726884"},{"country":"ZM","name":"Chipongwe West","lat":"-15.663622","lng":"28.219152"},{"country":"ZM","name":"Kalimbwa Munsa","lat":"-14.707591","lng":"27.813849"},{"country":"ZM","name":"Ntanilo","lat":"-12.439819","lng":"33.125909"},{"country":"ZM","name":"Chiporokoto","lat":"-12.472517","lng":"33.336158"},{"country":"ZM","name":"Muchininche","lat":"-11.113436","lng":"29.94417"},{"country":"ZM","name":"Namabezgi","lat":"-15.40578","lng":"27.027913"},{"country":"ZM","name":"Nachaba","lat":"-15.687574","lng":"27.562813"},{"country":"ZM","name":"Kakulunde","lat":"-14.14821","lng":"23.182241"},{"country":"ZM","name":"Kakona","lat":"-14.079233","lng":"23.239572"},{"country":"ZM","name":"Chipanema","lat":"-15.223922","lng":"28.522458"},{"country":"ZM","name":"Chingala","lat":"-15.802715","lng":"28.2967"},{"country":"ZM","name":"Chimufu","lat":"-15.034538","lng":"27.097752"},{"country":"ZM","name":"Chimutu","lat":"-15.034538","lng":"27.097752"},{"country":"ZM","name":"Chiliango","lat":"-15.874543","lng":"27.558303"},{"country":"ZM","name":"Guni","lat":"-13.552099","lng":"32.434725"},{"country":"ZM","name":"Cuni","lat":"-13.552099","lng":"32.434725"},{"country":"ZM","name":"Chombaika","lat":"-14.632366","lng":"27.585451"},{"country":"ZM","name":"Chonta Lupobe","lat":"-14.937098","lng":"27.4657"},{"country":"ZM","name":"Chongo","lat":"-13.776926","lng":"32.284669"},{"country":"ZM","name":"Tshipumba","lat":"-14.565617","lng":"27.330185"},{"country":"ZM","name":"Chipokoso","lat":"-13.492971","lng":"32.823602"},{"country":"ZM","name":"Chinyima","lat":"-13.750865","lng":"23.099728"},{"country":"ZM","name":"Chinyanku","lat":"-13.719814","lng":"32.577799"},{"country":"ZM","name":"Chinunda","lat":"-13.184057","lng":"32.618141"},{"country":"ZM","name":"Chinkumbwi Mukongwa","lat":"-14.734305","lng":"27.821342"},{"country":"ZM","name":"Chikalakosa","lat":"-14.799033","lng":"27.688496"},{"country":"ZM","name":"Chifuka","lat":"-13.394325","lng":"32.771441"},{"country":"ZM","name":"Chidonga","lat":"-12.935478","lng":"32.964328"},{"country":"ZM","name":"Chibubu","lat":"-14.508257","lng":"27.143303"},{"country":"ZM","name":"Chibuwbu","lat":"-14.508257","lng":"27.143303"},{"country":"ZM","name":"Chipondu","lat":"-14.550035","lng":"27.482813"},{"country":"ZM","name":"Sikangatalwa","lat":"-15.333361","lng":"24.107792"},{"country":"ZM","name":"Sianyimba","lat":"-16.62296","lng":"27.787222"},{"country":"ZM","name":"Sianyalika","lat":"-16.793628","lng":"27.773383"},{"country":"ZM","name":"Siayalika","lat":"-16.793628","lng":"27.773383"},{"country":"ZM","name":"Sianjarika","lat":"-16.132528","lng":"27.757609"},{"country":"ZM","name":"Siamasonde","lat":"-16.058112","lng":"27.204851"},{"country":"ZM","name":"Namulyanta","lat":"-15.904093","lng":"26.099013"},{"country":"ZM","name":"Zurene","lat":"-12.218593","lng":"33.208094"},{"country":"ZM","name":"Zozo","lat":"-12.12948","lng":"33.213869"},{"country":"ZM","name":"Chingomo","lat":"-12.388816","lng":"33.35259"},{"country":"ZM","name":"Kapampo","lat":"-10.275233","lng":"31.23455"},{"country":"ZM","name":"Vincheto","lat":"-13.178154","lng":"32.58048"},{"country":"ZM","name":"Shikapanshi","lat":"-14.686718","lng":"27.548142"},{"country":"ZM","name":"Shikopome","lat":"-14.647934","lng":"27.340362"},{"country":"ZM","name":"Sayava","lat":"-13.844235","lng":"23.191582"},{"country":"ZM","name":"Ndende","lat":"-13.864616","lng":"32.274854"},{"country":"ZM","name":"Polowa","lat":"-14.566311","lng":"27.447302"},{"country":"ZM","name":"Mpolo","lat":"-14.566311","lng":"27.447302"},{"country":"ZM","name":"Mpili Mission","lat":"-14.882894","lng":"27.76457"},{"country":"ZM","name":"Mondonmona","lat":"-14.966862","lng":"27.933527"},{"country":"ZM","name":"Mnukwa-Mgazini","lat":"-13.456981","lng":"32.574548"},{"country":"ZM","name":"Chikomeni","lat":"-12.690586","lng":"32.880428"},{"country":"ZM","name":"Mibenji","lat":"-11.301059","lng":"29.408021"},{"country":"ZM","name":"Mivenji","lat":"-11.301059","lng":"29.408021"},{"country":"ZM","name":"Mono","lat":"-13.775619","lng":"23.231714"},{"country":"ZM","name":"Mwenenyali","lat":"-14.404055","lng":"23.625005"},{"country":"ZM","name":"Mwanamweshi","lat":"-14.399073","lng":"27.142247"},{"country":"ZM","name":"Muweshi","lat":"-14.399073","lng":"27.142247"},{"country":"ZM","name":"Mwanampumpe","lat":"-14.659981","lng":"27.765082"},{"country":"ZM","name":"Mwakabwata","lat":"-14.533395","lng":"27.492245"},{"country":"ZM","name":"Mwachisaka","lat":"-14.538908","lng":"27.475455"},{"country":"ZM","name":"Mwanamutabe","lat":"-14.662985","lng":"27.624792"},{"country":"ZM","name":"Mwambe","lat":"-14.504087","lng":"27.207424"},{"country":"ZM","name":"Chisompola","lat":"-14.90919","lng":"27.948505"},{"country":"ZM","name":"Kayembe","lat":"-15.715686","lng":"27.516106"},{"country":"ZM","name":"Chimwaijila","lat":"-15.715686","lng":"27.516106"},{"country":"ZM","name":"Mkure","lat":"-13.490314","lng":"32.432058"},{"country":"ZM","name":"Misholo","lat":"-13.600994","lng":"32.437504"},{"country":"ZM","name":"Maya","lat":"-14.928746","lng":"27.684464"},{"country":"ZM","name":"Letolatolo","lat":"-14.569526","lng":"27.460887"},{"country":"ZM","name":"Letalatala","lat":"-14.569526","lng":"27.460887"},{"country":"ZM","name":"Khawango","lat":"-13.490764","lng":"32.796471"},{"country":"ZM","name":"Kapangabona","lat":"-14.604711","lng":"27.340511"},{"country":"ZM","name":"Kaonga","lat":"-14.660715","lng":"28.050402"},{"country":"ZM","name":"Kanyumba","lat":"-14.958542","lng":"27.677593"},{"country":"ZM","name":"Kanyemba Chilukusa","lat":"-14.740347","lng":"27.849815"},{"country":"ZM","name":"Chisabuka","lat":"-16.654019","lng":"27.955576"},{"country":"ZM","name":"Samutewa","lat":"-11.744023","lng":"24.669447"},{"country":"ZM","name":"Kavinga","lat":"-12.711933","lng":"32.91649"},{"country":"ZM","name":"Mburu","lat":"-11.079811","lng":"29.88122"},{"country":"ZM","name":"Mbesuma","lat":"-10.025428","lng":"32.166648"},{"country":"ZM","name":"Mbesuma Farm","lat":"-10.025428","lng":"32.166648"},{"country":"ZM","name":"Kundamfuma","lat":"-11.550066","lng":"28.75119"},{"country":"ZM","name":"Kalumberi","lat":"-11.624124","lng":"29.726534"},{"country":"ZM","name":"Katintha","lat":"-13.509557","lng":"32.419579"},{"country":"ZM","name":"Kataba Mayamba","lat":"-14.942001","lng":"27.949964"},{"country":"ZM","name":"Kasonkomono","lat":"-14.584698","lng":"27.192654"},{"country":"ZM","name":"Kasonkonmona","lat":"-14.584698","lng":"27.192654"},{"country":"ZM","name":"Kamilenge","lat":"-14.123767","lng":"23.543261"},{"country":"ZM","name":"Kamilende","lat":"-14.123767","lng":"23.543261"},{"country":"ZM","name":"Chikaka","lat":"-15.51518","lng":"28.764396"},{"country":"ZM","name":"Chapaleza","lat":"-15.291262","lng":"27.33408"},{"country":"ZM","name":"Sakatwala","lat":"-11.190897","lng":"24.180518"},{"country":"ZM","name":"Pikamalazi","lat":"-12.213542","lng":"33.234801"},{"country":"ZM","name":"Nyansambo","lat":"-11.733889","lng":"24.581247"},{"country":"ZM","name":"Roseberry","lat":"-11.199757","lng":"28.894314"},{"country":"ZM","name":"Mbila","lat":"-11.199757","lng":"28.894314"},{"country":"ZM","name":"Fort Rosebery","lat":"-11.199757","lng":"28.894314"},{"country":"ZM","name":"Mansa","lat":"-11.199757","lng":"28.894314"},{"country":"ZM","name":"Kalimakonde","lat":"-11.444153","lng":"30.070465"},{"country":"ZM","name":"Kasalu","lat":"-15.14229","lng":"27.381838"},{"country":"ZM","name":"Kaziole","lat":"-13.504642","lng":"32.632816"},{"country":"ZM","name":"Kaboshya","lat":"-14.61175","lng":"27.65739"},{"country":"ZM","name":"Chiwale","lat":"-13.617552","lng":"32.388096"},{"country":"ZM","name":"Chiwanga","lat":"-13.446307","lng":"32.828017"},{"country":"ZM","name":"Chimamba","lat":"-13.607412","lng":"32.471051"},{"country":"ZM","name":"Chewerene","lat":"-13.96254","lng":"32.359601"},{"country":"ZM","name":"Chobembwa","lat":"-14.561298","lng":"27.383477"},{"country":"ZM","name":"Chobemwa","lat":"-14.561298","lng":"27.383477"},{"country":"ZM","name":"Nthembwe","lat":"-12.411997","lng":"33.373126"},{"country":"ZM","name":"Mutemba","lat":"-15.003361","lng":"27.827141"},{"country":"ZM","name":"Tumbama","lat":"-14.926638","lng":"27.037992"},{"country":"ZM","name":"Ndembera","lat":"-12.466614","lng":"33.207137"},{"country":"ZM","name":"Kapindo","lat":"-12.146963","lng":"33.032541"},{"country":"ZM","name":"Kapanga","lat":"-12.09882","lng":"33.07"},{"country":"ZM","name":"Kapyango","lat":"-12.086095","lng":"33.154799"},{"country":"ZM","name":"Simulambo","lat":"-10.28172","lng":"31.290804"},{"country":"ZM","name":"Maumba","lat":"-11.262766","lng":"29.052375"},{"country":"ZM","name":"Kawonga","lat":"-11.738452","lng":"29.471637"},{"country":"ZM","name":"Kapande","lat":"-15.440765","lng":"27.368549"},{"country":"ZM","name":"Topeka","lat":"-13.353078","lng":"32.767117"},{"country":"ZM","name":"Tampira","lat":"-14.267838","lng":"26.959911"},{"country":"ZM","name":"Selembi","lat":"-14.309401","lng":"23.24441"},{"country":"ZM","name":"Somu","lat":"-14.610138","lng":"27.55039"},{"country":"ZM","name":"Mbulo Chipasa","lat":"-14.89488","lng":"27.822568"},{"country":"ZM","name":"Mbiridzi","lat":"-13.991268","lng":"32.365805"},{"country":"ZM","name":"Mbirisi","lat":"-13.991268","lng":"32.365805"},{"country":"ZM","name":"Mayangwa","lat":"-14.440734","lng":"23.858352"},{"country":"ZM","name":"Manyangwa","lat":"-14.440734","lng":"23.858352"},{"country":"ZM","name":"Mutebe","lat":"-14.963108","lng":"27.325781"},{"country":"ZM","name":"Mapiri","lat":"-14.362613","lng":"26.922343"},{"country":"ZM","name":"Mwinilamba","lat":"-11.247856","lng":"24.183036"},{"country":"ZM","name":"Mwinimilamba","lat":"-11.247856","lng":"24.183036"},{"country":"ZM","name":"Wwinilunga","lat":"-11.735836","lng":"24.42926"},{"country":"ZM","name":"Mwimbo","lat":"-12.690477","lng":"32.921231"},{"country":"ZM","name":"Kupepo","lat":"-10.595238","lng":"31.131873"},{"country":"ZM","name":"Shanoba","lat":"-14.921197","lng":"27.695366"},{"country":"ZM","name":"Shamdanzi","lat":"-14.92621","lng":"27.712153"},{"country":"ZM","name":"Soko","lat":"-14.798622","lng":"27.993064"},{"country":"ZM","name":"Lufu","lat":"-13.586097","lng":"32.418702"},{"country":"ZM","name":"Peso","lat":"-14.204686","lng":"23.348466"},{"country":"ZM","name":"Dezo","lat":"-14.204686","lng":"23.348466"},{"country":"ZM","name":"Mpande","lat":"-13.28566","lng":"32.611789"},{"country":"ZM","name":"Mupiri","lat":"-14.309731","lng":"26.906936"},{"country":"ZM","name":"Mumbezhi","lat":"-13.867373","lng":"23.661674"},{"country":"ZM","name":"Mandi","lat":"-14.958254","lng":"27.644507"},{"country":"ZM","name":"Mduwa","lat":"-13.469445","lng":"32.804578"},{"country":"ZM","name":"Magugu","lat":"-13.911192","lng":"32.449185"},{"country":"ZM","name":"Malanbanyama","lat":"-14.861146","lng":"27.706009"},{"country":"ZM","name":"Makusu","lat":"-14.90072","lng":"27.723312"},{"country":"ZM","name":"Kabangoza","lat":"-14.807829","lng":"27.296374"},{"country":"ZM","name":"Jungu","lat":"-13.893634","lng":"32.567412"},{"country":"ZM","name":"Libongo","lat":"-13.784265","lng":"23.224853"},{"country":"ZM","name":"Cimwala","lat":"-13.410452","lng":"32.681082"},{"country":"ZM","name":"Siavunkururu","lat":"-16.475376","lng":"26.669282"},{"country":"ZM","name":"Shikalopa","lat":"-15.889593","lng":"26.97154"},{"country":"ZM","name":"Shezonga","lat":"-16.090028","lng":"26.071486"},{"country":"ZM","name":"Sekela","lat":"-15.684025","lng":"22.870796"},{"country":"ZM","name":"Chamapula","lat":"-16.024657","lng":"26.052384"},{"country":"ZM","name":"Shaluba","lat":"-15.824299","lng":"26.284605"},{"country":"ZM","name":"Nyamahongo","lat":"-16.451655","lng":"24.403565"},{"country":"ZM","name":"Namateba","lat":"-16.337839","lng":"27.762855"},{"country":"ZM","name":"Nulumpa","lat":"-16.062178","lng":"27.036825"},{"country":"ZM","name":"Nalukale","lat":"-15.743127","lng":"26.382234"},{"country":"ZM","name":"Narubamba","lat":"-16.062541","lng":"27.037023"},{"country":"ZM","name":"Mulimashibi","lat":"-15.888695","lng":"26.049889"},{"country":"ZM","name":"Muchinga","lat":"-16.474068","lng":"24.940244"},{"country":"ZM","name":"Mujira","lat":"-16.233635","lng":"26.601824"},{"country":"ZM","name":"Chief Monze","lat":"-16.271488","lng":"27.477241"},{"country":"ZM","name":"Mobolo","lat":"-16.242762","lng":"26.698426"},{"country":"ZM","name":"Mabenga","lat":"-16.37591","lng":"24.986135"},{"country":"ZM","name":"Naluzha","lat":"-15.820987","lng":"26.281835"},{"country":"ZM","name":"Kabanzi","lat":"-16.309081","lng":"26.759222"},{"country":"ZM","name":"Chilopi","lat":"-16.4707","lng":"28.054469"},{"country":"ZM","name":"Conya","lat":"-10.284578","lng":"31.411517"},{"country":"ZM","name":"Chilmkuhi","lat":"-10.017203","lng":"31.619275"},{"country":"ZM","name":"Chilmkuni","lat":"-10.017203","lng":"31.619275"},{"country":"ZM","name":"Chilinkuni","lat":"-10.017203","lng":"31.619275"},{"country":"ZM","name":"Somsonka","lat":"-14.870636","lng":"27.868212"},{"country":"ZM","name":"Shimushinka","lat":"-14.870636","lng":"27.868212"},{"country":"ZM","name":"Nzomane","lat":"-13.763602","lng":"32.465968"},{"country":"ZM","name":"Nyaziomvo","lat":"-13.526068","lng":"32.830792"},{"country":"ZM","name":"Mtulishya","lat":"-14.81546","lng":"27.900768"},{"country":"ZM","name":"Ntulishya","lat":"-14.81546","lng":"27.900768"},{"country":"ZM","name":"Muhonsha","lat":"-14.577388","lng":"27.473929"},{"country":"ZM","name":"Mulambo","lat":"-14.689525","lng":"27.870514"},{"country":"ZM","name":"Mukwasha","lat":"-14.690348","lng":"27.586891"},{"country":"ZM","name":"Mokwemba","lat":"-14.806028","lng":"27.695496"},{"country":"ZM","name":"Mukawa","lat":"-14.62961","lng":"27.714096"},{"country":"ZM","name":"Mukabwe Tikki","lat":"-14.90716","lng":"27.717664"},{"country":"ZM","name":"Nlagboza","lat":"-13.428454","lng":"32.628752"},{"country":"ZM","name":"Muchuma","lat":"-13.821982","lng":"32.481065"},{"country":"ZM","name":"Chagamba","lat":"-13.452252","lng":"32.879638"},{"country":"ZM","name":"Chobembwa","lat":"-14.703962","lng":"27.989613"},{"country":"ZM","name":"Luampa","lat":"-15.431111","lng":"24.729268"},{"country":"ZM","name":"Kasoka","lat":"-15.971899","lng":"26.975551"},{"country":"ZM","name":"Katengwa","lat":"-15.774816","lng":"26.878096"},{"country":"ZM","name":"Mkushi","lat":"-14.354921","lng":"29.362949"},{"country":"ZM","name":"Mboroma","lat":"-14.370788","lng":"29.3657"},{"country":"ZM","name":"Chimsanya","lat":"-15.08166","lng":"29.576876"},{"country":"ZM","name":"Chimusania","lat":"-15.08166","lng":"29.576876"},{"country":"ZM","name":"Chiuabufu","lat":"-15.631214","lng":"26.594171"},{"country":"ZM","name":"Sulu","lat":"-15.224359","lng":"23.134509"},{"country":"ZM","name":"Lyambango","lat":"-15.466667","lng":"23.638193"},{"country":"ZM","name":"Siakwala","lat":"-16.320013","lng":"28.283163"},{"country":"ZM","name":"Chief Shimbizi","lat":"-15.691112","lng":"26.371895"},{"country":"ZM","name":"Shibilo","lat":"-15.460726","lng":"26.921801"},{"country":"ZM","name":"Mweza","lat":"-15.523694","lng":"26.860291"},{"country":"ZM","name":"Chief Muwezwa","lat":"-15.523694","lng":"26.860291"},{"country":"ZM","name":"Muwezewa","lat":"-15.523694","lng":"26.860291"},{"country":"ZM","name":"Chief Sanje","lat":"-15.527862","lng":"27.956415"},{"country":"ZM","name":"Nzofu","lat":"-15.4132","lng":"26.773181"},{"country":"ZM","name":"Mpasu","lat":"-15.253174","lng":"29.022392"},{"country":"ZM","name":"Mungu","lat":"-15.248352","lng":"23.127413"},{"country":"ZM","name":"Mongu","lat":"-15.248352","lng":"23.127413"},{"country":"ZM","name":"Kakua","lat":"-15.281565","lng":"26.969861"},{"country":"ZM","name":"Mabua","lat":"-15.424595","lng":"22.314835"},{"country":"ZM","name":"Masine","lat":"-15.574264","lng":"26.478302"},{"country":"ZM","name":"Kahari","lat":"-15.051153","lng":"25.249835"},{"country":"ZM","name":"Namaenya","lat":"-15.349651","lng":"23.172152"},{"country":"ZM","name":"Dibwe","lat":"-16.401629","lng":"28.404996"},{"country":"ZM","name":"Lukulu","lat":"-15.346577","lng":"23.467366"},{"country":"ZM","name":"Sakankomba","lat":"-13.047471","lng":"24.068935"},{"country":"ZM","name":"Manyinga","lat":"-13.301152","lng":"24.219794"},{"country":"ZM","name":"Nyamwana","lat":"-12.753672","lng":"24.275958"},{"country":"ZM","name":"Nyambaza","lat":"-13.446077","lng":"23.664312"},{"country":"ZM","name":"Mulumbakani","lat":"-13.72972","lng":"23.451847"},{"country":"ZM","name":"Masozi","lat":"-13.350282","lng":"24.245471"},{"country":"ZM","name":"Liamukumba","lat":"-13.272308","lng":"24.060012"},{"country":"ZM","name":"Kabemba","lat":"-13.449506","lng":"23.666942"},{"country":"ZM","name":"Kayumbo","lat":"-13.04861","lng":"23.843052"},{"country":"ZM","name":"Kayambo","lat":"-13.04861","lng":"23.843052"},{"country":"ZM","name":"Chizera","lat":"-13.143482","lng":"25.020132"},{"country":"ZM","name":"Silumbu","lat":"-13.12255","lng":"23.737287"},{"country":"ZM","name":"Kariata","lat":"-9.183333","lng":"32.483333"},{"country":"ZM","name":"Kasanga","lat":"-9.25","lng":"32.533333"},{"country":"ZM","name":"Kiseke","lat":"-9.15","lng":"32.45"},{"country":"ZM","name":"Loadayila","lat":"-9.15","lng":"32.416667"},{"country":"ZM","name":"Sisagoro","lat":"-9.2","lng":"32.366667"},{"country":"ZM","name":"Chiropo","lat":"-9.2","lng":"32.366667"},{"country":"ZM","name":"Mwenichumbu","lat":"-10.040498","lng":"33.12134"},{"country":"ZM","name":"Makonde","lat":"-9.939482","lng":"33.187343"},{"country":"ZM","name":"Chitoro","lat":"-10.566667","lng":"33.233333"},{"country":"ZM","name":"Chiombo","lat":"-10.516667","lng":"33.266667"},{"country":"ZM","name":"Chatamaka","lat":"-10.366667","lng":"33.25"},{"country":"ZM","name":"Chitupa","lat":"-10.350563","lng":"33.297782"},{"country":"ZM","name":"Kala","lat":"-10.133998","lng":"32.515492"},{"country":"ZM","name":"Mayembe","lat":"-10.050791","lng":"32.520292"},{"country":"ZM","name":"Muswemas","lat":"-10.034748","lng":"32.638617"},{"country":"ZM","name":"Chinyans","lat":"-10.145083","lng":"32.692283"},{"country":"ZM","name":"Robert Mchilanga","lat":"-10.073695","lng":"32.695335"},{"country":"ZM","name":"Chilonga","lat":"-10.136841","lng":"32.83624"},{"country":"ZM","name":"Maremula","lat":"-10.116239","lng":"32.838473"},{"country":"ZM","name":"Matemula","lat":"-10.116239","lng":"32.838473"},{"country":"ZM","name":"Mpandwa","lat":"-10.341873","lng":"32.968869"},{"country":"ZM","name":"Chipipeya","lat":"-10.192151","lng":"32.779365"},{"country":"ZM","name":"Mulamba","lat":"-10.297029","lng":"32.914436"},{"country":"ZM","name":"Mulambu","lat":"-10.297029","lng":"32.914436"},{"country":"ZM","name":"Mkapembi","lat":"-10.246227","lng":"33.265603"},{"country":"ZM","name":"Myoa","lat":"-10.686234","lng":"33.462481"},{"country":"ZM","name":"Mayowe","lat":"-10.666667","lng":"33.416667"},{"country":"ZM","name":"Kampeta","lat":"-10.883333","lng":"33.216667"},{"country":"ZM","name":"Temba","lat":"-11.13756","lng":"32.876212"},{"country":"ZM","name":"Tambwe","lat":"-11.13756","lng":"32.876212"},{"country":"ZM","name":"Masandika","lat":"-11.372589","lng":"32.856892"},{"country":"ZM","name":"Musandiko","lat":"-11.372589","lng":"32.856892"},{"country":"ZM","name":"Chimboro","lat":"-10.116667","lng":"33.033333"},{"country":"ZM","name":"Chimbovo","lat":"-10.116667","lng":"33.033333"},{"country":"ZM","name":"Mupeta","lat":"-10.65","lng":"33.133333"},{"country":"ZM","name":"Chikonte","lat":"-10.583333","lng":"33.1"},{"country":"ZM","name":"Kavichehe","lat":"-10.916667","lng":"32.416667"},{"country":"ZM","name":"Malombwa","lat":"-10.716667","lng":"32.45"},{"country":"ZM","name":"Makawa","lat":"-11.016667","lng":"32.033333"},{"country":"ZM","name":"Nkulu","lat":"-10.647025","lng":"31.939819"},{"country":"ZM","name":"Nkula Bemba","lat":"-10.647025","lng":"31.939819"},{"country":"ZM","name":"Chinsali","lat":"-10.54142","lng":"32.081624"},{"country":"ZM","name":"Chinsala","lat":"-10.54142","lng":"32.081624"},{"country":"ZM","name":"Musurko","lat":"-11.166667","lng":"31.866667"},{"country":"ZM","name":"Msuruko","lat":"-11.166667","lng":"31.866667"},{"country":"ZM","name":"Mufwat","lat":"-11.533333","lng":"32.833333"},{"country":"ZM","name":"Kalianankondo","lat":"-11.698576","lng":"32.751016"},{"country":"ZM","name":"Kulianonkonde","lat":"-11.698576","lng":"32.751016"},{"country":"ZM","name":"Kalikondo","lat":"-11.698576","lng":"32.751016"},{"country":"ZM","name":"Kakombe","lat":"-11.668206","lng":"32.656748"},{"country":"ZM","name":"Chifonda","lat":"-11.879524","lng":"32.588717"},{"country":"ZM","name":"Kapalakonve","lat":"-11.883333","lng":"32.6"},{"country":"ZM","name":"Eastern","lat":"-13.666667","lng":"32"},{"country":"ZM","name":"Mwinechinje","lat":"-9.895613","lng":"32.26002"},{"country":"ZM","name":"Shem","lat":"-9.586733","lng":"32.62044"},{"country":"ZM","name":"Kasi","lat":"-9.571323","lng":"32.624765"},{"country":"ZM","name":"Fwila","lat":"-9.577855","lng":"32.642553"},{"country":"ZM","name":"Chilalwa","lat":"-9.606095","lng":"32.662897"},{"country":"ZM","name":"Chinsambwi","lat":"-9.580355","lng":"32.779621"},{"country":"ZM","name":"Nsindano","lat":"-9.783493","lng":"32.866483"},{"country":"ZM","name":"Vangalira","lat":"-10.6","lng":"33.483333"},{"country":"ZM","name":"Chagoma","lat":"-10.583333","lng":"33.533333"},{"country":"ZM","name":"Mutita","lat":"-10.85","lng":"31.283333"},{"country":"ZM","name":"Katuwila","lat":"-11.079641","lng":"31.11697"},{"country":"ZM","name":"Nsemba","lat":"-11.1","lng":"31.183333"},{"country":"ZM","name":"Kavinga","lat":"-11.183333","lng":"30.783333"},{"country":"ZM","name":"Kaseshia","lat":"-11.116667","lng":"30.833333"},{"country":"ZM","name":"Chandeshi","lat":"-10.95","lng":"31.066667"},{"country":"ZM","name":"Pontoon","lat":"-10.95","lng":"31.066667"},{"country":"ZM","name":"Chandesi","lat":"-10.95","lng":"31.066667"},{"country":"ZM","name":"Zowonga","lat":"-11.294951","lng":"32.849052"},{"country":"ZM","name":"Lawonga","lat":"-11.294951","lng":"32.849052"},{"country":"ZM","name":"Zowoli","lat":"-11.239012","lng":"32.882303"},{"country":"ZM","name":"Zowole","lat":"-11.239012","lng":"32.882303"},{"country":"ZM","name":"Zawoli","lat":"-11.239012","lng":"32.882303"},{"country":"ZM","name":"Chitembe","lat":"-11.352209","lng":"32.901697"},{"country":"ZM","name":"Chitimbi","lat":"-11.352209","lng":"32.901697"},{"country":"ZM","name":"Kazilondo","lat":"-11.412687","lng":"32.849942"},{"country":"ZM","name":"Chimpamba","lat":"-11.508032","lng":"32.773908"},{"country":"ZM","name":"Sambanyombe","lat":"-11.524939","lng":"32.781009"},{"country":"ZM","name":"Bulunje","lat":"-10.2","lng":"32.733333"},{"country":"ZM","name":"Mulumbu","lat":"-11.183333","lng":"32.883333"},{"country":"ZM","name":"Nrepelwa","lat":"-10.3","lng":"32.716667"},{"country":"ZM","name":"Mukwango","lat":"-11.15","lng":"31.866667"},{"country":"ZM","name":"Lumbuka","lat":"-11.133333","lng":"31.916667"},{"country":"ZM","name":"Maruba","lat":"-11.083333","lng":"31.966667"},{"country":"ZM","name":"Chunga","lat":"-11.396979","lng":"32.085658"},{"country":"ZM","name":"Chilole","lat":"-11.38883","lng":"31.957684"},{"country":"ZM","name":"Chikole","lat":"-11.38883","lng":"31.957684"},{"country":"ZM","name":"Chiinga","lat":"-11.249379","lng":"31.955975"},{"country":"ZM","name":"Matipilo","lat":"-11.165755","lng":"31.919205"},{"country":"ZM","name":"Ntembwe","lat":"-11.051577","lng":"32.186252"},{"country":"ZM","name":"M\u2019Lamba","lat":"-11.9","lng":"32.283333"},{"country":"ZM","name":"Mutofwe","lat":"-11.616667","lng":"32.2"},{"country":"ZM","name":"Nkungule","lat":"-11.366667","lng":"32.116667"},{"country":"ZM","name":"Chiseba","lat":"-11.466667","lng":"32.166667"},{"country":"ZM","name":"Chikwe","lat":"-11.283333","lng":"32.25"},{"country":"ZM","name":"Mayaka","lat":"-11.466667","lng":"30.666667"},{"country":"ZM","name":"Walia","lat":"-11.583333","lng":"31.333333"},{"country":"ZM","name":"Mboa","lat":"-10.716667","lng":"33.5"},{"country":"ZM","name":"Kanyanti","lat":"-10.833333","lng":"33.183333"},{"country":"ZM","name":"Washimba","lat":"-10.819415","lng":"33.163025"},{"country":"ZM","name":"Masamika","lat":"-11.55322","lng":"32.909044"},{"country":"ZM","name":"Msungunika","lat":"-11.677786","lng":"33.277137"},{"country":"ZM","name":"Mtonya","lat":"-11.706582","lng":"32.876476"},{"country":"ZM","name":"Sindamalonga","lat":"-11.746249","lng":"33.144564"},{"country":"ZM","name":"Sindomalongo","lat":"-11.746249","lng":"33.144564"},{"country":"ZM","name":"Kambanga","lat":"-10.25","lng":"33.033333"},{"country":"ZM","name":"Kampumbi","lat":"-10.25","lng":"33.033333"},{"country":"ZM","name":"Kamemi","lat":"-10.25","lng":"32.716667"},{"country":"ZM","name":"Mirongo","lat":"-10.3","lng":"32.733333"},{"country":"ZM","name":"Musheta","lat":"-10.266667","lng":"32.75"},{"country":"ZM","name":"George Siame","lat":"-10.2","lng":"32.533333"},{"country":"ZM","name":"Mkunda","lat":"-10.266667","lng":"32.533333"},{"country":"ZM","name":"Robert Siame","lat":"-10.25","lng":"32.533333"},{"country":"ZM","name":"Chikandamanpo","lat":"-10.333333","lng":"32.55"},{"country":"ZM","name":"Kafwanka","lat":"-10.65","lng":"31.683333"},{"country":"ZM","name":"Ruben","lat":"-11.216667","lng":"31.783333"},{"country":"ZM","name":"Takombo","lat":"-11.217944","lng":"31.772389"},{"country":"ZM","name":"Machidio","lat":"-11.183706","lng":"31.784665"},{"country":"ZM","name":"Machididi","lat":"-11.183706","lng":"31.784665"},{"country":"ZM","name":"Chibwa","lat":"-11.100205","lng":"31.62223"},{"country":"ZM","name":"Filimba","lat":"-11.466667","lng":"31.916667"},{"country":"ZM","name":"Chiliama","lat":"-11.383333","lng":"31.933333"},{"country":"ZM","name":"Kabungwu","lat":"-11.65","lng":"32.15"},{"country":"ZM","name":"Chishala","lat":"-11.55","lng":"32.116667"},{"country":"ZM","name":"Motuna","lat":"-11.766667","lng":"31.916667"},{"country":"ZM","name":"Machangu","lat":"-11.733333","lng":"31.866667"},{"country":"ZM","name":"Musoka","lat":"-11.701159","lng":"31.883616"},{"country":"ZM","name":"Nomba","lat":"-11.64112","lng":"31.805517"},{"country":"ZM","name":"Chikele","lat":"-11.566038","lng":"31.914746"},{"country":"ZM","name":"Muliabantu","lat":"-11.333333","lng":"31.833333"},{"country":"ZM","name":"Lazolo","lat":"-9.683333","lng":"33.166667"},{"country":"ZM","name":"Bongondwe","lat":"-11.166667","lng":"32.966667"},{"country":"ZM","name":"Kantangalika","lat":"-10.5","lng":"33"},{"country":"ZM","name":"Fundiche","lat":"-10.366667","lng":"32.95"},{"country":"ZM","name":"Samson Mulamba","lat":"-10.166667","lng":"33.016667"},{"country":"ZM","name":"Longwe","lat":"-10.283333","lng":"32.55"},{"country":"ZM","name":"Motomato","lat":"-10.833333","lng":"31.4"},{"country":"ZM","name":"Mtupo","lat":"-11.933333","lng":"31.95"},{"country":"ZM","name":"Chiwoleka","lat":"-11.833333","lng":"31.633333"},{"country":"ZM","name":"Chibaleka","lat":"-11.833333","lng":"31.633333"},{"country":"ZM","name":"Munkalama","lat":"-11.452841","lng":"31.683356"},{"country":"ZM","name":"Luvemba","lat":"-11.405402","lng":"31.66741"},{"country":"ZM","name":"Kasangono","lat":"-11.326536","lng":"31.740732"},{"country":"ZM","name":"Kasangoro","lat":"-11.326536","lng":"31.740732"},{"country":"ZM","name":"Chimfwemba","lat":"-9.728952","lng":"32.945228"},{"country":"ZM","name":"Chifembe","lat":"-9.728952","lng":"32.945228"},{"country":"ZM","name":"Jacob Mutambo","lat":"-9.713143","lng":"33.081636"},{"country":"ZM","name":"Nzoche","lat":"-9.692148","lng":"33.1398"},{"country":"ZM","name":"Nsochi","lat":"-9.692148","lng":"33.1398"},{"country":"ZM","name":"Simon Neimba","lat":"-9.453448","lng":"32.7663"},{"country":"ZM","name":"Mofwa","lat":"-9.540948","lng":"32.799134"},{"country":"ZM","name":"Singovi","lat":"-9.482749","lng":"32.794244"},{"country":"ZM","name":"Sindane","lat":"-9.370677","lng":"32.828148"},{"country":"ZM","name":"M\u2019mbezuma","lat":"-9.419645","lng":"32.840477"},{"country":"ZM","name":"Katitiki","lat":"-11.096864","lng":"32.270614"},{"country":"ZM","name":"Chisopa","lat":"-11.084028","lng":"32.306766"},{"country":"ZM","name":"Katombala","lat":"-11.166667","lng":"32.3"},{"country":"ZM","name":"Chikopiya","lat":"-11.15","lng":"32.183333"},{"country":"ZM","name":"Lupiya","lat":"-11.116667","lng":"32.15"},{"country":"ZM","name":"Rupia","lat":"-11.116667","lng":"32.15"},{"country":"ZM","name":"Sapeti","lat":"-11.05","lng":"32.283333"},{"country":"ZM","name":"Kabyanda","lat":"-11.05","lng":"32.45"},{"country":"ZM","name":"Chiwunoki","lat":"-11.033333","lng":"32.116667"},{"country":"ZM","name":"Kalandi","lat":"-11","lng":"32.333333"},{"country":"ZM","name":"Malindika","lat":"-11.764476","lng":"33.129167"},{"country":"ZM","name":"Mwame","lat":"-11.383333","lng":"32.866667"},{"country":"ZM","name":"Namasulwa","lat":"-11.716667","lng":"30.766667"},{"country":"ZM","name":"Tundua","lat":"-11.816667","lng":"31.166667"},{"country":"ZM","name":"Mbukozi","lat":"-9.436083","lng":"32.897627"},{"country":"ZM","name":"Kapelameta","lat":"-9.31335","lng":"32.353536"},{"country":"ZM","name":"Katote","lat":"-9.332349","lng":"32.495999"},{"country":"ZM","name":"Magwalala","lat":"-9.267704","lng":"32.555535"},{"country":"ZM","name":"Kungwa","lat":"-11.783333","lng":"32.833333"},{"country":"ZM","name":"Khungwe","lat":"-11.783333","lng":"32.833333"},{"country":"ZM","name":"Kasakwenda","lat":"-11.741004","lng":"32.830388"},{"country":"ZM","name":"Uyoyo","lat":"-11.700636","lng":"32.798132"},{"country":"ZM","name":"Zowale","lat":"-11.666667","lng":"32.8"},{"country":"ZM","name":"Lunchenya","lat":"-11.666667","lng":"32.8"},{"country":"ZM","name":"Kampotwe","lat":"-11.683333","lng":"32.683333"},{"country":"ZM","name":"Chunzingo","lat":"-11.666667","lng":"32.666667"},{"country":"ZM","name":"Makwenyora","lat":"-11.95","lng":"31.516667"},{"country":"ZM","name":"Masamamba","lat":"-11.88475","lng":"31.502686"},{"country":"ZM","name":"Malamamwita","lat":"-11.916667","lng":"30.683333"},{"country":"ZM","name":"Musalema","lat":"-12","lng":"31.533333"},{"country":"ZM","name":"Chundeponde","lat":"-12.278857","lng":"30.575377"},{"country":"ZM","name":"Chameshi","lat":"-12.25","lng":"30.383333"},{"country":"ZM","name":"Chemesi","lat":"-12.25","lng":"30.383333"},{"country":"ZM","name":"Malunga","lat":"-12.55","lng":"30.983333"},{"country":"ZM","name":"Chalwe Kalungu","lat":"-12.532239","lng":"31.033103"},{"country":"ZM","name":"Katina","lat":"-12.532239","lng":"31.033103"},{"country":"ZM","name":"Northern","lat":"-9.75","lng":"30.75"},{"country":"ZM","name":"Mpika","lat":"-12","lng":"31"},{"country":"ZM","name":"Walimansi","lat":"-9.583333","lng":"32.9"},{"country":"ZM","name":"Kaambwe","lat":"-9.45","lng":"32.866667"},{"country":"ZM","name":"Wisi","lat":"-9.95","lng":"32.816667"},{"country":"ZM","name":"Mmalengo","lat":"-9.933333","lng":"32.983333"},{"country":"ZM","name":"Yotula","lat":"-9.316667","lng":"32.733333"},{"country":"ZM","name":"Mbesuma","lat":"-9.366667","lng":"32.816667"},{"country":"ZM","name":"M\u2019nsovu","lat":"-9.633333","lng":"32.7"},{"country":"ZM","name":"Mwanansovu","lat":"-9.633333","lng":"32.7"},{"country":"ZM","name":"Popoto","lat":"-9.75","lng":"32.716667"},{"country":"ZM","name":"Kamchelo","lat":"-9.716667","lng":"32.8"},{"country":"ZM","name":"Nkuswe","lat":"-12.516667","lng":"31"},{"country":"ZM","name":"Kapengwe","lat":"-12.554713","lng":"31.041048"},{"country":"ZM","name":"Sekeleti Chilima","lat":"-12.683333","lng":"30.883333"},{"country":"ZM","name":"Matama Malama","lat":"-12.831973","lng":"30.974914"},{"country":"ZM","name":"Eseliya Chikumbi","lat":"-12.708405","lng":"30.989724"},{"country":"ZM","name":"Chipolo","lat":"-12.82228","lng":"31.408215"},{"country":"ZM","name":"Isoka","lat":"-10","lng":"33"},{"country":"ZM","name":"Chinsali","lat":"-10.75","lng":"32"},{"country":"ZM","name":"Chama","lat":"-11.25","lng":"32.833333"},{"country":"ZM","name":"Chifamawe","lat":"-9.716667","lng":"32.816667"},{"country":"ZM","name":"Chisotu","lat":"-9.933333","lng":"32.7"},{"country":"ZM","name":"Chisolo Mwendo","lat":"-9.933333","lng":"32.7"},{"country":"ZM","name":"Chisoru Mwendo","lat":"-9.933333","lng":"32.7"},{"country":"ZM","name":"Samson Siame","lat":"-9.983333","lng":"32.766667"},{"country":"ZM","name":"Adamson Siame","lat":"-10.083333","lng":"32.683333"},{"country":"ZM","name":"Kantesha","lat":"-10.066667","lng":"32.583333"},{"country":"ZM","name":"Chupemba","lat":"-10.016667","lng":"32.683333"},{"country":"ZM","name":"William Siame","lat":"-9.966667","lng":"32.5"},{"country":"ZM","name":"Nkashi","lat":"-9.883333","lng":"32.566667"},{"country":"ZM","name":"Chunga Farm","lat":"-9.816667","lng":"32.516667"},{"country":"ZM","name":"Katukawuchi","lat":"-9.816667","lng":"32.616667"},{"country":"ZM","name":"Popomosi","lat":"-9.5","lng":"32.566667"},{"country":"ZM","name":"Popomoshi","lat":"-9.5","lng":"32.566667"},{"country":"ZM","name":"Chisyoka","lat":"-9.75","lng":"32.633333"},{"country":"ZM","name":"Mwalala","lat":"-9.683333","lng":"32.633333"},{"country":"ZM","name":"Mukanga","lat":"-9.683333","lng":"32.566667"},{"country":"ZM","name":"Munyoloto","lat":"-9.616667","lng":"32.6"},{"country":"ZM","name":"Mutundu","lat":"-9.433333","lng":"32.383333"},{"country":"ZM","name":"Mtulamira","lat":"-9.4","lng":"32.383333"},{"country":"ZM","name":"Thomas Siame","lat":"-10.1","lng":"32.483333"},{"country":"ZM","name":"Mwiyo","lat":"-10.216667","lng":"33.516667"},{"country":"ZM","name":"Maviaia","lat":"-10.583333","lng":"33.633333"},{"country":"ZM","name":"Mathendo","lat":"-10.55","lng":"33.583333"},{"country":"ZM","name":"Marusa","lat":"-10.516667","lng":"33.616667"},{"country":"ZM","name":"Yotam Kayila","lat":"-10.25","lng":"33.516667"},{"country":"ZM","name":"Mwine Kwia","lat":"-10.216667","lng":"33.5"},{"country":"ZM","name":"Musagama","lat":"-10.2","lng":"33.45"},{"country":"ZM","name":"Lamek Kaira","lat":"-10.3","lng":"33.45"},{"country":"ZM","name":"Kasea","lat":"-10.309289","lng":"33.463022"},{"country":"ZM","name":"Kaira","lat":"-10.3","lng":"33.466667"},{"country":"ZM","name":"Benjamin Ngambe","lat":"-10.316667","lng":"33.5"},{"country":"ZM","name":"Koseya","lat":"-10.266667","lng":"33.516667"},{"country":"ZM","name":"Kapendamagi","lat":"-10.466667","lng":"33.516667"},{"country":"ZM","name":"Kapendamachi","lat":"-10.466667","lng":"33.516667"},{"country":"ZM","name":"Kaliamani","lat":"-10.373068","lng":"33.49314"},{"country":"ZM","name":"Butabira","lat":"-10.266667","lng":"33.35"},{"country":"ZM","name":"Musafiri","lat":"-10.259587","lng":"33.320225"},{"country":"ZM","name":"Mwine Lunga","lat":"-10.254538","lng":"33.419466"},{"country":"ZM","name":"Kapiri Mande","lat":"-10.25","lng":"33.316667"},{"country":"ZM","name":"Mpemba","lat":"-10.4","lng":"33.333333"},{"country":"ZM","name":"Mukhala","lat":"-10.395508","lng":"33.373699"},{"country":"ZM","name":"Mapyila","lat":"-10.15","lng":"33.35"},{"country":"ZM","name":"Mulikatembo","lat":"-10.139521","lng":"33.337994"},